{"type":"FeatureCollection","features":[{"type":"Feature","id":1,"geometry":{"type":"Point","coordinates":[-81.77512310286167,26.152768619669498]},"properties":{"OBJECTID":1,"Name":"NAPLES MUNICIPAL AIRPORT","Address":"160 AVIATION DR NORTH","City":"NAPLES","Zip":"34104","COUNTY":"COLLIER","X":-81.775123100000002,"Y":26.15276862,"USNG":"17R MJ 22526 92833","OWNERSHIP":"MUNICIPAL","PARCELID":"20764680005","NAME_OTHER":"NAPLES MUNICIPAL AIRPORT","DESCRIPTION":"160 AVIATION DRIVE NORTH  NAPLES FL 34104-3568","LINK":"http://www.florida-aviation-database.com/Facility/PublicSearch.aspx?UAID=FL000049","FAC_STATUS":"Active","UAID":"FL000049","ACODE":"APF","AUSE":"Public","AOWNERSHIP":"Public","LAT":26.15262027,"LONG":-81.775294439999996,"COMMENT":null,"FACILITY_TYPE":"AIRPORT"}},{"type":"Feature","id":2,"geometry":{"type":"Point","coordinates":[-81.526713647327753,27.591912653578394]},"properties":{"OBJECTID":2,"Name":"AVON PARK EXECUTIVE AIRPORT","Address":" ","City":"AVON PARK","Zip":"33825","COUNTY":"HIGHLANDS","X":-81.526713650000005,"Y":27.591912650000001,"USNG":"17R ML 48017 52108","OWNERSHIP":"MUNICIPAL","PARCELID":"A2133280100210003A","NAME_OTHER":"AVON PARK EXECUTIVE AIRPORT","DESCRIPTION":"1545 STATE ROAD 64 WEST  AVON PARK FL 33825","LINK":"http://www.florida-aviation-database.com/Facility/PublicSearch.aspx?UAID=FL000003","FAC_STATUS":"Active","UAID":"FL000003","ACODE":"AVO","AUSE":"Public","AOWNERSHIP":"Public","LAT":27.591144440000001,"LONG":-81.527852769999996,"COMMENT":null,"FACILITY_TYPE":"AIRPORT"}},{"type":"Feature","id":3,"geometry":{"type":"Point","coordinates":[-86.993652049073191,30.637571566978973]},"properties":{"OBJECTID":3,"Name":"PETER PRINCE FIELD","Address":" ","City":"MILTON","Zip":"32583","COUNTY":"SANTA ROSA","X":-86.993652049999994,"Y":30.637571569999999,"USNG":"16R EU 00608 89436","OWNERSHIP":"COUNTY","PARCELID":"31-2N-27-0000-00100-0000","NAME_OTHER":"PETER PRINCE FIELD","DESCRIPTION":"5550 NORTH AIRPORT ROAD  MILTON FL 32583","LINK":"http://www.florida-aviation-database.com/Facility/PublicSearch.aspx?UAID=FL000048","FAC_STATUS":"Active","UAID":"FL000048","ACODE":"2R4","AUSE":"Public","AOWNERSHIP":"Public","LAT":30.637622220000001,"LONG":-86.993652769999997,"COMMENT":null,"FACILITY_TYPE":"AIRPORT"}},{"type":"Feature","id":4,"geometry":{"type":"Point","coordinates":[-86.549514535293341,30.495535883829344]},"properties":{"OBJECTID":4,"Name":"NORTHWEST FLORIDA REGIONAL AIRPORT / EGLIN AFB","Address":"1701 STATE ROAD 85 N","City":"EGLIN AFB","Zip":" ","COUNTY":"OKALOOSA","X":-86.549514540000004,"Y":30.495535879999998,"USNG":"16R EU 43231 73783","OWNERSHIP":null,"PARCELID":null,"NAME_OTHER":"NORTHWEST FLORIDA REGIONAL AIRPORT / EGLIN AFB","DESCRIPTION":"1701 HWY 85 NORTH  EGLIN AIR FORCE BASE FL 32542-1413","LINK":"http://www.florida-aviation-database.com/Facility/PublicSearch.aspx?UAID=FL000073","FAC_STATUS":"Active","UAID":"FL000073","ACODE":"VPS","AUSE":"Public","AOWNERSHIP":"Military USAF","LAT":30.483333330000001,"LONG":-86.525333329999995,"COMMENT":null,"FACILITY_TYPE":"AIRPORT"}},{"type":"Feature","id":5,"geometry":{"type":"Point","coordinates":[-80.239647903607633,26.002420559664216]},"properties":{"OBJECTID":5,"Name":"NORTH PERRY AIRPORT","Address":" ","City":"HOLLYWOOD","Zip":"33023","COUNTY":"BROWARD","X":-80.239647899999994,"Y":26.002420560000001,"USNG":"17R NJ 76094 76173","OWNERSHIP":null,"PARCELID":"514115000051","NAME_OTHER":"NORTH PERRY AIRPORT","DESCRIPTION":"101 SOUTH WEST 77TH WAY  PEMBROKE PINES FL 33023","LINK":"http://www.florida-aviation-database.com/Facility/PublicSearch.aspx?UAID=FL000026","FAC_STATUS":"Active","UAID":"FL000026","ACODE":"HWO","AUSE":"Public","AOWNERSHIP":"Public","LAT":26.001424159999999,"LONG":-80.240520549999999,"COMMENT":null,"FACILITY_TYPE":"AIRPORT"}},{"type":"Feature","id":6,"geometry":{"type":"Point","coordinates":[-82.664457920497782,29.720322717831735]},"properties":{"OBJECTID":6,"Name":"OAK TREE LANDING AIRPORT","Address":" ","City":"NEWBERRY","Zip":"32669","COUNTY":"GILCHRIST","X":-82.664457920000004,"Y":29.720322719999999,"USNG":"17R LN 39007 88955","OWNERSHIP":null,"PARCELID":"12-09-16-0000-0004-0000","NAME_OTHER":"OAK TREE LANDING AIRPORT","DESCRIPTION":"1400 SOUTHEAST 80TH AVENUE  NEWBERRY FL 32669","LINK":"http://www.florida-aviation-database.com/Facility/PublicSearch.aspx?UAID=FL000431","FAC_STATUS":"Active","UAID":"FL000431","ACODE":"6J8","AUSE":"Public","AOWNERSHIP":"Private","LAT":29.72013888,"LONG":-82.66395833,"COMMENT":null,"FACILITY_TYPE":"AIRPORT"}},{"type":"Feature","id":7,"geometry":{"type":"Point","coordinates":[-81.63034812011702,28.846101511746923]},"properties":{"OBJECTID":7,"Name":"MID FLORIDA AIR SERVICE AIRPORT","Address":" ","City":"MOUNT DORA","Zip":"32757","COUNTY":"LAKE","X":-81.630348119999994,"Y":28.84610151,"USNG":"17R MM 38512 91098","OWNERSHIP":null,"PARCELID":"081927000400001901","NAME_OTHER":"MID FLORIDA AIR SERVICE AIRPORT","DESCRIPTION":"19708 EUSTIS AIRPORT ROAD  EUSTIS FL 32736","LINK":"http://www.florida-aviation-database.com/Facility/PublicSearch.aspx?UAID=FL000345","FAC_STATUS":"Active","UAID":"FL000345","ACODE":"X55","AUSE":"Public","AOWNERSHIP":"Private","LAT":28.84335111,"LONG":-81.630024160000005,"COMMENT":null,"FACILITY_TYPE":"AIRPORT"}},{"type":"Feature","id":8,"geometry":{"type":"Point","coordinates":[-80.554222105937754,25.498721350267118]},"properties":{"OBJECTID":8,"Name":"HOMESTEAD GENERAL AVIATION AIRPORT","Address":"28700 SW 217 AVE","City":"HOMESTEAD","Zip":"33030","COUNTY":"MIAMI-DADE","X":-80.554222109999998,"Y":25.49872135,"USNG":"17R NJ 44800 20247","OWNERSHIP":null,"PARCELID":"3078050000010","NAME_OTHER":"HOMESTEAD GENERAL AVIATION AIRPORT","DESCRIPTION":"28700 SOUTH WEST 217 AVENUE  HOMESTEAD FL 33030","LINK":"http://www.florida-aviation-database.com/Facility/PublicSearch.aspx?UAID=FL000028","FAC_STATUS":"Active","UAID":"FL000028","ACODE":"X51","AUSE":"Public","AOWNERSHIP":"Public","LAT":25.498719439999999,"LONG":-80.554225000000002,"COMMENT":null,"FACILITY_TYPE":"AIRPORT"}},{"type":"Feature","id":9,"geometry":{"type":"Point","coordinates":[-82.374549121727,28.221280556156891]},"properties":{"OBJECTID":9,"Name":"TAMPA NORTH AERO PARK","Address":" ","City":"LUTZ","Zip":"33559","COUNTY":"PASCO","X":-82.374549119999998,"Y":28.22128056,"USNG":"17R LM 65120 22480","OWNERSHIP":null,"PARCELID":"1926140000002000090","NAME_OTHER":"TAMPA NORTH AERO PARK","DESCRIPTION":"4241 BIRDSONG BOULEVARD  LUTZ FL 33559","LINK":"http://www.florida-aviation-database.com/Facility/PublicSearch.aspx?UAID=FL000781","FAC_STATUS":"Active","UAID":"FL000781","ACODE":"X39","AUSE":"Public","AOWNERSHIP":"Private","LAT":28.221280549999999,"LONG":-82.374547219999997,"COMMENT":null,"FACILITY_TYPE":"AIRPORT"}},{"type":"Feature","id":10,"geometry":{"type":"Point","coordinates":[-80.368278040370669,27.495055470859221]},"properties":{"OBJECTID":10,"Name":"ST LUCIE COUNTY INTERNATIONAL AIRPORT","Address":" ","City":"FORT PIERCE","Zip":"34946","COUNTY":"ST. LUCIE","X":-80.368278040000007,"Y":27.49505547,"USNG":"17R NL 62400 41427","OWNERSHIP":null,"PARCELID":"1430-111-0001-000-2","NAME_OTHER":"ST LUCIE COUNTY INTERNATIONAL AIRPORT","DESCRIPTION":"3000 CURTIS KING BOULEVARD  FORT PIERCE FL 34946","LINK":"http://www.florida-aviation-database.com/Facility/PublicSearch.aspx?UAID=FL000020","FAC_STATUS":"Active","UAID":"FL000020","ACODE":"FPR","AUSE":"Public","AOWNERSHIP":"Public","LAT":27.49506388,"LONG":-80.368272219999994,"COMMENT":null,"FACILITY_TYPE":"AIRPORT"}},{"type":"Feature","id":11,"geometry":{"type":"Point","coordinates":[-82.571304200652634,28.867276645422979]},"properties":{"OBJECTID":11,"Name":"CRYSTAL RIVER AIRPORT","Address":"718 N LINDBERGH DR","City":"CRYSTAL RIVER","Zip":"34429","COUNTY":"CITRUS","X":-82.5713042,"Y":28.867276650000001,"USNG":"17R LM 46749 94295","OWNERSHIP":"COUNTY","PARCELID":"17E18S34      12300","NAME_OTHER":"CRYSTAL RIVER AIRPORT","DESCRIPTION":"718 NORTH LINDBERGH DRIVE  CRYSTAL RIVER FL 34429","LINK":"http://www.florida-aviation-database.com/Facility/PublicSearch.aspx?UAID=FL000090","FAC_STATUS":"Active","UAID":"FL000090","ACODE":"CGC","AUSE":"Public","AOWNERSHIP":"Public","LAT":28.867277770000001,"LONG":-82.571305550000005,"COMMENT":null,"FACILITY_TYPE":"AIRPORT"}},{"type":"Feature","id":12,"geometry":{"type":"Point","coordinates":[-80.221481102947919,26.845372433508704]},"properties":{"OBJECTID":12,"Name":"NORTH PALM BEACH COUNTY GENERAL AVIATION AIRPORT","Address":" ","City":"WEST PALM BEACH","Zip":"33412","COUNTY":"PALM BEACH","X":-80.221481100000005,"Y":26.845372430000001,"USNG":"17R NK 77347 69546","OWNERSHIP":null,"PARCELID":null,"NAME_OTHER":"NORTH PALM BEACH COUNTY GENERAL AVIATION AIRPORT","DESCRIPTION":"11600 AVIATION BOULEVARD  WEST PALM BEACH FL 33412","LINK":"http://www.florida-aviation-database.com/Facility/PublicSearch.aspx?UAID=FL000083","FAC_STATUS":"Active","UAID":"FL000083","ACODE":"F45","AUSE":"Public","AOWNERSHIP":"Public","LAT":26.845373049999999,"LONG":-80.221481109999999,"COMMENT":null,"FACILITY_TYPE":"AIRPORT"}},{"type":"Feature","id":13,"geometry":{"type":"Point","coordinates":[-81.051474181074511,26.735527522278581]},"properties":{"OBJECTID":13,"Name":"AIRGLADES AIRPORT","Address":" ","City":"CLEWISTON","Zip":"33440","COUNTY":"HENDRY","X":-81.05147418,"Y":26.735527520000002,"USNG":"17R MK 94881 57144","OWNERSHIP":"COUNTY","PARCELID":"1 33 43 17 A00 0001.0000","NAME_OTHER":"AIRGLADES AIRPORT","DESCRIPTION":"3200 AIRGLADES BOULEVARD  CLEWISTON FL 33440","LINK":"http://www.florida-aviation-database.com/Facility/PublicSearch.aspx?UAID=FL000010","FAC_STATUS":"Active","UAID":"FL000010","ACODE":"2IS","AUSE":"Public","AOWNERSHIP":"Public","LAT":26.742008330000001,"LONG":-81.049788879999994,"COMMENT":null,"FACILITY_TYPE":"AIRPORT"}},{"type":"Feature","id":14,"geometry":{"type":"Point","coordinates":[-80.854496322416523,27.266053817843261]},"properties":{"OBJECTID":14,"Name":"OKEECHOBEE COUNTY AIRPORT","Address":" ","City":"OKEECHOBEE","Zip":"34972","COUNTY":"OKEECHOBEE","X":-80.854496319999996,"Y":27.26605382,"USNG":"17R NL 14402 15912","OWNERSHIP":"COUNTY","PARCELID":"1-08-37-35-0A00-00001-0000","NAME_OTHER":"OKEECHOBEE COUNTY AIRPORT","DESCRIPTION":"2800 NORTH WEST 20TH TRAIL  OKEECHOBEE FL 34972","LINK":"http://www.florida-aviation-database.com/Facility/PublicSearch.aspx?UAID=FL000052","FAC_STATUS":"Active","UAID":"FL000052","ACODE":"OBE","AUSE":"Public","AOWNERSHIP":"Public","LAT":27.266111110000001,"LONG":-80.850155549999997,"COMMENT":null,"FACILITY_TYPE":"AIRPORT"}},{"type":"Feature","id":15,"geometry":{"type":"Point","coordinates":[-80.279050045470356,25.905123310801738]},"properties":{"OBJECTID":15,"Name":"OPA-LOCKA EXECUTIVE AIRPORT","Address":"14201 NW 42ND AVE","City":"OPA LOCKA","Zip":"33054","COUNTY":"MIAMI-DADE","X":-80.279050049999995,"Y":25.90512331,"USNG":"17R NJ 72210 65375","OWNERSHIP":"FEDERAL","PARCELID":"0821200000010","NAME_OTHER":"OPA-LOCKA EXECUTIVE AIRPORT","DESCRIPTION":"14201 NORTHWEST  LEJEUNE ROAD  OPA-LOCKA FL 33054","LINK":"http://www.florida-aviation-database.com/Facility/PublicSearch.aspx?UAID=FL000043","FAC_STATUS":"Active","UAID":"FL000043","ACODE":"OPF","AUSE":"Public","AOWNERSHIP":"Public","LAT":25.907025000000001,"LONG":-80.278388879999994,"COMMENT":null,"FACILITY_TYPE":"AIRPORT"}},{"type":"Feature","id":16,"geometry":{"type":"Point","coordinates":[-80.421848800655425,27.655583914388085]},"properties":{"OBJECTID":16,"Name":"VERO BEACH MUNICIPAL AIRPORT","Address":"3400 CHEROKEE DR","City":"VERO BEACH","Zip":"32960","COUNTY":"INDIAN RIVER","X":-80.421848800000006,"Y":27.655583920000002,"USNG":"17R NL 57025 59184","OWNERSHIP":null,"PARCELID":"32392600011000000000.1","NAME_OTHER":"VERO BEACH MUNICIPAL AIRPORT","DESCRIPTION":"3400 CHEROKEE DRIVE P.O. BOX 1389 VERO BEACH FL 32961-1389","LINK":"http://www.florida-aviation-database.com/Facility/PublicSearch.aspx?UAID=FL000075","FAC_STATUS":"Active","UAID":"FL000075","ACODE":"VRB","AUSE":"Public","AOWNERSHIP":"Public","LAT":27.655558330000002,"LONG":-80.417944439999999,"COMMENT":null,"FACILITY_TYPE":"AIRPORT"}},{"type":"Feature","id":17,"geometry":{"type":"Point","coordinates":[-82.164237985326878,28.00021660226906]},"properties":{"OBJECTID":17,"Name":"PLANT CITY AIRPORT","Address":"4007 N AIRPORT RD","City":"PLANT CITY","Zip":"33566","COUNTY":"HILLSBOROUGH","X":-82.164237990000004,"Y":28.000216600000002,"USNG":"17R LL 85524 97772","OWNERSHIP":null,"PARCELID":"212836ZZZ000005982600P","NAME_OTHER":"PLANT CITY AIRPORT","DESCRIPTION":"4007 AIRPORT ROAD  PLANT CITY FL 33563","LINK":"http://www.florida-aviation-database.com/Facility/PublicSearch.aspx?UAID=FL000059","FAC_STATUS":"Active","UAID":"FL000059","ACODE":"PCM","AUSE":"Public","AOWNERSHIP":"Public","LAT":28.00021666,"LONG":-82.164241660000002,"COMMENT":null,"FACILITY_TYPE":"AIRPORT"}},{"type":"Feature","id":18,"geometry":{"type":"Point","coordinates":[-81.234867088109027,28.781761086767293]},"properties":{"OBJECTID":18,"Name":"ORLANDO SANFORD INTERNATIONAL AIRPORT","Address":"1 RED CLEVELAND BLVD","City":"SANFORD","Zip":"32773","COUNTY":"SEMINOLE","X":-81.234867089999995,"Y":28.78176109,"USNG":"17R MM 77076 83829","OWNERSHIP":null,"PARCELID":"05203130000100000","NAME_OTHER":"ORLANDO SANFORD INTERNATIONAL AIRPORT","DESCRIPTION":"1200 RED CLEVELAND BOULEVARD  SANFORD FL 32773-6844","LINK":"http://www.florida-aviation-database.com/Facility/PublicSearch.aspx?UAID=FL000062","FAC_STATUS":"Active","UAID":"FL000062","ACODE":"SFB","AUSE":"Public","AOWNERSHIP":"Public","LAT":28.777640000000002,"LONG":-81.237489440000004,"COMMENT":null,"FACILITY_TYPE":"AIRPORT"}},{"type":"Feature","id":19,"geometry":{"type":"Point","coordinates":[-85.601026056633273,30.847666442999305]},"properties":{"OBJECTID":19,"Name":"TRI-COUNTY AIRPORT","Address":" ","City":"BONIFAY","Zip":"32425","COUNTY":"HOLMES","X":-85.601026059999995,"Y":30.847666440000001,"USNG":"16R FV 33772 13557","OWNERSHIP":null,"PARCELID":"0511.00-000-000-004.000","NAME_OTHER":"TRI-COUNTY AIRPORT","DESCRIPTION":"1983 AIRPORT ROAD  BONIFAY FL 32425","LINK":"http://www.florida-aviation-database.com/Facility/PublicSearch.aspx?UAID=FL000006","FAC_STATUS":"Active","UAID":"FL000006","ACODE":"1J0","AUSE":"Public","AOWNERSHIP":"Public","LAT":30.845777770000002,"LONG":-85.601388880000002,"COMMENT":null,"FACILITY_TYPE":"AIRPORT"}},{"type":"Feature","id":20,"geometry":{"type":"Point","coordinates":[-81.906429583610233,30.687952770524539]},"properties":{"OBJECTID":20,"Name":"HILLIARD AIRPARK","Address":" ","City":"HILLIARD","Zip":"32046","COUNTY":"NASSAU","X":-81.906429579999994,"Y":30.687952769999999,"USNG":"17R MP 13184 95370","OWNERSHIP":null,"PARCELID":"09-3N-24-0000-0031-0010","NAME_OTHER":"HILLIARD AIRPARK","DESCRIPTION":"37776 EAST WOOD ROAD  HILLIARD FL 32046","LINK":"http://www.florida-aviation-database.com/Facility/PublicSearch.aspx?UAID=FL000094","FAC_STATUS":"Active","UAID":"FL000094","ACODE":"01J","AUSE":"Public","AOWNERSHIP":"Public","LAT":30.688011110000001,"LONG":-81.905944439999999,"COMMENT":null,"FACILITY_TYPE":"AIRPORT"}},{"type":"Feature","id":21,"geometry":{"type":"Point","coordinates":[-83.024669805498462,30.300367589938709]},"properties":{"OBJECTID":21,"Name":"SUWANNEE COUNTY AIRPORT","Address":"13530 80TH TER","City":"LIVE OAK","Zip":"32060","COUNTY":"SUWANNEE","X":-83.024669810000006,"Y":30.30036759,"USNG":"17R LP 05295 53805","OWNERSHIP":"COUNTY","PARCELID":"2102S13E05267000000","NAME_OTHER":"SUWANNEE COUNTY AIRPORT","DESCRIPTION":"13308 80TH TERRACE  LIVE OAK FL 32060","LINK":"http://www.florida-aviation-database.com/Facility/PublicSearch.aspx?UAID=FL000093","FAC_STATUS":"Active","UAID":"FL000093","ACODE":"24J","AUSE":"Public","AOWNERSHIP":"Public","LAT":30.301699989999999,"LONG":-83.023599989999994,"COMMENT":null,"FACILITY_TYPE":"AIRPORT"}},{"type":"Feature","id":22,"geometry":{"type":"Point","coordinates":[-80.947904842018346,29.054423845428961]},"properties":{"OBJECTID":22,"Name":"NEW SMYRNA BEACH MUNICIPAL AIRPORT","Address":"602 SKYLINE DR","City":"NEW SMYRNA BEACH","Zip":"32168","COUNTY":"VOLUSIA","X":-80.947904840000007,"Y":29.054423849999999,"USNG":"17R NN 05071 14016","OWNERSHIP":null,"PARCELID":"33174001000010","NAME_OTHER":"NEW SMYRNA BEACH MUNICIPAL AIRPORT","DESCRIPTION":"600 SKYLINE DRIVE  NEW SMYRNA FL 32168","LINK":"http://www.florida-aviation-database.com/Facility/PublicSearch.aspx?UAID=FL000621","FAC_STATUS":"Active","UAID":"FL000621","ACODE":"EVB","AUSE":"Public","AOWNERSHIP":"Public","LAT":29.05569444,"LONG":-80.948908329999995,"COMMENT":null,"FACILITY_TYPE":"AIRPORT"}},{"type":"Feature","id":23,"geometry":{"type":"Point","coordinates":[-84.911974193250245,29.64137249763403]},"properties":{"OBJECTID":23,"Name":"ST GEORGE ISLAND AIRPORT","Address":"1501 LONG POINT ROAD","City":"EASTPOINT","Zip":"32328","COUNTY":"FRANKLIN","X":-84.911974189999995,"Y":29.641372499999999,"USNG":"16R GT 02128 80869","OWNERSHIP":null,"PARCELID":null,"NAME_OTHER":"ST GEORGE ISLAND AIRPORT","DESCRIPTION":"1501 LONG POINT ROAD  ST. GOERGE ISLAND FL 32328","LINK":"http://www.florida-aviation-database.com/Facility/PublicSearch.aspx?UAID=FL000229","FAC_STATUS":"Active","UAID":"FL000229","ACODE":"F47","AUSE":"Public","AOWNERSHIP":"Private","LAT":29.64458402,"LONG":-84.915598939999995,"COMMENT":null,"FACILITY_TYPE":"AIRPORT"}},{"type":"Feature","id":24,"geometry":{"type":"Point","coordinates":[-81.68954525611916,29.658261293714283]},"properties":{"OBJECTID":24,"Name":"PALATKA MUNICIPAL AIRPORT","Address":"4015 REID ST","City":"PALATKA","Zip":"32177","COUNTY":"PUTNAM","X":-81.689545260000003,"Y":29.658261289999999,"USNG":"17R MN 33267 81117","OWNERSHIP":"MUNICIPAL","PARCELID":"03-10-26-0000-0010-0000","NAME_OTHER":"PALATKA MUNICIPAL-LT. KAY LARKIN FIELD","DESCRIPTION":"4015 REID STREET  PALATKA FL 32177","LINK":"http://www.florida-aviation-database.com/Facility/PublicSearch.aspx?UAID=FL000056","FAC_STATUS":"Active","UAID":"FL000056","ACODE":"28J","AUSE":"Public","AOWNERSHIP":"Public","LAT":29.65858055,"LONG":-81.688694440000006,"COMMENT":null,"FACILITY_TYPE":"AIRPORT"}},{"type":"Feature","id":25,"geometry":{"type":"Point","coordinates":[-84.557418089476855,30.597859592255642]},"properties":{"OBJECTID":25,"Name":"QUINCY MUNICIPAL AIRPORT","Address":" ","City":"QUINCY","Zip":"32352","COUNTY":"GADSDEN","X":-84.557418089999999,"Y":30.597859589999999,"USNG":"16R GU 34190 87577","OWNERSHIP":"MUNICIPAL","PARCELID":"3-05-2N-3W-0000-00420-0000","NAME_OTHER":"QUINCY MUNICIPAL AIRPORT","DESCRIPTION":"1300 AIRPORT DRIVE  QUINCY FL 32351","LINK":"http://www.florida-aviation-database.com/Facility/PublicSearch.aspx?UAID=FL000061","FAC_STATUS":"Active","UAID":"FL000061","ACODE":"2J9","AUSE":"Public","AOWNERSHIP":"Public","LAT":30.59786111,"LONG":-84.557438880000007,"COMMENT":null,"FACILITY_TYPE":"AIRPORT"}},{"type":"Feature","id":26,"geometry":{"type":"Point","coordinates":[-80.665950812229696,26.698300993287862]},"properties":{"OBJECTID":26,"Name":"BELLE GLADE STATE MUNICIPAL AIRPORT","Address":" ","City":"BELLE GLADE","Zip":"33430","COUNTY":"PALM BEACH","X":-80.665950809999998,"Y":26.69830099,"USNG":"17R NK 33230 53063","OWNERSHIP":null,"PARCELID":"00374329000007010","NAME_OTHER":"BELLE GLADE STATE MUNICIPAL AIRPORT","DESCRIPTION":"250 GATOR BOULEVARD  BELLE GLADE FL 33430","LINK":"http://www.florida-aviation-database.com/Facility/PublicSearch.aspx?UAID=FL000101","FAC_STATUS":"Active","UAID":"FL000101","ACODE":"X10","AUSE":"Public","AOWNERSHIP":"Public","LAT":26.698305550000001,"LONG":-80.660805550000006,"COMMENT":null,"FACILITY_TYPE":"AIRPORT"}},{"type":"Feature","id":27,"geometry":{"type":"Point","coordinates":[-80.89760427619423,25.86181438234826]},"properties":{"OBJECTID":27,"Name":"DADE-COLLIER TRAINING AND TRANSITION AIRPORT","Address":" ","City":"OCHOPEE","Zip":"34141","COUNTY":"COLLIER","X":-80.897604279999996,"Y":25.861814379999998,"USNG":"17R NJ 10259 60384","OWNERSHIP":null,"PARCELID":"01233520000","NAME_OTHER":"DADE-COLLIER TRAINING AND TRANSITION AIRPORT","DESCRIPTION":"54757 EAST TAMIAMI TRAIL  OCHOPPI FL 34141","LINK":"http://www.florida-aviation-database.com/Facility/PublicSearch.aspx?UAID=FL000044","FAC_STATUS":"Active","UAID":"FL000044","ACODE":"TNT","AUSE":"Public","AOWNERSHIP":"Public","LAT":25.86180555,"LONG":-80.897000000000006,"COMMENT":null,"FACILITY_TYPE":"AIRPORT"}},{"type":"Feature","id":28,"geometry":{"type":"Point","coordinates":[-80.177226065008142,25.78338897578401]},"properties":{"OBJECTID":28,"Name":"MIAMI SEAPLANE BASE","Address":" ","City":" ","Zip":" ","COUNTY":"MIAMI-DADE","X":-80.177226070000003,"Y":25.783388980000002,"USNG":"17R NJ 82493 51953","OWNERSHIP":null,"PARCELID":null,"NAME_OTHER":"MIAMI SEAPLANE BASE","DESCRIPTION":"1000 MACAURTHUR CAUSEWAY  MIAMI FL 33132","LINK":"http://www.florida-aviation-database.com/Facility/PublicSearch.aspx?UAID=FL000100","FAC_STATUS":"Active","UAID":"FL000100","ACODE":"X44","AUSE":"Public","AOWNERSHIP":"Public","LAT":25.778333329999999,"LONG":-80.170277769999998,"COMMENT":null,"FACILITY_TYPE":"AIRPORT"}},{"type":"Feature","id":29,"geometry":{"type":"Point","coordinates":[-80.685501060449383,28.341588612328415]},"properties":{"OBJECTID":29,"Name":"MERRITT ISLAND AIRPORT","Address":"900 AIRPORT RD","City":"MERRITT ISLAND","Zip":"32952","COUNTY":"BREVARD","X":-80.685501060000007,"Y":28.341588609999999,"USNG":"17R NM 30824 35082","OWNERSHIP":"COUNTY","PARCELID":"25 360100    4","NAME_OTHER":"MERRITT ISLAND AIRPORT","DESCRIPTION":"900 AIRPORT RD.  MERRITT ISLAND FL 32952","LINK":"http://www.florida-aviation-database.com/Facility/PublicSearch.aspx?UAID=FL000011","FAC_STATUS":"Active","UAID":"FL000011","ACODE":"COI","AUSE":"Public","AOWNERSHIP":"Public","LAT":28.34158888,"LONG":-80.685497220000002,"COMMENT":null,"FACILITY_TYPE":"AIRPORT"}},{"type":"Feature","id":30,"geometry":{"type":"Point","coordinates":[-81.050440313030762,24.726536492578159]},"properties":{"OBJECTID":30,"Name":"THE FLORIDA KEYS MARATHON AIRPORT","Address":"9400 OVERSEAS HWY","City":"MARATHON","Zip":"33050","COUNTY":"MONROE","X":-81.050440309999999,"Y":24.726536490000001,"USNG":"17R MH 94898 34669","OWNERSHIP":"COUNTY","PARCELID":"0166 32 00101160000000","NAME_OTHER":"THE FLORIDA KEYS MARATHON AIRPORT","DESCRIPTION":"9400 OVERSEAS HIGHWAY, SUITE 200  MARATHON FL 33050","LINK":"http://www.florida-aviation-database.com/Facility/PublicSearch.aspx?UAID=FL000040","FAC_STATUS":"Active","UAID":"FL000040","ACODE":"MTH","AUSE":"Public","AOWNERSHIP":"Public","LAT":24.726182770000001,"LONG":-81.051367769999999,"COMMENT":null,"FACILITY_TYPE":"AIRPORT"}},{"type":"Feature","id":31,"geometry":{"type":"Point","coordinates":[-82.272042799835873,29.689007210099085]},"properties":{"OBJECTID":31,"Name":"GAINESVILLE REGIONAL AIRPORT","Address":"3880 NE 39 AVE STE A","City":"GAINESVILLE","Zip":"32609","COUNTY":"ALACHUA","X":-82.272042799999994,"Y":29.68900721,"USNG":"17R LN 76928 85002","OWNERSHIP":null,"PARCELID":"08161 000 000","NAME_OTHER":"GAINESVILLE REGIONAL AIRPORT","DESCRIPTION":"3880 NORTHEAST 39TH AVENUE  GAINESVILLE FL 32609","LINK":"http://www.florida-aviation-database.com/Facility/PublicSearch.aspx?UAID=FL000025","FAC_STATUS":"Active","UAID":"FL000025","ACODE":"GNV","AUSE":"Public","AOWNERSHIP":"Public","LAT":29.69005555,"LONG":-82.27177777,"COMMENT":null,"FACILITY_TYPE":"AIRPORT"}},{"type":"Feature","id":32,"geometry":{"type":"Point","coordinates":[-82.553787814570953,27.394294589941822]},"properties":{"OBJECTID":32,"Name":"SARASOTA / BRADENTON INTERNATIONAL AIRPORT","Address":"SARASOTA MANATEE ARPT AUTH, 6","City":"SARASOTA","Zip":"34243","COUNTY":"MANATEE","X":-82.553787810000003,"Y":27.394294590000001,"USNG":"17R LL 46371 31066","OWNERSHIP":"SPECIAL TAXING DISTRICT","PARCELID":"6844700129","NAME_OTHER":"SARASOTA / BRADENTON INTERNATIONAL AIRPORT","DESCRIPTION":"6000 AIRPORT CIRCLE  SARASOTA FL 34243-2105","LINK":"http://www.florida-aviation-database.com/Facility/PublicSearch.aspx?UAID=FL000063","FAC_STATUS":"Active","UAID":"FL000063","ACODE":"SRQ","AUSE":"Public","AOWNERSHIP":"Public","LAT":27.395452769999999,"LONG":-82.554386109999996,"COMMENT":null,"FACILITY_TYPE":"AIRPORT"}},{"type":"Feature","id":33,"geometry":{"type":"Point","coordinates":[-81.280425805862492,29.066911640880519]},"properties":{"OBJECTID":33,"Name":"DELAND MUNICIPAL - SIDNEY H TAYLOR FIELD","Address":"1725  LEXINGTON AVE","City":"DELAND","Zip":"32724","COUNTY":"VOLUSIA","X":-81.280425809999997,"Y":29.066911640000001,"USNG":"17R MN 72704 15431","OWNERSHIP":"MUNICIPAL","PARCELID":"30163400000020","NAME_OTHER":"DELAND MUNICIPAL - SIDNEY H TAYLOR FIELD","DESCRIPTION":"1777 LANGLEY AVE  DELAND FL 32724","LINK":"http://www.florida-aviation-database.com/Facility/PublicSearch.aspx?UAID=FL000016","FAC_STATUS":"Active","UAID":"FL000016","ACODE":"DED","AUSE":"Public","AOWNERSHIP":"Public","LAT":29.06698055,"LONG":-81.283941659999996,"COMMENT":null,"FACILITY_TYPE":"AIRPORT"}},{"type":"Feature","id":34,"geometry":{"type":"Point","coordinates":[-81.754419653102886,28.059127670521999]},"properties":{"OBJECTID":34,"Name":"WINTER HAVEN'S GILBERT AIRPORT","Address":" ","City":"WINTER HAVEN","Zip":"33881","COUNTY":"POLK","X":-81.754419650000003,"Y":28.059127669999999,"USNG":"17R MM 25862 03981","OWNERSHIP":"MUNICIPAL","PARCELID":"262807000000011010","NAME_OTHER":"WINTER HAVEN'S GILBERT AIRPORT","DESCRIPTION":"2073 HIGHWAY 92 WEST  WINTER HAVEN FL 33881","LINK":"http://www.florida-aviation-database.com/Facility/PublicSearch.aspx?UAID=FL000079","FAC_STATUS":"Active","UAID":"FL000079","ACODE":"GIF","AUSE":"Public","AOWNERSHIP":"Public","LAT":28.062919440000002,"LONG":-81.753316659999996,"COMMENT":null,"FACILITY_TYPE":"AIRPORT"}},{"type":"Feature","id":35,"geometry":{"type":"Point","coordinates":[-80.494137313845883,27.814149463033107]},"properties":{"OBJECTID":35,"Name":"SEBASTIAN MUNICIPAL AIRPORT","Address":" ","City":"SEBASTIAN","Zip":"32958","COUNTY":"INDIAN RIVER","X":-80.494137309999999,"Y":27.814149459999999,"USNG":"17R NL 49823 76717","OWNERSHIP":"MUNICIPAL","PARCELID":"30382200001000000000.1","NAME_OTHER":"SEBASTIAN MUNICIPAL AIRPORT","DESCRIPTION":"202 AIRPORT DRIVE EAST  SEBASTIAN FL 32958","LINK":"http://www.florida-aviation-database.com/Facility/PublicSearch.aspx?UAID=FL000088","FAC_STATUS":"Active","UAID":"FL000088","ACODE":"X26","AUSE":"Public","AOWNERSHIP":"Public","LAT":27.812802770000001,"LONG":-80.495608329999996,"COMMENT":null,"FACILITY_TYPE":"AIRPORT"}},{"type":"Feature","id":36,"geometry":{"type":"Point","coordinates":[-85.113787628051256,30.48774453746211]},"properties":{"OBJECTID":36,"Name":"CALHOUN COUNTY AIRPORT","Address":" ","City":"BLOUNTSTOWN","Zip":"32424","COUNTY":"CALHOUN","X":-85.113787630000004,"Y":30.487744540000001,"USNG":"16R FU 81040 74345","OWNERSHIP":"COUNTY","PARCELID":"14-1N-09-0000-0008-0100","NAME_OTHER":"CALHOUN COUNTY AIRPORT","DESCRIPTION":"16701 NORTHWEST AGRIPARK ROAD  ALTHA FL 32421","LINK":"http://www.florida-aviation-database.com/Facility/PublicSearch.aspx?UAID=FL000097","FAC_STATUS":"Active","UAID":"FL000097","ACODE":"F95","AUSE":"Public","AOWNERSHIP":"Public","LAT":30.488222220000001,"LONG":-85.11381944,"COMMENT":null,"FACILITY_TYPE":"AIRPORT"}},{"type":"Feature","id":37,"geometry":{"type":"Point","coordinates":[-81.62037160544142,27.893125379427602]},"properties":{"OBJECTID":37,"Name":"LAKE WALES MUNICIPAL AIRPORT","Address":"440 S AIRPORT RD","City":"LAKE WALES","Zip":"33859","COUNTY":"POLK","X":-81.620371610000007,"Y":27.893125380000001,"USNG":"17R ML 38942 85518","OWNERSHIP":null,"PARCELID":"273004000000021010","NAME_OTHER":"LAKE WALES MUNICIPAL AIRPORT","DESCRIPTION":"450 AIRPORT ROAD SOUTH  LAKE WALES FL 33859-1320","LINK":"http://www.florida-aviation-database.com/Facility/PublicSearch.aspx?UAID=FL000037","FAC_STATUS":"Active","UAID":"FL000037","ACODE":"X07","AUSE":"Public","AOWNERSHIP":"Public","LAT":27.893802770000001,"LONG":-81.620411110000006,"COMMENT":null,"FACILITY_TYPE":"AIRPORT"}},{"type":"Feature","id":38,"geometry":{"type":"Point","coordinates":[-81.881801512345064,27.513018352310482]},"properties":{"OBJECTID":38,"Name":"WAUCHULA MUNICIPAL AIRPORT","Address":" ","City":"WAUCHULA","Zip":"33873","COUNTY":"HARDEE","X":-81.881801510000003,"Y":27.513018349999999,"USNG":"17R ML 12910 43568","OWNERSHIP":"MUNICIPAL","PARCELID":"23-34-24-0000-07820-0000","NAME_OTHER":"WAUCHULA MUNICIPAL AIRPORT","DESCRIPTION":"1202 MAURICE SONNY CLAVEL ROAD  WAUCHULA FL 33873","LINK":"http://www.florida-aviation-database.com/Facility/PublicSearch.aspx?UAID=FL000076","FAC_STATUS":"Active","UAID":"FL000076","ACODE":"CHN","AUSE":"Public","AOWNERSHIP":"Public","LAT":27.513649990000001,"LONG":-81.880638880000006,"COMMENT":null,"FACILITY_TYPE":"AIRPORT"}},{"type":"Feature","id":39,"geometry":{"type":"Point","coordinates":[-82.758743109198292,27.976686489793668]},"properties":{"OBJECTID":39,"Name":"CLEARWATER AIR PARK","Address":" ","City":"CLEARWATER","Zip":"33765","COUNTY":"PINELLAS","X":-82.758743109999998,"Y":27.976686489999999,"USNG":"17R LL 27023 95865","OWNERSHIP":"MUNICIPAL","PARCELID":"15 29 12 55836 001 0012","NAME_OTHER":"CLEARWATER AIR PARK","DESCRIPTION":"1000 NORTH HERCULES AVENUE  CLEARWATER FL 33765","LINK":"http://www.florida-aviation-database.com/Facility/PublicSearch.aspx?UAID=FL000009","FAC_STATUS":"Active","UAID":"FL000009","ACODE":"CLW","AUSE":"Public","AOWNERSHIP":"Public","LAT":27.97668638,"LONG":-82.758740270000004,"COMMENT":null,"FACILITY_TYPE":"AIRPORT"}},{"type":"Feature","id":40,"geometry":{"type":"Point","coordinates":[-83.050254576520885,29.1344587965946]},"properties":{"OBJECTID":40,"Name":"GEORGE T LEWIS AIRPORT","Address":"16751 SW AIRPORT RD","City":"CEDAR KEY","Zip":"32625","COUNTY":"LEVY","X":-83.050254580000001,"Y":29.134458800000001,"USNG":"17R LN 00541 24620","OWNERSHIP":null,"PARCELID":"0042200000","NAME_OTHER":"GEORGE T LEWIS AIRPORT","DESCRIPTION":"14703 SOUTHWEST AIRPORT ROAD  CEDAR KEY FL 32625","LINK":"http://www.florida-aviation-database.com/Facility/PublicSearch.aspx?UAID=FL000105","FAC_STATUS":"Active","UAID":"FL000105","ACODE":"CDK","AUSE":"Public","AOWNERSHIP":"Public","LAT":29.13424444,"LONG":-83.050472220000003,"COMMENT":null,"FACILITY_TYPE":"AIRPORT"}},{"type":"Feature","id":41,"geometry":{"type":"Point","coordinates":[-82.688332197722133,27.909480605203807]},"properties":{"OBJECTID":41,"Name":"ST PETE-CLEARWATER INTERNATIONAL AIRPORT","Address":"14700 TERMINAL BLVD","City":"CLEARWATER","Zip":"33762","COUNTY":"PINELLAS","X":-82.688332200000005,"Y":27.909480609999999,"USNG":"17R LL 33846 88321","OWNERSHIP":"COUNTY","PARCELID":"16 29 34 00110 000 0000","NAME_OTHER":"ST PETE-CLEARWATER INTERNATIONAL AIRPORT","DESCRIPTION":"14700 TERMINAL BOULEVARD AIRPORT DIRECTOR'S OFFICE - SUITE 221 CLEARWATER FL 33762","LINK":"http://www.florida-aviation-database.com/Facility/PublicSearch.aspx?UAID=FL000067","FAC_STATUS":"Active","UAID":"FL000067","ACODE":"PIE","AUSE":"Public","AOWNERSHIP":"Public","LAT":27.910763330000002,"LONG":-82.687439440000006,"COMMENT":null,"FACILITY_TYPE":"AIRPORT"}},{"type":"Feature","id":42,"geometry":{"type":"Point","coordinates":[-81.341393525647888,27.457087045957696]},"properties":{"OBJECTID":42,"Name":"SEBRING REGIONAL AIRPORT","Address":" ","City":"SEBRING","Zip":"33870","COUNTY":"HIGHLANDS","X":-81.341393530000005,"Y":27.457087049999998,"USNG":"17R ML 66266 37109","OWNERSHIP":null,"PARCELID":"C083530A0000100000","NAME_OTHER":"SEBRING REGIONAL AIRPORT","DESCRIPTION":"128 AUTHORITY LANE  SEBRING FL 33870","LINK":"http://www.florida-aviation-database.com/Facility/PublicSearch.aspx?UAID=FL000064","FAC_STATUS":"Active","UAID":"FL000064","ACODE":"SEF","AUSE":"Public","AOWNERSHIP":"Public","LAT":27.45640277,"LONG":-81.342399990000004,"COMMENT":null,"FACILITY_TYPE":"AIRPORT"}},{"type":"Feature","id":43,"geometry":{"type":"Point","coordinates":[-81.437740875054303,28.290480363319197]},"properties":{"OBJECTID":43,"Name":"KISSIMMEE GATEWAY AIRPORT","Address":"301 DYER BLVD","City":"KISSIMMEE","Zip":"34741","COUNTY":"OSCEOLA","X":-81.437740880000007,"Y":28.29048036,"USNG":"17R MM 57075 29458","OWNERSHIP":"MUNICIPAL","PARCELID":"20-25-29-2360-0017-0010","NAME_OTHER":"KISSIMMEE GATEWAY AIRPORT","DESCRIPTION":"301 NORTH  DYER BOULEVARD SUITE 101 KISSIMMEE FL 34744-4613","LINK":"http://www.florida-aviation-database.com/Facility/PublicSearch.aspx?UAID=FL000035","FAC_STATUS":"Active","UAID":"FL000035","ACODE":"ISM","AUSE":"Public","AOWNERSHIP":"Public","LAT":28.289805550000001,"LONG":-81.437083329999993,"COMMENT":null,"FACILITY_TYPE":"AIRPORT"}},{"type":"Feature","id":44,"geometry":{"type":"Point","coordinates":[-81.058055556880291,29.179916666732822]},"properties":{"OBJECTID":44,"Name":"DAYTONA BEACH INTERNATIONAL AIRPORT","Address":"700 CATALINA DR","City":"DAYTONA BEACH","Zip":"32114","COUNTY":"VOLUSIA","X":-81.05805556,"Y":29.179916670000001,"USNG":"17R MN 94355 27920","OWNERSHIP":"COUNTY","PARCELID":"32153953010010","NAME_OTHER":"DAYTONA BEACH INTERNATIONAL AIRPORT","DESCRIPTION":"700 CATALINA DRIVE, SUITE 300  DAYTONA BEACH FL 32114","LINK":"http://www.florida-aviation-database.com/Facility/PublicSearch.aspx?UAID=FL000014","FAC_STATUS":"Active","UAID":"FL000014","ACODE":"DAB","AUSE":"Public","AOWNERSHIP":"Public","LAT":29.17991666,"LONG":-81.058055550000006,"COMMENT":null,"FACILITY_TYPE":"AIRPORT"}},{"type":"Feature","id":45,"geometry":{"type":"Point","coordinates":[-87.187963832654987,30.472797462950716]},"properties":{"OBJECTID":45,"Name":"PENSACOLA INTERNATIONAL AIRPORT","Address":"2430 AIRPORT BLVD","City":"PENSACOLA","Zip":"32504","COUNTY":"ESCAMBIA","X":-87.187963830000001,"Y":30.472797459999999,"USNG":"16R DU 81957 71192","OWNERSHIP":null,"PARCELID":null,"NAME_OTHER":"PENSACOLA INTERNATIONAL AIRPORT","DESCRIPTION":"2430 AIRPORT BLVD SUITE 225 PENSACOLA FL 32504","LINK":"http://www.florida-aviation-database.com/Facility/PublicSearch.aspx?UAID=FL000058","FAC_STATUS":"Active","UAID":"FL000058","ACODE":"PNS","AUSE":"Public","AOWNERSHIP":"Public","LAT":30.473305549999999,"LONG":-87.187444439999993,"COMMENT":null,"FACILITY_TYPE":"AIRPORT"}},{"type":"Feature","id":46,"geometry":{"type":"Point","coordinates":[-86.471783010281285,30.400368104460455]},"properties":{"OBJECTID":46,"Name":"DESTIN - FT WALTON BEACH AIRPORT","Address":" ","City":"DESTIN","Zip":"32541","COUNTY":"OKALOOSA","X":-86.471783009999996,"Y":30.400368109999999,"USNG":"16R EU 50739 63269","OWNERSHIP":"COUNTY","PARCELID":"00-2S-22-0000-0007-0000","NAME_OTHER":"DESTIN - FT WALTON BEACH AIRPORT","DESCRIPTION":"1001 AIRPORT ROAD  DESTIN FL 32541","LINK":"http://www.florida-aviation-database.com/Facility/PublicSearch.aspx?UAID=FL000017","FAC_STATUS":"Active","UAID":"FL000017","ACODE":"DTS","AUSE":"Public","AOWNERSHIP":"Public","LAT":30.400056379999999,"LONG":-86.47147416,"COMMENT":null,"FACILITY_TYPE":"AIRPORT"}},{"type":"Feature","id":47,"geometry":{"type":"Point","coordinates":[-81.432149595406301,26.744296725279561]},"properties":{"OBJECTID":47,"Name":"LA BELLE MUNICIPAL AIRPORT","Address":" ","City":"LABELLE","Zip":"33935","COUNTY":"HENDRY","X":-81.432149600000002,"Y":26.744296729999999,"USNG":"17R MK 57027 58187","OWNERSHIP":"COUNTY","PARCELID":"2 29 43 16 A00 0003.0000","NAME_OTHER":"LA BELLE MUNICIPAL AIRPORT","DESCRIPTION":"99 EAST COWBOY WAY  LABELLE FL 33975-1607","LINK":"http://www.florida-aviation-database.com/Facility/PublicSearch.aspx?UAID=FL000084","FAC_STATUS":"Active","UAID":"FL000084","ACODE":"X14","AUSE":"Public","AOWNERSHIP":"Public","LAT":26.74423277,"LONG":-81.432575549999996,"COMMENT":null,"FACILITY_TYPE":"AIRPORT"}},{"type":"Feature","id":48,"geometry":{"type":"Point","coordinates":[-86.153936687895325,30.732970709014808]},"properties":{"OBJECTID":48,"Name":"DEFUNIAK SPRINGS AIRPORT","Address":" ","City":"DEFUNIAK SPRINGS","Zip":"32435","COUNTY":"WALTON","X":-86.153936689999995,"Y":30.73297071,"USNG":"16R EV 80995 00314","OWNERSHIP":"MUNICIPAL","PARCELID":"28-3N-19-19000-005-0000","NAME_OTHER":"DEFUNIAK SPRINGS AIRPORT","DESCRIPTION":"1931 U.S. HIGHWAY 90 WEST  DEFUNIAK SPRINGS FL 32435-0685","LINK":"http://www.florida-aviation-database.com/Facility/PublicSearch.aspx?UAID=FL000015","FAC_STATUS":"Active","UAID":"FL000015","ACODE":"54J","AUSE":"Public","AOWNERSHIP":"Public","LAT":30.731300000000001,"LONG":-86.153777770000005,"COMMENT":null,"FACILITY_TYPE":"AIRPORT"}},{"type":"Feature","id":49,"geometry":{"type":"Point","coordinates":[-80.558246447413651,27.963331060663055]},"properties":{"OBJECTID":49,"Name":"VALKARIA AIRPORT","Address":"2985 FAIRGREEN ST","City":"MALABAR","Zip":"32950","COUNTY":"BREVARD","X":-80.558246449999999,"Y":27.963331060000002,"USNG":"17R NL 43449 93218","OWNERSHIP":"COUNTY","PARCELID":"29 381700  253","NAME_OTHER":"VALKARIA AIRPORT","DESCRIPTION":"2865 GREENBROOKE STREET  VALKARIA FL 32950","LINK":"http://www.florida-aviation-database.com/Facility/PublicSearch.aspx?UAID=FL000087","FAC_STATUS":"Active","UAID":"FL000087","ACODE":"X59","AUSE":"Public","AOWNERSHIP":"Public","LAT":27.96086111,"LONG":-80.558333329999996,"COMMENT":null,"FACILITY_TYPE":"AIRPORT"}},{"type":"Feature","id":50,"geometry":{"type":"Point","coordinates":[-80.799224135219774,28.514798626030764]},"properties":{"OBJECTID":50,"Name":"SPACE COAST REGIONAL AIRPORT","Address":" ","City":"TITUSVILLE","Zip":"32780","COUNTY":"BREVARD","X":-80.799224140000007,"Y":28.514798630000001,"USNG":"17R NM 19646 54247","OWNERSHIP":"COUNTY","PARCELID":"23 350200    2","NAME_OTHER":"SPACE COAST REGIONAL AIRPORT","DESCRIPTION":"355 GOLDEN KNIGHTS BOULEVARD  TITUSVILLE FL 32780","LINK":"http://www.florida-aviation-database.com/Facility/PublicSearch.aspx?UAID=FL000072","FAC_STATUS":"Active","UAID":"FL000072","ACODE":"TIX","AUSE":"Public","AOWNERSHIP":"Public","LAT":28.514799440000001,"LONG":-80.799227500000001,"COMMENT":null,"FACILITY_TYPE":"AIRPORT"}},{"type":"Feature","id":51,"geometry":{"type":"Point","coordinates":[-80.639813742577516,28.102348683797977]},"properties":{"OBJECTID":51,"Name":"MELBOURNE INTERNATIONAL AIRPORT","Address":"1 AIR TERMINAL PKWY","City":"MELBOURNE","Zip":"32901","COUNTY":"BREVARD","X":-80.639813739999994,"Y":28.102348679999999,"USNG":"17R NM 35381 08592","OWNERSHIP":"MUNICIPAL","PARCELID":"27 373300    1","NAME_OTHER":"MELBOURNE INTERNATIONAL AIRPORT","DESCRIPTION":"ONE AIR TERMINAL PARKWAY SUITE 220 MELBOURNE FL 32901-1888","LINK":"http://www.florida-aviation-database.com/Facility/PublicSearch.aspx?UAID=FL000042","FAC_STATUS":"Active","UAID":"FL000042","ACODE":"MLB","AUSE":"Public","AOWNERSHIP":"Public","LAT":28.10274999,"LONG":-80.645805550000006,"COMMENT":null,"FACILITY_TYPE":"AIRPORT"}},{"type":"Feature","id":52,"geometry":{"type":"Point","coordinates":[-80.084762373351765,26.591118246315734]},"properties":{"OBJECTID":52,"Name":"PALM BEACH COUNTY PARK AIRPORT","Address":" ","City":"LAKE WORTH","Zip":"33462","COUNTY":"PALM BEACH","X":-80.084762370000007,"Y":26.591118250000001,"USNG":"17R NK 91133 41474","OWNERSHIP":"COUNTY","PARCELID":"00434429000020010","NAME_OTHER":"PALM BEACH COUNTY PARK AIRPORT","DESCRIPTION":"2633 LANTANA RD  LANTANA FL 33462","LINK":"http://www.florida-aviation-database.com/Facility/PublicSearch.aspx?UAID=FL000078","FAC_STATUS":"Active","UAID":"FL000078","ACODE":"LNA","AUSE":"Public","AOWNERSHIP":"Public","LAT":26.593055549999999,"LONG":-80.085064610000003,"COMMENT":null,"FACILITY_TYPE":"AIRPORT"}},{"type":"Feature","id":53,"geometry":{"type":"Point","coordinates":[-81.461868535550806,30.610462736892128]},"properties":{"OBJECTID":53,"Name":"FERNANDINA BEACH MUNICIPAL AIRPORT","Address":"1000 AIRPORT RD","City":"FERNANDINA BEACH","Zip":"32034","COUNTY":"NASSAU","X":-81.461868539999998,"Y":30.610462739999999,"USNG":"17R MP 55728 86523","OWNERSHIP":null,"PARCELID":"06-2N-28-0000-0001-0000","NAME_OTHER":"FERNANDINA BEACH MUNICIPAL AIRPORT","DESCRIPTION":"700 AIRPORT ROAD  FERNANDINA BEACH FL 32034","LINK":"http://www.florida-aviation-database.com/Facility/PublicSearch.aspx?UAID=FL000019","FAC_STATUS":"Active","UAID":"FL000019","ACODE":"FHB","AUSE":"Public","AOWNERSHIP":"Public","LAT":30.609683329999999,"LONG":-81.460647219999998,"COMMENT":null,"FACILITY_TYPE":"AIRPORT"}},{"type":"Feature","id":54,"geometry":{"type":"Point","coordinates":[-81.113849150163929,29.301912632232327]},"properties":{"OBJECTID":54,"Name":"ORMOND BEACH MUNICIPAL AIRPORT","Address":"770 AIRPORT RD","City":"ORMOND BEACH","Zip":"32174","COUNTY":"VOLUSIA","X":-81.113849149999993,"Y":29.30191263,"USNG":"17R MN 88943 41441","OWNERSHIP":"MUNICIPAL","PARCELID":"32140700000010","NAME_OTHER":"ORMOND BEACH MUNICIPAL AIRPORT","DESCRIPTION":"AIRPORT ROAD  ORMOND BEACH FL 32174","LINK":"http://www.florida-aviation-database.com/Facility/PublicSearch.aspx?UAID=FL000107","FAC_STATUS":"Active","UAID":"FL000107","ACODE":"OMN","AUSE":"Public","AOWNERSHIP":"Public","LAT":29.301144440000002,"LONG":-81.113808329999998,"COMMENT":null,"FACILITY_TYPE":"AIRPORT"}},{"type":"Feature","id":55,"geometry":{"type":"Point","coordinates":[-82.343247252411004,28.016525233161477]},"properties":{"OBJECTID":55,"Name":"TAMPA EXECUTIVE AIRPORT","Address":"6582 EUREKA SPRINGS RD","City":"TAMPA","Zip":"33610","COUNTY":"HILLSBOROUGH","X":-82.343247250000005,"Y":28.016525229999999,"USNG":"17R LL 67941 99760","OWNERSHIP":"COUNTY","PARCELID":"202831ZZZ000002240700U","NAME_OTHER":"TAMPA EXECUTIVE AIRPORT","DESCRIPTION":"6582 EUREKA SPRINGS ROAD  TAMPA FL 33610","LINK":"http://www.florida-aviation-database.com/Facility/PublicSearch.aspx?UAID=FL000081","FAC_STATUS":"Active","UAID":"FL000081","ACODE":"VDF","AUSE":"Public","AOWNERSHIP":"Public","LAT":28.008630549999999,"LONG":-82.349813879999999,"COMMENT":null,"FACILITY_TYPE":"AIRPORT"}},{"type":"Feature","id":56,"geometry":{"type":"Point","coordinates":[-86.521876575944518,30.777428872140856]},"properties":{"OBJECTID":56,"Name":"BOB SIKES AIRPORT","Address":" ","City":"CRESTVIEW","Zip":"32539","COUNTY":"OKALOOSA","X":-86.521876579999997,"Y":30.777428870000001,"USNG":"16R EV 45750 05033","OWNERSHIP":"COUNTY","PARCELID":"11-3N-23-0000-0003-0000","NAME_OTHER":"BOB SIKES AIRPORT","DESCRIPTION":"5545 JOHN GIVENS ROAD  CRESTVIEW FL 32536","LINK":"http://www.florida-aviation-database.com/Facility/PublicSearch.aspx?UAID=FL000012","FAC_STATUS":"Active","UAID":"FL000012","ACODE":"CEW","AUSE":"Public","AOWNERSHIP":"Public","LAT":30.77883611,"LONG":-86.522113880000006,"COMMENT":null,"FACILITY_TYPE":"AIRPORT"}},{"type":"Feature","id":57,"geometry":{"type":"Point","coordinates":[-85.028120567657467,29.726990483996737]},"properties":{"OBJECTID":57,"Name":"APALACHIACOLA REGIONAL - CLEVE RANDOLPH FIELD","Address":"28 AIRPORT RD","City":"APALACHICOLA","Zip":"32320","COUNTY":"FRANKLIN","X":-85.028120569999999,"Y":29.726990480000001,"USNG":"16R FT 90720 90162","OWNERSHIP":null,"PARCELID":null,"NAME_OTHER":"APALACHIACOLA REGIONAL - CLEVE RANDOLPH FIELD","DESCRIPTION":"8 AIRPORT ROAD  APALACHICOLA FL 32320","LINK":"http://www.florida-aviation-database.com/Facility/PublicSearch.aspx?UAID=FL000001","FAC_STATUS":"Active","UAID":"FL000001","ACODE":"AAF","AUSE":"Public","AOWNERSHIP":"Public","LAT":29.727580549999999,"LONG":-85.027405549999997,"COMMENT":null,"FACILITY_TYPE":"AIRPORT"}},{"type":"Feature","id":58,"geometry":{"type":"Point","coordinates":[-81.296991200033531,28.422940870626793]},"properties":{"OBJECTID":58,"Name":"ORLANDO INTERNATIONAL AIRPORT","Address":"1 AIRPORT BLVD","City":"ORLANDO","Zip":"32827","COUNTY":"ORANGE","X":-81.296991199999994,"Y":28.422940870000001,"USNG":"17R MM 70913 44091","OWNERSHIP":"MUNICIPAL","PARCELID":"302403000000002","NAME_OTHER":"ORLANDO INTERNATIONAL AIRPORT","DESCRIPTION":"ONE JEFF FUQUA BLVD  ORLANDO FL 32827","LINK":"http://www.florida-aviation-database.com/Facility/PublicSearch.aspx?UAID=FL000053","FAC_STATUS":"Active","UAID":"FL000053","ACODE":"MCO","AUSE":"Public","AOWNERSHIP":"Public","LAT":28.428888879999999,"LONG":-81.316027770000005,"COMMENT":null,"FACILITY_TYPE":"AIRPORT"}},{"type":"Feature","id":59,"geometry":{"type":"Point","coordinates":[-81.58174111999395,28.7072175234258]},"properties":{"OBJECTID":59,"Name":"ORLANDO APOPKA AIRPORT","Address":" ","City":"APOPKA","Zip":"32703","COUNTY":"ORANGE","X":-81.581741120000004,"Y":28.70721752,"USNG":"17R MM 43178 75687","OWNERSHIP":null,"PARCELID":"272035664501003","NAME_OTHER":"ORLANDO APOPKA AIRPORT","DESCRIPTION":"1321 APOPKA AIRPORT ROAD  APOPKA FL 32712","LINK":"http://www.florida-aviation-database.com/Facility/PublicSearch.aspx?UAID=FL000712","FAC_STATUS":"Active","UAID":"FL000712","ACODE":"X04","AUSE":"Public","AOWNERSHIP":"Private","LAT":28.707474439999999,"LONG":-81.581964439999993,"COMMENT":null,"FACILITY_TYPE":"AIRPORT"}},{"type":"Feature","id":60,"geometry":{"type":"Point","coordinates":[-82.573442636019877,30.182225242697339]},"properties":{"OBJECTID":60,"Name":"LAKE CITY GATEWAY AIRPORT","Address":" ","City":"LAKE CITY","Zip":"32025","COUNTY":"COLUMBIA","X":-82.573442639999996,"Y":30.182225240000001,"USNG":"17R LP 48513 40023","OWNERSHIP":"MUNICIPAL","PARCELID":"35-3S-17-07322-000","NAME_OTHER":"LAKE CITY GATEWAY AIRPORT","DESCRIPTION":"3524 EAST U.S. HIGHWAY 90  LAKE CITY FL 32055","LINK":"http://www.florida-aviation-database.com/Facility/PublicSearch.aspx?UAID=FL000505","FAC_STATUS":"Active","UAID":"FL000505","ACODE":"LCQ","AUSE":"Public","AOWNERSHIP":"Public","LAT":30.18203888,"LONG":-82.576927769999998,"COMMENT":null,"FACILITY_TYPE":"AIRPORT"}},{"type":"Feature","id":61,"geometry":{"type":"Point","coordinates":[-82.377175424338063,29.063421350299908]},"properties":{"OBJECTID":61,"Name":"MARION COUNTY AIRPORT","Address":"10575 SW 147TH CIR","City":"DUNNELLON","Zip":"34432","COUNTY":"MARION","X":-82.37717542,"Y":29.063421349999999,"USNG":"17R LN 65938 15794","OWNERSHIP":"COUNTY","PARCELID":"34801-000-00","NAME_OTHER":"MARION COUNTY AIRPORT","DESCRIPTION":"15070 SW 107TH ST DUNNELLON FL 34432","LINK":"http://www.florida-aviation-database.com/Facility/PublicSearch.aspx?UAID=FL000106","FAC_STATUS":"Active","UAID":"FL000106","ACODE":"X35","AUSE":"Public","AOWNERSHIP":"Public","LAT":29.061780550000002,"LONG":-82.376583330000003,"COMMENT":null,"FACILITY_TYPE":"AIRPORT"}},{"type":"Feature","id":62,"geometry":{"type":"Point","coordinates":[-85.79457030797488,30.355803155885791]},"properties":{"OBJECTID":62,"Name":"NORTHWEST FLORIDA-BEACHES INTERNATIONAL AIRPORT","Address":"6300 W BAY PKWY","City":"PANAMA CITY","Zip":"32409","COUNTY":"BAY","X":-85.794570309999997,"Y":30.355803160000001,"USNG":"16R FU 15848 58828","OWNERSHIP":null,"PARCELID":null,"NAME_OTHER":"NORTHWEST FLORIDA-BEACHES INTERNATIONAL AIRPORT","DESCRIPTION":"6300 WEST BAY PARKWAY  PANAMA CITY BEACH FL 32409","LINK":"http://www.florida-aviation-database.com/Facility/PublicSearch.aspx?UAID=FL001385","FAC_STATUS":"Active","UAID":"FL001385","ACODE":"ECP","AUSE":"Public","AOWNERSHIP":"Public","LAT":30.358241660000001,"LONG":-85.795602770000002,"COMMENT":null,"FACILITY_TYPE":"AIRPORT"}},{"type":"Feature","id":63,"geometry":{"type":"Point","coordinates":[-81.807041259405509,28.822310557369764]},"properties":{"OBJECTID":63,"Name":"LEESBURG INTERNATIONAL AIRPORT","Address":"32720 ECHO DR","City":"LEESBURG","Zip":"34788","COUNTY":"LAKE","X":-81.807041260000005,"Y":28.822310559999998,"USNG":"17R MM 21258 88566","OWNERSHIP":null,"PARCELID":"211925000100000100","NAME_OTHER":"LEESBURG INTERNATIONAL AIRPORT","DESCRIPTION":"8807 AIRPORT BOULEVARD  LEESBURG FL 34788","LINK":"http://www.florida-aviation-database.com/Facility/PublicSearch.aspx?UAID=FL000039","FAC_STATUS":"Active","UAID":"FL000039","ACODE":"LEE","AUSE":"Public","AOWNERSHIP":"Public","LAT":28.822794439999999,"LONG":-81.809188879999994,"COMMENT":null,"FACILITY_TYPE":"AIRPORT"}},{"type":"Feature","id":64,"geometry":{"type":"Point","coordinates":[-81.400151661870837,26.432154340789655]},"properties":{"OBJECTID":64,"Name":"IMMOKALEE REGIONAL AIRPORT","Address":" ","City":"IMMOKALEE","Zip":"34142","COUNTY":"COLLIER","X":-81.400151660000006,"Y":26.43215434,"USNG":"17R MK 60101 23605","OWNERSHIP":null,"PARCELID":"00088800002","NAME_OTHER":"IMMOKALEE REGIONAL AIRPORT","DESCRIPTION":"165 AIRPORT BOULEVARD  IMMOKALEE FL 34142","LINK":"http://www.florida-aviation-database.com/Facility/PublicSearch.aspx?UAID=FL000029","FAC_STATUS":"Active","UAID":"FL000029","ACODE":"IMM","AUSE":"Public","AOWNERSHIP":"Public","LAT":26.433166660000001,"LONG":-81.401027769999999,"COMMENT":null,"FACILITY_TYPE":"AIRPORT"}},{"type":"Feature","id":65,"geometry":{"type":"Point","coordinates":[-80.284110616815695,25.801462010496941]},"properties":{"OBJECTID":65,"Name":"MIAMI INTERNATIONAL AIRPORT","Address":"2100 NW 42ND AVE","City":"MIAMI","Zip":"33122","COUNTY":"MIAMI-DADE","X":-80.284110620000007,"Y":25.801462010000002,"USNG":"17R NJ 71765 53892","OWNERSHIP":"COUNTY","PARCELID":"3030360000010","NAME_OTHER":"MIAMI INTERNATIONAL AIRPORT","DESCRIPTION":"4200 NORTHWEST 21ST STREET  MIAMI FL 33159","LINK":"http://www.florida-aviation-database.com/Facility/PublicSearch.aspx?UAID=FL000045","FAC_STATUS":"Active","UAID":"FL000045","ACODE":"MIA","AUSE":"Public","AOWNERSHIP":"Public","LAT":25.795361110000002,"LONG":-80.290111109999998,"COMMENT":null,"FACILITY_TYPE":"AIRPORT"}},{"type":"Feature","id":66,"geometry":{"type":"Point","coordinates":[-81.672531131419646,25.995027590889393]},"properties":{"OBJECTID":66,"Name":"MARCO ISLAND AIRPORT","Address":" ","City":"NAPLES","Zip":"34114","COUNTY":"COLLIER","X":-81.672531129999996,"Y":25.995027589999999,"USNG":"17R MJ 32690 75306","OWNERSHIP":null,"PARCELID":"00744080001","NAME_OTHER":"MARCO ISLAND AIRPORT","DESCRIPTION":"2005 MAINSAIL DRIVE  NAPLES FL 34114","LINK":"http://www.florida-aviation-database.com/Facility/PublicSearch.aspx?UAID=FL000086","FAC_STATUS":"Active","UAID":"FL000086","ACODE":"MKY","AUSE":"Public","AOWNERSHIP":"Public","LAT":25.995041659999998,"LONG":-81.672530550000005,"COMMENT":null,"FACILITY_TYPE":"AIRPORT"}},{"type":"Feature","id":67,"geometry":{"type":"Point","coordinates":[-81.601422222011649,27.953794442954649]},"properties":{"OBJECTID":67,"Name":"CHALET SUZANNE AIR STRIP","Address":" ","City":" ","Zip":" ","COUNTY":"POLK","X":-81.601422220000003,"Y":27.953794439999999,"USNG":"17R ML 40840 92229","OWNERSHIP":null,"PARCELID":null,"NAME_OTHER":"CHALET SUZANNE AIR STRIP","DESCRIPTION":"3800 CHALET SUZANNE DRIVE  LAKE WALES FL 33859-7763","LINK":"http://www.florida-aviation-database.com/Facility/PublicSearch.aspx?UAID=FL000526","FAC_STATUS":"Active","UAID":"FL000526","ACODE":"X25","AUSE":"Public","AOWNERSHIP":"Private","LAT":27.953794439999999,"LONG":-81.601422220000003,"COMMENT":null,"FACILITY_TYPE":"AIRPORT"}},{"type":"Feature","id":68,"geometry":{"type":"Point","coordinates":[-82.440199502088873,27.072141557668637]},"properties":{"OBJECTID":68,"Name":"VENICE MUNICIPAL AIRPORT","Address":" ","City":"VENICE","Zip":"34285","COUNTY":"SARASOTA","X":-82.440199500000006,"Y":27.072141559999999,"USNG":"17R LK 57192 95242","OWNERSHIP":"MUNICIPAL","PARCELID":"0431-06-0001","NAME_OTHER":"VENICE MUNICIPAL AIRPORT","DESCRIPTION":"150 EAST AIRPORT AVENUE  VENICE FL 34285","LINK":"http://www.florida-aviation-database.com/Facility/PublicSearch.aspx?UAID=FL000074","FAC_STATUS":"Active","UAID":"FL000074","ACODE":"VNC","AUSE":"Public","AOWNERSHIP":"Public","LAT":27.071611109999999,"LONG":-82.440347220000007,"COMMENT":null,"FACILITY_TYPE":"AIRPORT"}},{"type":"Feature","id":69,"geometry":{"type":"Point","coordinates":[-80.154710345827411,26.075559737818807]},"properties":{"OBJECTID":69,"Name":"FT LAUDERDALE/HOLLYWOOD INTERNATIONAL AIRPORT","Address":"320 TERMINAL DRIVE","City":"FORT LAUDERDALE","Zip":"33315","COUNTY":"BROWARD","X":-80.154710350000002,"Y":26.075559739999999,"USNG":"17R NJ 84542 84325","OWNERSHIP":"COUNTY","PARCELID":"504228060020","NAME_OTHER":"FT LAUDERDALE/HOLLYWOOD INTERNATIONAL AIRPORT","DESCRIPTION":"2200 SOUTHWEST 45TH STREET  DANIA BEACH FL 33312","LINK":"http://www.florida-aviation-database.com/Facility/PublicSearch.aspx?UAID=FL000022","FAC_STATUS":"Active","UAID":"FL000022","ACODE":"FLL","AUSE":"Public","AOWNERSHIP":"Public","LAT":26.072583330000001,"LONG":-80.152749990000004,"COMMENT":null,"FACILITY_TYPE":"AIRPORT"}},{"type":"Feature","id":70,"geometry":{"type":"Point","coordinates":[-81.727476401892417,28.800849797478069]},"properties":{"OBJECTID":70,"Name":"TAVARES SEAPLANE BASE","Address":" ","City":" ","Zip":" ","COUNTY":"LAKE","X":-81.7274764,"Y":28.800849800000002,"USNG":"17R MM 29007 86138","OWNERSHIP":null,"PARCELID":null,"NAME_OTHER":"TAVARES SEAPLANE BASE","DESCRIPTION":"150 EAST RUBY STREET  TAVARES FL 32778","LINK":"http://www.florida-aviation-database.com/Facility/PublicSearch.aspx?UAID=FL001386","FAC_STATUS":"Active","UAID":"FL001386","ACODE":"FA1","AUSE":"Public","AOWNERSHIP":"Public","LAT":28.795361110000002,"LONG":-81.721194440000005,"COMMENT":null,"FACILITY_TYPE":"AIRPORT"}},{"type":"Feature","id":71,"geometry":{"type":"Point","coordinates":[-81.755165104939209,26.536166544873069]},"properties":{"OBJECTID":71,"Name":"SOUTHWEST FLORIDA INTERNATIONAL AIRPORT","Address":"16000 CHAMBERLIN PARKWAY SE","City":"FORT MYERS","Zip":"33913","COUNTY":"LEE","X":-81.755165099999999,"Y":26.536166550000001,"USNG":"17R MK 24769 35284","OWNERSHIP":"COUNTY","PARCELID":"19452600000020000","NAME_OTHER":"SOUTHWEST FLORIDA INTERNATIONAL AIRPORT","DESCRIPTION":"11000 TERMINAL ACCESS ROAD  FORT MYERS FL 33913","LINK":"http://www.florida-aviation-database.com/Facility/PublicSearch.aspx?UAID=FL000085","FAC_STATUS":"Active","UAID":"FL000085","ACODE":"RSW","AUSE":"Public","AOWNERSHIP":"Public","LAT":26.536166659999999,"LONG":-81.75516666,"COMMENT":null,"FACILITY_TYPE":"AIRPORT"}},{"type":"Feature","id":72,"geometry":{"type":"Point","coordinates":[-82.014338010920824,27.98914758368425]},"properties":{"OBJECTID":72,"Name":"LAKELAND LINDER REGIONAL AIRPORT","Address":"3400 AIRFIELD DRIVE W","City":"LAKELAND","Zip":"33811","COUNTY":"POLK","X":-82.014338010000003,"Y":27.989147580000001,"USNG":"17R ML 00254 96414","OWNERSHIP":"MUNICIPAL","PARCELID":"232904000000011010","NAME_OTHER":"LAKELAND LINDER REGIONAL AIRPORT","DESCRIPTION":"3900 DON EMERSON DRRIVE SUITE 210 LAKELAND FL 33811","LINK":"http://www.florida-aviation-database.com/Facility/PublicSearch.aspx?UAID=FL000038","FAC_STATUS":"Active","UAID":"FL000038","ACODE":"LAL","AUSE":"Public","AOWNERSHIP":"Public","LAT":27.988916660000001,"LONG":-82.018555550000002,"COMMENT":null,"FACILITY_TYPE":"AIRPORT"}},{"type":"Feature","id":73,"geometry":{"type":"Point","coordinates":[-80.924857774589469,28.979514265998581]},"properties":{"OBJECTID":73,"Name":"MASSEY RANCH AIRPARK","Address":"COUNTY ROAD 4136 & S AIR PARK RD","City":"EDGEWATER","Zip":"32132","COUNTY":"VOLUSIA","X":-80.924857770000003,"Y":28.979514269999999,"USNG":"17R NN 07320 05718","OWNERSHIP":null,"PARCELID":"34183801000020","NAME_OTHER":"MASSEY RANCH AIRPARK","DESCRIPTION":"635 AIRPARK ROAD  EDGEWATER FL 32132","LINK":"http://www.florida-aviation-database.com/Facility/PublicSearch.aspx?UAID=FL000622","FAC_STATUS":"Active","UAID":"FL000622","ACODE":"X50","AUSE":"Public","AOWNERSHIP":"Private","LAT":28.978874999999999,"LONG":-80.925052769999994,"COMMENT":null,"FACILITY_TYPE":"AIRPORT"}},{"type":"Feature","id":74,"geometry":{"type":"Point","coordinates":[-81.629118977584113,28.735270513991928]},"properties":{"OBJECTID":74,"Name":"BOB WHITE FIELD","Address":" ","City":"MOUNT DORA","Zip":"32757","COUNTY":"ORANGE","X":-81.629118980000001,"Y":28.735270509999999,"USNG":"17R MM 38567 78818","OWNERSHIP":null,"PARCELID":"272020000000018","NAME_OTHER":"BOB WHITE FIELD","DESCRIPTION":"7011 WEST JONES AVENUE  ZELLWOOD FL 32798","LINK":"http://www.florida-aviation-database.com/Facility/PublicSearch.aspx?UAID=FL000834","FAC_STATUS":"Active","UAID":"FL000834","ACODE":"X61","AUSE":"Public","AOWNERSHIP":"Private","LAT":28.73360555,"LONG":-81.633130550000004,"COMMENT":null,"FACILITY_TYPE":"AIRPORT"}},{"type":"Feature","id":75,"geometry":{"type":"Point","coordinates":[-80.219712116328878,27.184974594463672]},"properties":{"OBJECTID":75,"Name":"WITHAM FIELD","Address":"2001 SE AIRPORT RD","City":"STUART","Zip":"34996","COUNTY":"MARTIN","X":-80.219712119999997,"Y":27.1849746,"USNG":"17R NL 77290 07163","OWNERSHIP":"COUNTY","PARCELID":"103841000001000001","NAME_OTHER":"WITHAM FIELD","DESCRIPTION":"2011 SOUTHEAST AIRPORT ROAD  STUART FL 34996","LINK":"http://www.florida-aviation-database.com/Facility/PublicSearch.aspx?UAID=FL000068","FAC_STATUS":"Active","UAID":"FL000068","ACODE":"SUA","AUSE":"Public","AOWNERSHIP":"Public","LAT":27.181699989999998,"LONG":-80.221291660000006,"COMMENT":null,"FACILITY_TYPE":"AIRPORT"}},{"type":"Feature","id":76,"geometry":{"type":"Point","coordinates":[-81.206096069988291,29.469852576282385]},"properties":{"OBJECTID":76,"Name":"FLAGLER COUNTY AIRPORT","Address":"170 AVIATION DR","City":"PALM COAST","Zip":"32164","COUNTY":"FLAGLER","X":-81.206096070000001,"Y":29.469852580000001,"USNG":"17R MN 80017 60060","OWNERSHIP":null,"PARCELID":"07-12-31-0650-000D0-000A","NAME_OTHER":"FLAGLER COUNTY AIRPORT","DESCRIPTION":"201 AIRPORT ROAD  PALM COAST FL 32164","LINK":"http://www.florida-aviation-database.com/Facility/PublicSearch.aspx?UAID=FL000008","FAC_STATUS":"Active","UAID":"FL000008","ACODE":"XFL","AUSE":"Public","AOWNERSHIP":"Public","LAT":29.467388880000001,"LONG":-81.206333330000007,"COMMENT":null,"FACILITY_TYPE":"AIRPORT"}},{"type":"Feature","id":77,"geometry":{"type":"Point","coordinates":[-82.44606699650133,28.476326826240765]},"properties":{"OBJECTID":77,"Name":"HERNANDO COUNTY AIRPORT","Address":"2495 BROAD ST","City":"BROOKSVILLE","Zip":"34604","COUNTY":"HERNANDO","X":-82.446066999999999,"Y":28.476326830000001,"USNG":"17R LM 58440 50821","OWNERSHIP":"COUNTY","PARCELID":"R24 423 18 0000 0010 0000","NAME_OTHER":"HERNANDO COUNTY AIRPORT","DESCRIPTION":"15800 FLIGHT PATH DRIVE  BROOKSVILLE FL 34604","LINK":"http://www.florida-aviation-database.com/Facility/PublicSearch.aspx?UAID=FL000007","FAC_STATUS":"Active","UAID":"FL000007","ACODE":"BKV","AUSE":"Public","AOWNERSHIP":"Public","LAT":28.473597219999998,"LONG":-82.455422220000003,"COMMENT":null,"FACILITY_TYPE":"AIRPORT"}},{"type":"Feature","id":78,"geometry":{"type":"Point","coordinates":[-81.805945966742158,30.277787495326969]},"properties":{"OBJECTID":78,"Name":"HERLONG RECREATIONAL AIRPORT","Address":"8977 HERLONG RD","City":"JACKSONVILLE","Zip":"32210","COUNTY":"DUVAL","X":-81.805945969999996,"Y":30.277787499999999,"USNG":"17R MP 22484 49841","OWNERSHIP":"COUNTY","PARCELID":"0090290000R","NAME_OTHER":"HERLONG RECREATIONAL AIRPORT","DESCRIPTION":"9300 NORMANDY BOULEVARD  JACKSONVILLE FL 32221-5522","LINK":"http://www.florida-aviation-database.com/Facility/PublicSearch.aspx?UAID=FL000031","FAC_STATUS":"Active","UAID":"FL000031","ACODE":"HEG","AUSE":"Public","AOWNERSHIP":"Public","LAT":30.27523888,"LONG":-81.805377770000007,"COMMENT":null,"FACILITY_TYPE":"AIRPORT"}},{"type":"Feature","id":79,"geometry":{"type":"Point","coordinates":[-82.450372880461003,27.915278254373941]},"properties":{"OBJECTID":79,"Name":"PETER O KNIGHT AIRPORT","Address":"825 SEVERN AVE","City":"TAMPA","Zip":"33606","COUNTY":"HILLSBOROUGH","X":-82.450372880000003,"Y":27.915278260000001,"USNG":"17R LL 57275 88663","OWNERSHIP":null,"PARCELID":"1829364J5000054000000A","NAME_OTHER":"PETER O KNIGHT AIRPORT","DESCRIPTION":"825 SEVERN AVENUE  TAMPA FL 33606","LINK":"http://www.florida-aviation-database.com/Facility/PublicSearch.aspx?UAID=FL000071","FAC_STATUS":"Active","UAID":"FL000071","ACODE":"TPF","AUSE":"Public","AOWNERSHIP":"Public","LAT":27.915577769999999,"LONG":-82.449261109999995,"COMMENT":null,"FACILITY_TYPE":"AIRPORT"}},{"type":"Feature","id":80,"geometry":{"type":"Point","coordinates":[-82.508719972881536,29.618022616825215]},"properties":{"OBJECTID":80,"Name":"FLYING TEN AIRPORT","Address":" ","City":"ARCHER","Zip":"32618","COUNTY":"ALACHUA","X":-82.508719970000001,"Y":29.618022620000001,"USNG":"17R LN 53924 77411","OWNERSHIP":null,"PARCELID":"04437 003 000","NAME_OTHER":"FLYING TEN AIRPORT","DESCRIPTION":"3906 SOUTHWEST 154 STREET  ARCHER FL 32618","LINK":"http://www.florida-aviation-database.com/Facility/PublicSearch.aspx?UAID=FL000237","FAC_STATUS":"Active","UAID":"FL000237","ACODE":"0J8","AUSE":"Public","AOWNERSHIP":"Private","LAT":29.61802222,"LONG":-82.508719439999993,"COMMENT":null,"FACILITY_TYPE":"AIRPORT"}},{"type":"Feature","id":81,"geometry":{"type":"Point","coordinates":[-81.313675192600058,29.10442652897725]},"properties":{"OBJECTID":81,"Name":"BOB LEE FLIGHT STRIP","Address":" ","City":"DELAND","Zip":"32724","COUNTY":"VOLUSIA","X":-81.313675189999998,"Y":29.104426530000001,"USNG":"17R MN 69478 19595","OWNERSHIP":"SPECIAL TAXING DISTRICT","PARCELID":"30161700000050","NAME_OTHER":"BOB LEE FLIGHT STRIP","DESCRIPTION":"5000 BOB LEE AIRPORT ROAD  DELAND FL 32724","LINK":"http://www.florida-aviation-database.com/Facility/PublicSearch.aspx?UAID=FL000333","FAC_STATUS":"Active","UAID":"FL000333","ACODE":"1J6","AUSE":"Public","AOWNERSHIP":"Private","LAT":29.104427770000001,"LONG":-81.313674989999996,"COMMENT":null,"FACILITY_TYPE":"AIRPORT"}},{"type":"Feature","id":82,"geometry":{"type":"Point","coordinates":[-82.039641778114444,27.92999101083047]},"properties":{"OBJECTID":82,"Name":"SOUTH LAKELAND AIRPORT","Address":" ","City":"MULBERRY","Zip":"33860","COUNTY":"POLK","X":-82.039641779999997,"Y":27.929991009999998,"USNG":"17R LL 97710 89881","OWNERSHIP":null,"PARCELID":"232930000000021020","NAME_OTHER":"SOUTH LAKELAND AIRPORT","DESCRIPTION":"7500 CORONET ROAD  MULBERRY FL 33860-8307","LINK":"http://www.florida-aviation-database.com/Facility/PublicSearch.aspx?UAID=FL000612","FAC_STATUS":"Active","UAID":"FL000612","ACODE":"X49","AUSE":"Public","AOWNERSHIP":"Private","LAT":27.933358049999999,"LONG":-82.043973879999996,"COMMENT":null,"FACILITY_TYPE":"AIRPORT"}},{"type":"Feature","id":83,"geometry":{"type":"Point","coordinates":[-82.624942042259377,27.765464533673583]},"properties":{"OBJECTID":83,"Name":"ALBERT WHITTED AIRPORT","Address":"341 8TH AVE SE","City":"SAINT PETERSBURG","Zip":"33701","COUNTY":"PINELLAS","X":-82.624942039999993,"Y":27.765464529999999,"USNG":"17R LL 39874 72280","OWNERSHIP":"MUNICIPAL","PARCELID":"17 31 20 00241 001 0020","NAME_OTHER":"ALBERT WHITTED AIRPORT","DESCRIPTION":"107 8TH AVENUE SOUTHEAST  SAINT PETERSBURG FL 33701","LINK":"http://www.florida-aviation-database.com/Facility/PublicSearch.aspx?UAID=FL000066","FAC_STATUS":"Active","UAID":"FL000066","ACODE":"SPG","AUSE":"Public","AOWNERSHIP":"Public","LAT":27.765111109999999,"LONG":-82.626972219999999,"COMMENT":null,"FACILITY_TYPE":"AIRPORT"}},{"type":"Feature","id":84,"geometry":{"type":"Point","coordinates":[-81.916248114573207,26.968976095746651]},"properties":{"OBJECTID":84,"Name":"SHELL CREEK AIRPARK","Address":" ","City":"PUNTA GORDA","Zip":"33982","COUNTY":"CHARLOTTE","X":-81.916248109999998,"Y":26.968976099999999,"USNG":"17R MK 09067 83328","OWNERSHIP":null,"PARCELID":"402428100013","NAME_OTHER":"SHELL CREEK AIRPARK","DESCRIPTION":"36880 WASHINGTON LOOP ROAD  PUNTA GORDA FL 33982","LINK":"http://www.florida-aviation-database.com/Facility/PublicSearch.aspx?UAID=FL000724","FAC_STATUS":"Active","UAID":"FL000724","ACODE":"F13","AUSE":"Public","AOWNERSHIP":"Private","LAT":26.96894722,"LONG":-81.915641660000006,"COMMENT":null,"FACILITY_TYPE":"AIRPORT"}},{"type":"Feature","id":85,"geometry":{"type":"Point","coordinates":[-82.528855729915321,27.970677093535517]},"properties":{"OBJECTID":85,"Name":"TAMPA INTERNATIONAL AIRPORT","Address":"5020 W TAMPA BAY BLVD","City":"TAMPA","Zip":"33607","COUNTY":"HILLSBOROUGH","X":-82.528855730000004,"Y":27.970677089999999,"USNG":"17R LL 49628 94895","OWNERSHIP":"COUNTY","PARCELID":"182907ZZZ000005454400A","NAME_OTHER":"TAMPA INTERNATIONAL AIRPORT","DESCRIPTION":"4100 GEORGE J. BEAN PARKWAY  TAMPA FL 33607","LINK":"http://www.florida-aviation-database.com/Facility/PublicSearch.aspx?UAID=FL000070","FAC_STATUS":"Active","UAID":"FL000070","ACODE":"TPA","AUSE":"Public","AOWNERSHIP":"Public","LAT":27.97547222,"LONG":-82.549916659999994,"COMMENT":null,"FACILITY_TYPE":"AIRPORT"}},{"type":"Feature","id":86,"geometry":{"type":"Point","coordinates":[-81.862156737014587,26.587286727631696]},"properties":{"OBJECTID":86,"Name":"PAGE FIELD","Address":" ","City":"FORT MYERS","Zip":"33907","COUNTY":"LEE","X":-81.862156740000003,"Y":26.587286729999999,"USNG":"17R MK 14148 41013","OWNERSHIP":"COUNTY","PARCELID":"01452400000070000","NAME_OTHER":"PAGE FIELD","DESCRIPTION":"5200 CAPT. CHANNING PAGE DRIVE  FORT MYERS FL 33907-1526","LINK":"http://www.florida-aviation-database.com/Facility/PublicSearch.aspx?UAID=FL000024","FAC_STATUS":"Active","UAID":"FL000024","ACODE":"FMY","AUSE":"Public","AOWNERSHIP":"Public","LAT":26.586658329999999,"LONG":-81.863280549999999,"COMMENT":null,"FACILITY_TYPE":"AIRPORT"}},{"type":"Feature","id":87,"geometry":{"type":"Point","coordinates":[-84.700502994485063,29.842306562003017]},"properties":{"OBJECTID":87,"Name":"CARRABELLE - THOMPSON AIRPORT","Address":"296 AIRPORT ROAD","City":"CARRABELLE","Zip":"32322","COUNTY":"FRANKLIN","X":-84.700502990000004,"Y":29.842306560000001,"USNG":"16R GU 22161 03531","OWNERSHIP":null,"PARCELID":"24-07S-05W-0000-0100-0000","NAME_OTHER":"CARRABELLE - THOMPSON AIRPORT","DESCRIPTION":"296 AIRPORT ROAD  CARRABELLE FL 32322","LINK":"http://www.florida-aviation-database.com/Facility/PublicSearch.aspx?UAID=FL000027","FAC_STATUS":"Active","UAID":"FL000027","ACODE":"X13","AUSE":"Public","AOWNERSHIP":"Public","LAT":29.841999999999999,"LONG":-84.701111109999999,"COMMENT":null,"FACILITY_TYPE":"AIRPORT"}},{"type":"Feature","id":88,"geometry":{"type":"Point","coordinates":[-81.991116763850883,26.920131125144358]},"properties":{"OBJECTID":88,"Name":"PUNTA GORDA AIRPORT","Address":" ","City":"PUNTA GORDA","Zip":"33982","COUNTY":"CHARLOTTE","X":-81.991116759999997,"Y":26.920131130000001,"USNG":"17R MK 01593 77974","OWNERSHIP":"OTHER PUBLIC","PARCELID":"412310300001","NAME_OTHER":"PUNTA GORDA AIRPORT","DESCRIPTION":"28000 A-1 AIRPORT ROAD  PUNTA GORDA FL 33982-2453","LINK":"http://www.florida-aviation-database.com/Facility/PublicSearch.aspx?UAID=FL000060","FAC_STATUS":"Active","UAID":"FL000060","ACODE":"PGD","AUSE":"Public","AOWNERSHIP":"Public","LAT":26.92019444,"LONG":-81.990513879999995,"COMMENT":null,"FACILITY_TYPE":"AIRPORT"}},{"type":"Feature","id":89,"geometry":{"type":"Point","coordinates":[-80.693351152746061,26.785037497348661]},"properties":{"OBJECTID":89,"Name":"PALM BEACH COUNTY GLADES AIRPORT","Address":" ","City":"PAHOKEE","Zip":"33476","COUNTY":"PALM BEACH","X":-80.693351149999998,"Y":26.785037500000001,"USNG":"17R NK 30481 62663","OWNERSHIP":"COUNTY","PARCELID":"00364225000003060","NAME_OTHER":"PALM BEACH COUNTY GLADES AIRPORT","DESCRIPTION":"3800 STATE ROAD 715  PAHOKEE FL 33476-3029","LINK":"http://www.florida-aviation-database.com/Facility/PublicSearch.aspx?UAID=FL000055","FAC_STATUS":"Active","UAID":"FL000055","ACODE":"PHK","AUSE":"Public","AOWNERSHIP":"Public","LAT":26.78583888,"LONG":-80.693447219999996,"COMMENT":null,"FACILITY_TYPE":"AIRPORT"}},{"type":"Feature","id":90,"geometry":{"type":"Point","coordinates":[-82.374015127165805,26.99007957688152]},"properties":{"OBJECTID":90,"Name":"BUCHAN AIRPORT","Address":" ","City":"ENGLEWOOD","Zip":"34223","COUNTY":"SARASOTA","X":-82.374015130000004,"Y":26.99007958,"USNG":"17R LK 63657 86078","OWNERSHIP":"SPECIAL TAXING DISTRICT","PARCELID":"0492-01-0001","NAME_OTHER":"BUCHAN AIRPORT","DESCRIPTION":"1390 OLD ENGLEWOOD ROAD  VENICE FL 34285","LINK":"http://www.florida-aviation-database.com/Facility/PublicSearch.aspx?UAID=FL000098","FAC_STATUS":"Active","UAID":"FL000098","ACODE":"X36","AUSE":"Public","AOWNERSHIP":"Public","LAT":26.989780549999999,"LONG":-82.373149999999995,"COMMENT":null,"FACILITY_TYPE":"AIRPORT"}},{"type":"Feature","id":91,"geometry":{"type":"Point","coordinates":[-81.513872832771867,30.336316709024576]},"properties":{"OBJECTID":91,"Name":"JACKSONVILLE EXECUTIVE AT CRAIG AIRPORT","Address":"855 N ST JOHNS BLUFF RD","City":"JACKSONVILLE","Zip":"32225","COUNTY":"DUVAL","X":-81.513872829999997,"Y":30.336316709999998,"USNG":"17R MP 50605 56164","OWNERSHIP":"COUNTY","PARCELID":"1621050000R","NAME_OTHER":"JACKSONVILLE EXECUTIVE AT CRAIG AIRPORT","DESCRIPTION":"855-11 SAINT JOHNS BLUFF ROAD NORTH  JACKSONVILLE FL 32225","LINK":"http://www.florida-aviation-database.com/Facility/PublicSearch.aspx?UAID=FL000030","FAC_STATUS":"Active","UAID":"FL000030","ACODE":"CRG","AUSE":"Public","AOWNERSHIP":"Public","LAT":30.33632222,"LONG":-81.514449999999997,"COMMENT":null,"FACILITY_TYPE":"AIRPORT"}},{"type":"Feature","id":92,"geometry":{"type":"Point","coordinates":[-81.759854189002638,24.556130002301515]},"properties":{"OBJECTID":92,"Name":"KEY WEST INTERNATIONAL AIRPORT","Address":"3491 S ROOSEVELT BLVD","City":"KEY WEST","Zip":"33040","COUNTY":"MONROE","X":-81.759854189999999,"Y":24.55613,"USNG":"17R MH 23048 16012","OWNERSHIP":"COUNTY","PARCELID":"0368 25 00064840000000","NAME_OTHER":"KEY WEST INTERNATIONAL AIRPORT","DESCRIPTION":"3491 SOUTH ROOSEVELT BOULEVARD  KEY WEST FL 33040","LINK":"http://www.florida-aviation-database.com/Facility/PublicSearch.aspx?UAID=FL000034","FAC_STATUS":"Active","UAID":"FL000034","ACODE":"EYW","AUSE":"Public","AOWNERSHIP":"Public","LAT":24.556122219999999,"LONG":-81.759544439999999,"COMMENT":null,"FACILITY_TYPE":"AIRPORT"}},{"type":"Feature","id":93,"geometry":{"type":"Point","coordinates":[-81.68498744666455,30.491615201647367]},"properties":{"OBJECTID":93,"Name":"JACKSONVILLE INTERNATIONAL AIRPORT","Address":"2400 YANKEE CLIPPER DR","City":"JACKSONVILLE","Zip":"32218","COUNTY":"DUVAL","X":-81.684987449999994,"Y":30.491615199999998,"USNG":"17R MP 34261 73461","OWNERSHIP":"COUNTY","PARCELID":"0192800000R","NAME_OTHER":"JACKSONVILLE INTERNATIONAL AIRPORT","DESCRIPTION":"14110 PECAN PARK ROAD  JACKSONVILLE FL 32218","LINK":"http://www.florida-aviation-database.com/Facility/PublicSearch.aspx?UAID=FL000032","FAC_STATUS":"Active","UAID":"FL000032","ACODE":"JAX","AUSE":"Public","AOWNERSHIP":"Public","LAT":30.494055549999999,"LONG":-81.68786111,"COMMENT":null,"FACILITY_TYPE":"AIRPORT"}},{"type":"Feature","id":94,"geometry":{"type":"Point","coordinates":[-82.472455086884608,29.356180502970069]},"properties":{"OBJECTID":94,"Name":"WILLISTON MUNICIPAL AIRPORT","Address":"1800 SW 19TH AVE","City":"WILLISTON","Zip":"32696","COUNTY":"LEVY","X":-82.472455089999997,"Y":29.356180500000001,"USNG":"17R LN 57069 48348","OWNERSHIP":null,"PARCELID":"0444200000","NAME_OTHER":"WILLISTON MUNICIPAL AIRPORT","DESCRIPTION":"1800 SOUTH WEST 19TH AVENUE  WILLISTON FL 32696","LINK":"http://www.florida-aviation-database.com/Facility/PublicSearch.aspx?UAID=FL000103","FAC_STATUS":"Active","UAID":"FL000103","ACODE":"X60","AUSE":"Public","AOWNERSHIP":"Public","LAT":29.354166660000001,"LONG":-82.472777769999993,"COMMENT":null,"FACILITY_TYPE":"AIRPORT"}},{"type":"Feature","id":95,"geometry":{"type":"Point","coordinates":[-83.108619799515481,29.633412025019648]},"properties":{"OBJECTID":95,"Name":"CROSS CITY AIRPORT","Address":" ","City":"CROSS CITY","Zip":"32628","COUNTY":"DIXIE","X":-83.1086198,"Y":29.633412029999999,"USNG":"17R KN 95861 80023","OWNERSHIP":null,"PARCELID":"101012258900000001","NAME_OTHER":"CROSS CITY AIRPORT","DESCRIPTION":"1516 AIRPORT ROAD  CROSS CITY FL 32628","LINK":"http://www.florida-aviation-database.com/Facility/PublicSearch.aspx?UAID=FL000013","FAC_STATUS":"Active","UAID":"FL000013","ACODE":"CTY","AUSE":"Public","AOWNERSHIP":"Public","LAT":29.634444439999999,"LONG":-83.105555550000005,"COMMENT":null,"FACILITY_TYPE":"AIRPORT"}},{"type":"Feature","id":96,"geometry":{"type":"Point","coordinates":[-82.521062208629587,27.642366405660006]},"properties":{"OBJECTID":96,"Name":"AIRPORT MANATEE","Address":" ","City":"PALMETTO","Zip":"34221","COUNTY":"MANATEE","X":-82.521062209999997,"Y":27.642366410000001,"USNG":"17R LL 49944 58510","OWNERSHIP":null,"PARCELID":"590600059","NAME_OTHER":"AIRPORT MANATEE","DESCRIPTION":"14108 US HIGHWAY 41 NORTH  PALMETTO FL 34221","LINK":"http://www.florida-aviation-database.com/Facility/PublicSearch.aspx?UAID=FL000686","FAC_STATUS":"Active","UAID":"FL000686","ACODE":"48X","AUSE":"Public","AOWNERSHIP":"Private","LAT":27.642532769999999,"LONG":-82.520928609999999,"COMMENT":null,"FACILITY_TYPE":"AIRPORT"}},{"type":"Feature","id":97,"geometry":{"type":"Point","coordinates":[-80.432777139756112,25.647887437284613]},"properties":{"OBJECTID":97,"Name":"KENDALL-TAMIAMI EXECUTIVE AIRPORT","Address":" ","City":"MIAMI","Zip":"33186","COUNTY":"MIAMI-DADE","X":-80.432777139999999,"Y":25.647887440000002,"USNG":"17R NJ 56935 36812","OWNERSHIP":null,"PARCELID":"3059160000010","NAME_OTHER":"KENDALL-TAMIAMI EXECUTIVE AIRPORT","DESCRIPTION":"12800 SOUTH WEST 145 AVENUE  MIAMI FL 33186","LINK":"http://www.florida-aviation-database.com/Facility/PublicSearch.aspx?UAID=FL000046","FAC_STATUS":"Active","UAID":"FL000046","ACODE":"TMB","AUSE":"Public","AOWNERSHIP":"Public","LAT":25.64788888,"LONG":-80.432777770000001,"COMMENT":null,"FACILITY_TYPE":"AIRPORT"}},{"type":"Feature","id":98,"geometry":{"type":"Point","coordinates":[-81.203633812308041,27.779002062586752]},"properties":{"OBJECTID":98,"Name":"RIVER RANCH RESORT AIRPORT","Address":" ","City":"LAKE WALES","Zip":"33898","COUNTY":"POLK","X":-81.203633809999999,"Y":27.77900206,"USNG":"17R ML 79937 72738","OWNERSHIP":null,"PARCELID":"313123000000012010","NAME_OTHER":"RIVER RANCH RESORT AIRPORT","DESCRIPTION":"3600 RIVER RANCH BOULEVARD  RIVER RANCH FL 33867","LINK":"http://www.florida-aviation-database.com/Facility/PublicSearch.aspx?UAID=FL000732","FAC_STATUS":"Active","UAID":"FL000732","ACODE":"2RR","AUSE":"Public","AOWNERSHIP":"Private","LAT":27.78224999,"LONG":-81.205344440000005,"COMMENT":null,"FACILITY_TYPE":"AIRPORT"}},{"type":"Feature","id":99,"geometry":{"type":"Point","coordinates":[-80.527955821363406,27.632783725527165]},"properties":{"OBJECTID":99,"Name":"NEW HIBISCUS AIRPARK","Address":" ","City":"VERO BEACH","Zip":"32966","COUNTY":"INDIAN RIVER","X":-80.527955820000003,"Y":27.63278373,"USNG":"17R NL 46569 56614","OWNERSHIP":null,"PARCELID":"33380300001012000002.1","NAME_OTHER":"NEW HIBISCUS AIRPARK","DESCRIPTION":"1890 98TH AVENUE  VERO BEACH FL 32966","LINK":"http://www.florida-aviation-database.com/Facility/PublicSearch.aspx?UAID=FL000793","FAC_STATUS":"Active","UAID":"FL000793","ACODE":"X52","AUSE":"Public","AOWNERSHIP":"Private","LAT":27.632255000000001,"LONG":-80.527554440000003,"COMMENT":null,"FACILITY_TYPE":"AIRPORT"}},{"type":"Feature","id":100,"geometry":{"type":"Point","coordinates":[-81.651741129784853,28.922765429184441]},"properties":{"OBJECTID":100,"Name":"UMATILLA MUNICIPAL AIRPORT","Address":" ","City":"UMATILLA","Zip":"32784","COUNTY":"LAKE","X":-81.651741130000005,"Y":28.922765429999998,"USNG":"17R MM 36472 99603","OWNERSHIP":null,"PARCELID":"181827020000000001","NAME_OTHER":"UMATILLA MUNICIPAL AIRPORT","DESCRIPTION":"480 EAST CASSADY DRIVE  UMATILLA FL 32784-2286","LINK":"http://www.florida-aviation-database.com/Facility/PublicSearch.aspx?UAID=FL000023","FAC_STATUS":"Active","UAID":"FL000023","ACODE":"X23","AUSE":"Public","AOWNERSHIP":"Public","LAT":28.922764999999998,"LONG":-81.651741110000003,"COMMENT":null,"FACILITY_TYPE":"AIRPORT"}},{"type":"Feature","id":101,"geometry":{"type":"Point","coordinates":[-84.373831996420321,30.547305421333803]},"properties":{"OBJECTID":101,"Name":"TALLAHASSEE COMMERCIAL AIRPORT","Address":"6551 N MONROE ST","City":"TALLAHASSEE","Zip":"32303","COUNTY":"LEON","X":-84.373831999999993,"Y":30.547305420000001,"USNG":"16R GU 51929 82369","OWNERSHIP":null,"PARCELID":"2430202020000","NAME_OTHER":"TALLAHASSEE COMMERCIAL AIRPORT","DESCRIPTION":"6601 NORTH MONROE STREET  TALLAHASSEE FL 32303","LINK":"http://www.florida-aviation-database.com/Facility/PublicSearch.aspx?UAID=FL000768","FAC_STATUS":"Active","UAID":"FL000768","ACODE":"68J","AUSE":"Public","AOWNERSHIP":"Private","LAT":30.54730833,"LONG":-84.373847220000002,"COMMENT":null,"FACILITY_TYPE":"AIRPORT"}},{"type":"Feature","id":102,"geometry":{"type":"Point","coordinates":[-80.107688938122152,26.37849149331057]},"properties":{"OBJECTID":102,"Name":"BOCA RATON AIRPORT","Address":" ","City":"BOCA RATON","Zip":"33431","COUNTY":"PALM BEACH","X":-80.107688940000003,"Y":26.378491489999998,"USNG":"17R NK 89014 17908","OWNERSHIP":"STATE OF FLORIDA TIITF","PARCELID":"06424713000001010","NAME_OTHER":"BOCA RATON AIRPORT","DESCRIPTION":"3701 FAU BLVD., SUITE 205  BOCA RATON FL 33431","LINK":"http://www.florida-aviation-database.com/Facility/PublicSearch.aspx?UAID=FL000005","FAC_STATUS":"Active","UAID":"FL000005","ACODE":"BCT","AUSE":"Public","AOWNERSHIP":"Public","LAT":26.37848666,"LONG":-80.107696660000002,"COMMENT":null,"FACILITY_TYPE":"AIRPORT"}},{"type":"Feature","id":103,"geometry":{"type":"Point","coordinates":[-80.440048049895651,27.036441528696628]},"properties":{"OBJECTID":103,"Name":"INDIANTOWN AIRPORT","Address":" ","City":"INDIANTOWN","Zip":"34956","COUNTY":"MARTIN","X":-80.440048050000001,"Y":27.036441530000001,"USNG":"17R NK 55538 90594","OWNERSHIP":null,"PARCELID":"333939000000000114","NAME_OTHER":"INDIANTOWN AIRPORT","DESCRIPTION":"20654 SOUTHWEST CITRUS BOULEVARD  INDIANTOWN FL 34956","LINK":"http://www.florida-aviation-database.com/Facility/PublicSearch.aspx?UAID=FL000447","FAC_STATUS":"Active","UAID":"FL000447","ACODE":"X58","AUSE":"Public","AOWNERSHIP":"Private","LAT":27.036441660000001,"LONG":-80.440049999999999,"COMMENT":null,"FACILITY_TYPE":"AIRPORT"}},{"type":"Feature","id":104,"geometry":{"type":"Point","coordinates":[-85.185700854299157,30.838548361517567]},"properties":{"OBJECTID":104,"Name":"MARIANNA MUNICIPAL AIRPORT","Address":"3633 INDUSTRIAL PARK DR","City":"MARIANNA","Zip":"32446","COUNTY":"JACKSON","X":-85.185700850000003,"Y":30.838548360000001,"USNG":"16R FV 73508 13117","OWNERSHIP":"COUNTY","PARCELID":" ","NAME_OTHER":"MARIANNA MUNICIPAL AIRPORT","DESCRIPTION":"3689 INDUSTRIAL PARK DRIVE  MARIANNA FL 32446","LINK":"http://www.florida-aviation-database.com/Facility/PublicSearch.aspx?UAID=FL000041","FAC_STATUS":"Active","UAID":"FL000041","ACODE":"MAI","AUSE":"Public","AOWNERSHIP":"Public","LAT":30.83779388,"LONG":-85.181881110000006,"COMMENT":null,"FACILITY_TYPE":"AIRPORT"}},{"type":"Feature","id":105,"geometry":{"type":"Point","coordinates":[-85.28890015483249,29.755945391808311]},"properties":{"OBJECTID":105,"Name":"COSTIN AIRPORT","Address":" ","City":"PORT SAINT JOE","Zip":"32456","COUNTY":"GULF","X":-85.288900150000003,"Y":29.755945390000001,"USNG":"16R FT 65446 92968","OWNERSHIP":null,"PARCELID":"06236-105R","NAME_OTHER":"COSTIN AIRPORT","DESCRIPTION":"167 CESSNA DRIVE  PORT SAINT JOE FL 32456","LINK":"http://www.florida-aviation-database.com/Facility/PublicSearch.aspx?UAID=FL000722","FAC_STATUS":"Active","UAID":"FL000722","ACODE":"A51","AUSE":"Public","AOWNERSHIP":"Private","LAT":29.758544440000001,"LONG":-85.289083329999997,"COMMENT":null,"FACILITY_TYPE":"AIRPORT"}},{"type":"Feature","id":106,"geometry":{"type":"Point","coordinates":[-82.160350859596647,28.22740590463086]},"properties":{"OBJECTID":106,"Name":"ZEPHYRHILLS MUNICIPAL AIRPORT","Address":"39506 SOUTH AVE","City":"ZEPHYRHILLS","Zip":"33542","COUNTY":"PASCO","X":-82.160350859999994,"Y":28.227405910000002,"USNG":"17R LM 86147 22939","OWNERSHIP":"MUNICIPAL","PARCELID":"2126130000001000000","NAME_OTHER":"ZEPHYRHILLS MUNICIPAL AIRPORT","DESCRIPTION":"39450 SOUTH AVENUE  ZEPHYRHILLS FL 33542","LINK":"http://www.florida-aviation-database.com/Facility/PublicSearch.aspx?UAID=FL000080","FAC_STATUS":"Active","UAID":"FL000080","ACODE":"ZPH","AUSE":"Public","AOWNERSHIP":"Public","LAT":28.228063880000001,"LONG":-82.155916379999994,"COMMENT":null,"FACILITY_TYPE":"AIRPORT"}},{"type":"Feature","id":107,"geometry":{"type":"Point","coordinates":[-86.829124230611214,30.406308622775835]},"properties":{"OBJECTID":107,"Name":"FT WALTON BEACH AIRPORT","Address":" ","City":"NAVARRE","Zip":"32566","COUNTY":"SANTA ROSA","X":-86.829124230000005,"Y":30.406308620000001,"USNG":"16R EU 16413 63821","OWNERSHIP":null,"PARCELID":"21-2S-26-0780-00G00-0000","NAME_OTHER":"FT WALTON BEACH AIRPORT","DESCRIPTION":"9401 NAVARRE PARKWAY  NAVARRE FL 32566","LINK":"http://www.florida-aviation-database.com/Facility/PublicSearch.aspx?UAID=FL000617","FAC_STATUS":"Active","UAID":"FL000617","ACODE":"1J9","AUSE":"Public","AOWNERSHIP":"Private","LAT":30.406569439999998,"LONG":-86.829124989999997,"COMMENT":null,"FACILITY_TYPE":"AIRPORT"}},{"type":"Feature","id":108,"geometry":{"type":"Point","coordinates":[-81.335453405955093,28.544344922934229]},"properties":{"OBJECTID":108,"Name":"EXECUTIVE AIRPORT","Address":"501 HERNDON AVE","City":"ORLANDO","Zip":"32803","COUNTY":"ORANGE","X":-81.33545341,"Y":28.54434492,"USNG":"17R MM 67184 57550","OWNERSHIP":null,"PARCELID":"302229000000016","NAME_OTHER":"EXECUTIVE AIRPORT","DESCRIPTION":"365 RICKENBACKER DRIVE  ORLANDO FL 32803","LINK":"http://www.florida-aviation-database.com/Facility/PublicSearch.aspx?UAID=FL000054","FAC_STATUS":"Active","UAID":"FL000054","ACODE":"ORL","AUSE":"Public","AOWNERSHIP":"Public","LAT":28.545472220000001,"LONG":-81.332944440000006,"COMMENT":null,"FACILITY_TYPE":"AIRPORT"}},{"type":"Feature","id":109,"geometry":{"type":"Point","coordinates":[-80.835356010409839,28.622705723224009]},"properties":{"OBJECTID":109,"Name":"ARTHUR DUNN AIR PARK","Address":"465 SINGLETON AVE N","City":"TITUSVILLE","Zip":"32796","COUNTY":"BREVARD","X":-80.835356009999998,"Y":28.622705719999999,"USNG":"17R NM 16094 66196","OWNERSHIP":"COUNTY","PARCELID":"21 353200  751","NAME_OTHER":"ARTHUR DUNN AIR PARK","DESCRIPTION":"476 NORTH WILLIAMS AVENUE  TITUSVILLE FL 32780","LINK":"http://www.florida-aviation-database.com/Facility/PublicSearch.aspx?UAID=FL000082","FAC_STATUS":"Active","UAID":"FL000082","ACODE":"X21","AUSE":"Public","AOWNERSHIP":"Public","LAT":28.622551659999999,"LONG":-80.835409720000001,"COMMENT":null,"FACILITY_TYPE":"AIRPORT"}},{"type":"Feature","id":110,"geometry":{"type":"Point","coordinates":[-81.838037197375613,27.196257444192931]},"properties":{"OBJECTID":110,"Name":"ARCADIA MUNICIPAL AIRPORT","Address":" ","City":"ARCADIA","Zip":"34266","COUNTY":"DESOTO","X":-81.838037200000002,"Y":27.19625744,"USNG":"17R ML 16997 08450","OWNERSHIP":null,"PARCELID":"05-38-25-0000-0310-0000","NAME_OTHER":"ARCADIA MUNICIPAL AIRPORT","DESCRIPTION":"2269 SOUTHEAST A.C. POLK, JR. DRIVE  ARCADIA FL 34266","LINK":"http://www.florida-aviation-database.com/Facility/PublicSearch.aspx?UAID=FL000104","FAC_STATUS":"Active","UAID":"FL000104","ACODE":"X06","AUSE":"Public","AOWNERSHIP":"Public","LAT":27.191994439999998,"LONG":-81.837302769999994,"COMMENT":null,"FACILITY_TYPE":"AIRPORT"}},{"type":"Feature","id":111,"geometry":{"type":"Point","coordinates":[-82.315527694949324,28.811426923785241]},"properties":{"OBJECTID":111,"Name":"INVERNESS AIRPORT","Address":"3528 S AIRPORT RD","City":"INVERNESS","Zip":"34452","COUNTY":"CITRUS","X":-82.315527689999996,"Y":28.811426919999999,"USNG":"17R LM 71629 87803","OWNERSHIP":null,"PARCELID":"20E19S28      34000","NAME_OTHER":"INVERNESS AIRPORT","DESCRIPTION":"3528 SOUTH AIRPORT ROAD  INVERNESS FL 34450","LINK":"http://www.florida-aviation-database.com/Facility/PublicSearch.aspx?UAID=FL000091","FAC_STATUS":"Active","UAID":"FL000091","ACODE":"INF","AUSE":"Public","AOWNERSHIP":"Public","LAT":28.808597219999999,"LONG":-82.316480549999994,"COMMENT":null,"FACILITY_TYPE":"AIRPORT"}},{"type":"Feature","id":112,"geometry":{"type":"Point","coordinates":[-84.345034112638004,30.391387091796489]},"properties":{"OBJECTID":112,"Name":"TALLAHASSEE REGIONAL AIRPORT","Address":"3300 CAPITOL CIRCLE SW","City":"TALLAHASSEE","Zip":"32310","COUNTY":"LEON","X":-84.34503411,"Y":30.391387089999998,"USNG":"16R GU 55099 65146","OWNERSHIP":"MUNICIPAL","PARCELID":"4117208010000","NAME_OTHER":"TALLAHASSEE REGIONAL AIRPORT","DESCRIPTION":"3300 CAPITAL CIRCLE SOUTHWEST SUITE 1 TALLAHASSEE FL 32310","LINK":"http://www.florida-aviation-database.com/Facility/PublicSearch.aspx?UAID=FL000069","FAC_STATUS":"Active","UAID":"FL000069","ACODE":"TLH","AUSE":"Public","AOWNERSHIP":"Public","LAT":30.396527769999999,"LONG":-84.350333329999998,"COMMENT":null,"FACILITY_TYPE":"AIRPORT"}},{"type":"Feature","id":113,"geometry":{"type":"Point","coordinates":[-80.1731912192393,26.198402682879582]},"properties":{"OBJECTID":113,"Name":"FT LAUDERDALE EXECUTIVE AIRPORT","Address":" ","City":"FORT LAUDERDALE","Zip":"33309","COUNTY":"BROWARD","X":-80.173191220000007,"Y":26.198402680000001,"USNG":"17R NJ 82607 97919","OWNERSHIP":"MUNICIPAL","PARCELID":"494209290010","NAME_OTHER":"FT LAUDERDALE EXECUTIVE AIRPORT","DESCRIPTION":"6000 NORTHWEST 21ST AVENUE  FORT LAUDERDALE FL 33309","LINK":"http://www.florida-aviation-database.com/Facility/PublicSearch.aspx?UAID=FL000021","FAC_STATUS":"Active","UAID":"FL000021","ACODE":"FXE","AUSE":"Public","AOWNERSHIP":"Public","LAT":26.197277769999999,"LONG":-80.170711109999999,"COMMENT":null,"FACILITY_TYPE":"AIRPORT"}},{"type":"Feature","id":114,"geometry":{"type":"Point","coordinates":[-80.093883689525015,26.682607259578781]},"properties":{"OBJECTID":114,"Name":"PALM BEACH INTERNATIONAL AIRPORT","Address":"BLDG 846-PALM BEACH INTL","City":"WEST PALM BEACH","Zip":"33406","COUNTY":"PALM BEACH","X":-80.093883689999998,"Y":26.682607260000001,"USNG":"17R NK 90153 51602","OWNERSHIP":"COUNTY","PARCELID":"00434331010010010","NAME_OTHER":"PALM BEACH INTERNATIONAL AIRPORT","DESCRIPTION":"BUILDING 846 PBIA  WEST PALM BEACH FL 33406-1491","LINK":"http://www.florida-aviation-database.com/Facility/PublicSearch.aspx?UAID=FL000077","FAC_STATUS":"Active","UAID":"FL000077","ACODE":"PBI","AUSE":"Public","AOWNERSHIP":"Public","LAT":26.683158330000001,"LONG":-80.095588879999994,"COMMENT":null,"FACILITY_TYPE":"AIRPORT"}},{"type":"Feature","id":115,"geometry":{"type":"Point","coordinates":[-82.496482137602214,28.330281569597748]},"properties":{"OBJECTID":115,"Name":"PILOT COUNTRY AIRPORT","Address":" ","City":"SPRING HILL","Zip":"34610","COUNTY":"PASCO","X":-82.496482139999998,"Y":28.33028157,"USNG":"17R LM 53303 34699","OWNERSHIP":null,"PARCELID":"1825100020000000310","NAME_OTHER":"PILOT COUNTRY AIRPORT","DESCRIPTION":"11500 PILOT COUNTRY DRIVE  SPRING HILL FL 34610","LINK":"http://www.florida-aviation-database.com/Facility/PublicSearch.aspx?UAID=FL000274","FAC_STATUS":"Active","UAID":"FL000274","ACODE":"X05","AUSE":"Public","AOWNERSHIP":"Private","LAT":28.33028333,"LONG":-82.496483330000004,"COMMENT":null,"FACILITY_TYPE":"AIRPORT"}},{"type":"Feature","id":116,"geometry":{"type":"Point","coordinates":[-81.389749173672314,25.848449841360253]},"properties":{"OBJECTID":116,"Name":"EVERGLADES AIRPARK","Address":" ","City":"OCHOPEE","Zip":"34141","COUNTY":"COLLIER","X":-81.389749170000002,"Y":25.848449840000001,"USNG":"17R MJ 60944 58958","OWNERSHIP":"COUNTY","PARCELID":"83491800001","NAME_OTHER":"EVERGLADES AIRPARK","DESCRIPTION":"650 EVERGLADES CITY  AIRPARK ROAD  EVERGLADES CITY FL 34139","LINK":"http://www.florida-aviation-database.com/Facility/PublicSearch.aspx?UAID=FL000018","FAC_STATUS":"Active","UAID":"FL000018","ACODE":"X01","AUSE":"Public","AOWNERSHIP":"Public","LAT":25.84871111,"LONG":-81.390080549999993,"COMMENT":null,"FACILITY_TYPE":"AIRPORT"}},{"type":"Feature","id":117,"geometry":{"type":"Point","coordinates":[-81.876143472323591,30.217651038667213]},"properties":{"OBJECTID":117,"Name":"CECIL AIRPORT","Address":"6211 AVIATION AVE","City":"JACKSONVILLE","Zip":"32221","COUNTY":"DUVAL","X":-81.876143470000002,"Y":30.21765104,"USNG":"17R MP 15681 43227","OWNERSHIP":"COUNTY","PARCELID":"0022490000R","NAME_OTHER":"CECIL AIRPORT","DESCRIPTION":"13365 SIMPSON WAY  JACKSONVILLE FL 32221-5522","LINK":"http://www.florida-aviation-database.com/Facility/PublicSearch.aspx?UAID=FL000455","FAC_STATUS":"Active","UAID":"FL000455","ACODE":"VQQ","AUSE":"Public","AOWNERSHIP":"Public","LAT":30.21867305,"LONG":-81.876664439999999,"COMMENT":null,"FACILITY_TYPE":"AIRPORT"}},{"type":"Feature","id":118,"geometry":{"type":"Point","coordinates":[-87.385307012236183,30.531890374609613]},"properties":{"OBJECTID":118,"Name":"COASTAL AIRPORT","Address":" ","City":"PENSACOLA","Zip":"32526","COUNTY":"ESCAMBIA","X":-87.385307010000005,"Y":30.53189038,"USNG":"16R DU 63037 77788","OWNERSHIP":null,"PARCELID":"071S311210000001","NAME_OTHER":"COASTAL AIRPORT","DESCRIPTION":"6001 WEST NINE MILE ROAD  PENSACOLA FL 32526","LINK":"http://www.florida-aviation-database.com/Facility/PublicSearch.aspx?UAID=FL000700","FAC_STATUS":"Active","UAID":"FL000700","ACODE":"83J","AUSE":"Public","AOWNERSHIP":"Private","LAT":30.53188888,"LONG":-87.385305549999998,"COMMENT":null,"FACILITY_TYPE":"AIRPORT"}},{"type":"Feature","id":119,"geometry":{"type":"Point","coordinates":[-82.22305130649211,29.171783336351947]},"properties":{"OBJECTID":119,"Name":"OCALA INTERNATIONAL-JIM TAYLOR FIELD","Address":"1770 SW 60TH AVE","City":"OCALA","Zip":"34474","COUNTY":"MARION","X":-82.223051310000002,"Y":29.171783340000001,"USNG":"17R LN 81067 27636","OWNERSHIP":"MUNICIPAL","PARCELID":"23320-000-00","NAME_OTHER":"OCALA INTERNATIONAL-JIM TAYLOR FIELD","DESCRIPTION":"750 SOUTHWEST 60TH AVENUE  OCALA FL 34474-1270","LINK":"http://www.florida-aviation-database.com/Facility/PublicSearch.aspx?UAID=FL000051","FAC_STATUS":"Active","UAID":"FL000051","ACODE":"OCF","AUSE":"Public","AOWNERSHIP":"Public","LAT":29.172611109999998,"LONG":-82.224166659999995,"COMMENT":null,"FACILITY_TYPE":"AIRPORT"}},{"type":"Feature","id":120,"geometry":{"type":"Point","coordinates":[-81.760855549576789,28.062258680898982]},"properties":{"OBJECTID":120,"Name":"JACK BROWNS SEAPLANE BASE","Address":" ","City":" ","Zip":" ","COUNTY":"POLK","X":-81.760855550000002,"Y":28.062258679999999,"USNG":"17R MM 25232 04332","OWNERSHIP":null,"PARCELID":null,"NAME_OTHER":"JACK BROWNS SEAPLANE BASE","DESCRIPTION":"2704 U.S. HIGHWAY 92  WINTER HAVEN FL 33880","LINK":"http://www.florida-aviation-database.com/Facility/PublicSearch.aspx?UAID=FL000829","FAC_STATUS":"Active","UAID":"FL000829","ACODE":"F57","AUSE":"Public","AOWNERSHIP":"Private","LAT":28.057500000000001,"LONG":-81.762805549999996,"COMMENT":null,"FACILITY_TYPE":"AIRPORT"}},{"type":"Feature","id":121,"geometry":{"type":"Point","coordinates":[-83.578330830777645,30.072716745330091]},"properties":{"OBJECTID":121,"Name":"PERRY-FOLEY AIRPORT","Address":" ","City":"PERRY","Zip":"32348","COUNTY":"TAYLOR","X":-83.578330829999999,"Y":30.072716750000001,"USNG":"17R KP 51465 29646","OWNERSHIP":"COUNTY","PARCELID":"12050706062000","NAME_OTHER":"PERRY-FOLEY AIRPORT","DESCRIPTION":"511 INDUSTRIAL DRIVE  PERRY FL 32348","LINK":"http://www.florida-aviation-database.com/Facility/PublicSearch.aspx?UAID=FL000092","FAC_STATUS":"Active","UAID":"FL000092","ACODE":"40J","AUSE":"Public","AOWNERSHIP":"Public","LAT":30.069352769999998,"LONG":-83.580619440000007,"COMMENT":null,"FACILITY_TYPE":"AIRPORT"}},{"type":"Feature","id":122,"geometry":{"type":"Point","coordinates":[-81.78329245884612,27.943366587958224]},"properties":{"OBJECTID":122,"Name":"BARTOW MUNICIPAL AIRPORT","Address":"5001 N US HWY 17","City":"BARTOW","Zip":"33830","COUNTY":"POLK","X":-81.783292459999998,"Y":27.94336659,"USNG":"17R ML 22943 91175","OWNERSHIP":null,"PARCELID":"252923000000011010","NAME_OTHER":"BARTOW MUNICIPAL AIRPORT","DESCRIPTION":"5001 HIGHWAY 17 NORTH  BARTOW FL 33830","LINK":"http://www.florida-aviation-database.com/Facility/PublicSearch.aspx?UAID=FL000004","FAC_STATUS":"Active","UAID":"FL000004","ACODE":"BOW","AUSE":"Public","AOWNERSHIP":"Public","LAT":27.943358329999999,"LONG":-81.783441659999994,"COMMENT":null,"FACILITY_TYPE":"AIRPORT"}},{"type":"Feature","id":123,"geometry":{"type":"Point","coordinates":[-82.049163485667407,29.847121188632709]},"properties":{"OBJECTID":123,"Name":"Keystone Heights Airpark","Address":" ","City":"STARKE","Zip":"32091","COUNTY":"BRADFORD","X":-82.049163489999998,"Y":29.847121189999999,"USNG":"17R LP 98652 02307","OWNERSHIP":null,"PARCELID":"05215-0-00000","NAME_OTHER":"Keystone Heights Airpark","DESCRIPTION":"7100 AIRPORT ROAD  STARKE FL 32091-9347","LINK":"http://www.florida-aviation-database.com/Facility/PublicSearch.aspx?UAID=FL000033","FAC_STATUS":"Active","UAID":"FL000033","ACODE":"42J","AUSE":"Public","AOWNERSHIP":"Public","LAT":29.84440833,"LONG":-82.033436109999997,"COMMENT":null,"FACILITY_TYPE":"AIRPORT"}},{"type":"Feature","id":124,"geometry":{"type":"Point","coordinates":[-81.459236126500869,29.249978514726887]},"properties":{"OBJECTID":124,"Name":"PIERSON MUNICIPAL AIRPORT","Address":" ","City":"PIERSON","Zip":"32180","COUNTY":"VOLUSIA","X":-81.459236129999994,"Y":29.249978519999999,"USNG":"17R MN 55378 35768","OWNERSHIP":"MUNICIPAL","PARCELID":"28142700000240","NAME_OTHER":"PIERSON MUNICIPAL AIRPORT","DESCRIPTION":"305 NORTH CENTER STREET  PIERSON FL 32180","LINK":"http://www.florida-aviation-database.com/Facility/PublicSearch.aspx?UAID=FL000109","FAC_STATUS":"Active","UAID":"FL000109","ACODE":"2J8","AUSE":"Public","AOWNERSHIP":"Public","LAT":29.25,"LONG":-81.459236110000006,"COMMENT":null,"FACILITY_TYPE":"AIRPORT"}},{"type":"Feature","id":125,"geometry":{"type":"Point","coordinates":[-81.340556389217497,29.96093121379668]},"properties":{"OBJECTID":125,"Name":"NORTHEAST FLORIDA REGIONAL AIRPORT","Address":"4900 N US HWY 1","City":"SAINT AUGUSTINE","Zip":"32095","COUNTY":"ST. JOHNS","X":-81.340556390000003,"Y":29.960931209999998,"USNG":"17R MP 67141 14504","OWNERSHIP":null,"PARCELID":"0748400000","NAME_OTHER":"NORTHEAST FLORIDA REGIONAL AIRPORT","DESCRIPTION":"4796 US HIGHWAY 1 NORTH  ST. AUGUSTINE FL 32095","LINK":"http://www.florida-aviation-database.com/Facility/PublicSearch.aspx?UAID=FL000065","FAC_STATUS":"Active","UAID":"FL000065","ACODE":"SGJ","AUSE":"Public","AOWNERSHIP":"Public","LAT":29.95924999,"LONG":-81.339749999999995,"COMMENT":null,"FACILITY_TYPE":"AIRPORT"}},{"type":"Feature","id":126,"geometry":{"type":"Point","coordinates":[-84.395792349202708,29.988689301774869]},"properties":{"OBJECTID":126,"Name":"WAKULLA COUNTY AIRPORT","Address":" ","City":"PANACEA","Zip":"32346","COUNTY":"WAKULLA","X":-84.395792349999994,"Y":29.988689300000001,"USNG":"16R GU 51241 20387","OWNERSHIP":null,"PARCELID":"01-6S-02W-000-03588-001","NAME_OTHER":"WAKULLA COUNTY AIRPORT","DESCRIPTION":"30 BAY DRIVE  PANACEA FL 32346","LINK":"http://www.florida-aviation-database.com/Facility/PublicSearch.aspx?UAID=FL000108","FAC_STATUS":"Active","UAID":"FL000108","ACODE":"2J0","AUSE":"Public","AOWNERSHIP":"Public","LAT":29.989269440000001,"LONG":-84.395841660000002,"COMMENT":null,"FACILITY_TYPE":"AIRPORT"}},{"type":"Feature","id":127,"geometry":{"type":"Point","coordinates":[-80.1110531073125,26.24713865730136]},"properties":{"OBJECTID":127,"Name":"POMPANO BEACH AIRPARK","Address":" ","City":"POMPANO BEACH","Zip":"33060","COUNTY":"BROWARD","X":-80.11105311,"Y":26.247138660000001,"USNG":"17R NK 88778 03357","OWNERSHIP":"MUNICIPAL","PARCELID":"484225000060","NAME_OTHER":"POMPANO BEACH AIRPARK","DESCRIPTION":"1001 NORTHEAST 10TH STREET  POMPANO BEACH FL 33060","LINK":"http://www.florida-aviation-database.com/Facility/PublicSearch.aspx?UAID=FL000102","FAC_STATUS":"Active","UAID":"FL000102","ACODE":"PMP","AUSE":"Public","AOWNERSHIP":"Public","LAT":26.247138880000001,"LONG":-80.111055550000003,"COMMENT":null,"FACILITY_TYPE":"AIRPORT"}},{"type":"Feature","id":128,"geometry":{"type":"Point","coordinates":[-87.348845966879011,30.398793208268575]},"properties":{"OBJECTID":128,"Name":"FERGUSON AIRPORT","Address":" ","City":"PENSACOLA","Zip":"32506","COUNTY":"ESCAMBIA","X":-87.348845969999999,"Y":30.398793210000001,"USNG":"16R DU 66489 63027","OWNERSHIP":null,"PARCELID":"232S312200000000","NAME_OTHER":"FERGUSON AIRPORT","DESCRIPTION":"9750 AILERON AVENUE  PENSACOLA FL 32506","LINK":"http://www.florida-aviation-database.com/Facility/PublicSearch.aspx?UAID=FL000703","FAC_STATUS":"Active","UAID":"FL000703","ACODE":"82J","AUSE":"Public","AOWNERSHIP":"Private","LAT":30.398250000000001,"LONG":-87.348888880000004,"COMMENT":null,"FACILITY_TYPE":"AIRPORT"}}]}