{"type":"FeatureCollection","features":[{"type":"Feature","id":1,"geometry":{"type":"Point","coordinates":[-81.288519835001324,29.885442781722826]},"properties":{"OBJECTID":1,"Name":null,"Address":"81 Lighthouse Av","City":"Saint Augustine","Zip":"32080","COUNTY":"ST. JOHNS","X":-81.288519840000006,"Y":29.885442780000002,"LONGLAT":"-81.28851984,29.88544278","USNG":"17R MP 72140 06126","OWNERSHIP":null,"PARCELID":null,"FACILITY_TYPE":"ATTRACTION"}},{"type":"Feature","id":2,"geometry":{"type":"Point","coordinates":[-81.458729440923506,28.304594785374867]},"properties":{"OBJECTID":2,"Name":"DISCOUNT TRAVEL SERVICES (MAZE WORLD)","Address":"4623 W 192 HWY","City":"KISSIMMEE","Zip":"34746","COUNTY":"OSCEOLA","X":-81.458729439999999,"Y":28.304594789999999,"LONGLAT":"-81.45872944,28.30459479","USNG":"17R MM 55023 31030","OWNERSHIP":null,"PARCELID":"13-25-28-0000-0300-0000","FACILITY_TYPE":"ATTRACTION"}},{"type":"Feature","id":3,"geometry":{"type":"Point","coordinates":[-81.374097933642958,28.438121047032286]},"properties":{"OBJECTID":3,"Name":"CABLE WATERSKI, DBA ORLANDO WATERSPORT","Address":"8615 FLORIDA ROCK RD.","City":"ORLANDO","Zip":"32824","COUNTY":"ORANGE","X":-81.374097930000005,"Y":28.438121049999999,"LONGLAT":"-81.37409793,28.43812105","USNG":"17R MM 63367 45793","OWNERSHIP":null,"PARCELID":"292336318801001","FACILITY_TYPE":"ATTRACTION"}},{"type":"Feature","id":4,"geometry":{"type":"Point","coordinates":[-84.283370428786014,30.44036897306912]},"properties":{"OBJECTID":4,"Name":"CHALLENGER LEARNING CENTER","Address":"200 S DUVAL ST","City":"TALLAHASSEE","Zip":"32301","COUNTY":"LEON","X":-84.283370430000005,"Y":30.440368970000002,"LONGLAT":"-84.28337043,30.44036897","USNG":"16R GU 60896 70718","OWNERSHIP":null,"PARCELID":null,"FACILITY_TYPE":"ATTRACTION"}},{"type":"Feature","id":5,"geometry":{"type":"Point","coordinates":[-80.320300021685512,25.999999982147838]},"properties":{"OBJECTID":5,"Name":"CITY OF PEMBROKE PINES","Address":"1361 SW 129 AVE","City":"HOLLYWOOD","Zip":"33027","COUNTY":"BROWARD","X":-80.320300020000005,"Y":25.999999979999998,"LONGLAT":"-80.32030002,25.99999998","USNG":"17R NJ 68023 75860","OWNERSHIP":null,"PARCELID":"514014BA0000","FACILITY_TYPE":"ATTRACTION"}},{"type":"Feature","id":6,"geometry":{"type":"Point","coordinates":[-81.403580296360573,28.355800335864462]},"properties":{"OBJECTID":6,"Name":"GATORLAND","Address":"14501 S. ORANGE BLOSSOM TRAIL","City":"ORLANDO","Zip":"32837","COUNTY":"ORANGE","X":-81.403580300000002,"Y":28.355800339999998,"LONGLAT":"-81.40358030,28.35580034","USNG":"17R MM 60449 36683","OWNERSHIP":null,"PARCELID":"292434000000003","FACILITY_TYPE":"ATTRACTION"}},{"type":"Feature","id":7,"geometry":{"type":"Point","coordinates":[-81.467540459244631,28.479392430302685]},"properties":{"OBJECTID":7,"Name":"ISLANDS OF ADVENTURE","Address":"1000 UNIVERSAL STUDIOS PLZ","City":"ORLANDO","Zip":"32819","COUNTY":"ORANGE","X":-81.467540459999995,"Y":28.479392430000001,"LONGLAT":"-81.46754046,28.47939243","USNG":"17R MM 54235 50398","OWNERSHIP":null,"PARCELID":"282313883300120","FACILITY_TYPE":"ATTRACTION"}},{"type":"Feature","id":8,"geometry":{"type":"Point","coordinates":[-82.445025122908234,27.944308597767062]},"properties":{"OBJECTID":8,"Name":"FLORIDA AQUARIUM","Address":"701 CHANNELSIDE DR.","City":"TAMPA","Zip":"33602","COUNTY":"HILLSBOROUGH","X":-82.445025119999997,"Y":27.944308599999999,"LONGLAT":"-82.44502512,27.94430860","USNG":"17R LL 57839 91873","OWNERSHIP":"MUNICIPAL","PARCELID":"192919ZZZ000005940500A","FACILITY_TYPE":"ATTRACTION"}},{"type":"Feature","id":9,"geometry":{"type":"Point","coordinates":[-82.338799989907685,27.94159998955611]},"properties":{"OBJECTID":9,"Name":"CELEBRATION STATION (TAMPA)","Address":"10230 PALM  RIVER RD","City":"TAMPA","Zip":"33619","COUNTY":"HILLSBOROUGH","X":-82.338799989999998,"Y":27.94159999,"LONGLAT":"-82.33879999,27.94159999","USNG":"17R LL 68288 91454","OWNERSHIP":null,"PARCELID":"202919ZZZ000002519400U","FACILITY_TYPE":"ATTRACTION"}},{"type":"Feature","id":10,"geometry":{"type":"Point","coordinates":[-80.39207857775601,27.418869505400028]},"properties":{"OBJECTID":10,"Name":"GRAND PRIX OF FT PIERCE","Address":"2551 PETERS ROAD","City":"FORT PIERCE","Zip":"34945","COUNTY":"ST. LUCIE","X":-80.392078580000003,"Y":27.41886951,"LONGLAT":"-80.39207858,27.41886951","USNG":"17R NL 60090 32977","OWNERSHIP":null,"PARCELID":"2324-244-0002-000-5","FACILITY_TYPE":"ATTRACTION"}},{"type":"Feature","id":11,"geometry":{"type":"Point","coordinates":[-80.385915267987528,25.688403487680759]},"properties":{"OBJECTID":11,"Name":"CAROUSEL CONNECTION, INC.","Address":"8505 MILLS DRIVE.","City":"MIAMI","Zip":"33183","COUNTY":"MIAMI-DADE","X":-80.385915269999998,"Y":25.688403489999999,"LONGLAT":"-80.38591527,25.68840349","USNG":"17R NJ 61618 41320","OWNERSHIP":null,"PARCELID":"3049360070050","FACILITY_TYPE":"ATTRACTION"}},{"type":"Feature","id":12,"geometry":{"type":"Point","coordinates":[-81.57227249563158,28.335822513237698]},"properties":{"OBJECTID":12,"Name":"DISNEY'S ALL-STAR MOVIES RESORT","Address":"1991 W BUENA VISTA DR","City":"KISSIMMEE","Zip":"34747","COUNTY":"OSCEOLA","X":-81.572272499999997,"Y":28.33582251,"LONGLAT":"-81.57227250,28.33582251","USNG":"17R MM 43907 34537","OWNERSHIP":null,"PARCELID":"02-25-27-0000-0060-0000","FACILITY_TYPE":"ATTRACTION"}},{"type":"Feature","id":13,"geometry":{"type":"Point","coordinates":[-87.261890320782754,30.488005670911342]},"properties":{"OBJECTID":13,"Name":"SAM'S FUN CITY","Address":"6709 PENSACOLA BLVD","City":"PENSACOLA","Zip":"32505","COUNTY":"ESCAMBIA","X":-87.261890320000006,"Y":30.48800567,"LONGLAT":"-87.26189032,30.48800567","USNG":"16R DU 74865 72891","OWNERSHIP":null,"PARCELID":"391S301105000004","FACILITY_TYPE":"ATTRACTION"}},{"type":"Feature","id":14,"geometry":{"type":"Point","coordinates":[-82.566600009891047,27.465299999306815]},"properties":{"OBJECTID":14,"Name":"CYPRESS GROUP (DESOTO SQUARE MALL)","Address":"303 BLVD DESOTO SQ MALL","City":"BRADENTON","Zip":"34205","COUNTY":"MANATEE","X":-82.566600010000002,"Y":27.465299999999999,"LONGLAT":"-82.56660001,27.46530000","USNG":"17R LL 45203 38949","OWNERSHIP":null,"PARCELID":"4921500106","FACILITY_TYPE":"ATTRACTION"}},{"type":"Feature","id":15,"geometry":{"type":"Point","coordinates":[-81.418612571079137,29.92444415802311]},"properties":{"OBJECTID":15,"Name":"FAMILY FUN FACTORY","Address":"2780 STATE ROAD 16","City":"SAINT AUGUSTINE","Zip":"32092","COUNTY":"ST. JOHNS","X":-81.418612569999993,"Y":29.92444416,"LONGLAT":"-81.41861257,29.92444416","USNG":"17R MP 59595 10486","OWNERSHIP":null,"PARCELID":"0875000000","FACILITY_TYPE":"ATTRACTION"}},{"type":"Feature","id":16,"geometry":{"type":"Point","coordinates":[-82.507477347484496,27.534177061100738]},"properties":{"OBJECTID":16,"Name":"PRIME OUTLETS AT ELLENTON","Address":"5461 FACTORY SHOPS BLVD","City":"ELLENTON","Zip":"34222","COUNTY":"MANATEE","X":-82.507477350000002,"Y":27.534177060000001,"LONGLAT":"-82.50747735,27.53417706","USNG":"17R LL 51138 46507","OWNERSHIP":null,"PARCELID":"812710002","FACILITY_TYPE":"ATTRACTION"}},{"type":"Feature","id":17,"geometry":{"type":"Point","coordinates":[-86.462874187133082,30.385759428153246]},"properties":{"OBJECTID":17,"Name":"THE TRACK","Address":"1125 HWY 98 EAST","City":"DESTIN","Zip":"32541","COUNTY":"OKALOOSA","X":-86.462874189999994,"Y":30.38575943,"LONGLAT":"-86.46287419,30.38575943","USNG":"16R EU 51603 61654","OWNERSHIP":null,"PARCELID":"00-2S-22-4555-0000-0101","FACILITY_TYPE":"ATTRACTION"}},{"type":"Feature","id":18,"geometry":{"type":"Point","coordinates":[-80.285899839906207,25.70471730144056]},"properties":{"OBJECTID":18,"Name":"SEGA GAMEWORKS, LLC","Address":"5701 SUNSET DR","City":"MIAMI","Zip":"33143","COUNTY":"MIAMI-DADE","X":-80.285899839999999,"Y":25.704717299999999,"LONGLAT":"-80.28589984,25.70471730","USNG":"17R NJ 71644 43177","OWNERSHIP":null,"PARCELID":"0940250780001","FACILITY_TYPE":"ATTRACTION"}},{"type":"Feature","id":19,"geometry":{"type":"Point","coordinates":[-81.889752756430951,27.980626752693375]},"properties":{"OBJECTID":19,"Name":"GATOR FAMILY THEME PARK, INC.","Address":"4685 HWY 98 S.","City":"LAKELAND","Zip":"33813","COUNTY":"POLK","X":-81.889752759999993,"Y":27.980626749999999,"LONGLAT":"-81.88975276,27.98062675","USNG":"17R ML 12499 95375","OWNERSHIP":null,"PARCELID":"242911000000033050","FACILITY_TYPE":"ATTRACTION"}},{"type":"Feature","id":20,"geometry":{"type":"Point","coordinates":[-80.170990577651907,25.742907609120234]},"properties":{"OBJECTID":20,"Name":"MIAMI SEAQUARIUM","Address":"4400 RICKENBACKER CSWAY","City":"KEY BISCAYNE","Zip":"33149","COUNTY":"MIAMI-DADE","X":-80.170990579999994,"Y":25.74290761,"LONGLAT":"-80.17099058,25.74290761","USNG":"17R NJ 83146 47474","OWNERSHIP":"MUNICIPAL","PARCELID":"0142170000110","FACILITY_TYPE":"ATTRACTION"}},{"type":"Feature","id":21,"geometry":{"type":"Point","coordinates":[-80.316433059936614,27.459762115291809]},"properties":{"OBJECTID":21,"Name":"SLC HISTORICAL MUSEUM COMPLEX","Address":"414 Seaway Dr","City":" ","Zip":"34949","COUNTY":"ST. LUCIE","X":-80.316433059999994,"Y":27.459762120000001,"LONGLAT":"-80.31643306,27.45976212","USNG":"17R NL 67543 37545","OWNERSHIP":null,"PARCELID":null,"FACILITY_TYPE":"ATTRACTION"}},{"type":"Feature","id":22,"geometry":{"type":"Point","coordinates":[-80.106945913968445,26.771049453881464]},"properties":{"OBJECTID":22,"Name":"RAPIDS WATERPARK","Address":"6566 NORTH MILTARY TRAIL","City":"WEST PALM BEACH","Zip":"33407","COUNTY":"PALM BEACH","X":-80.106945909999993,"Y":26.77104945,"LONGLAT":"-80.10694591,26.77104945","USNG":"17R NK 88785 61388","OWNERSHIP":null,"PARCELID":"56424236230020000","FACILITY_TYPE":"ATTRACTION"}},{"type":"Feature","id":23,"geometry":{"type":"Point","coordinates":[-82.189413617209397,28.028269932689199]},"properties":{"OBJECTID":23,"Name":"DINOSAUR WORLD","Address":"5145 HARVEY TEW RD","City":"PLANT CITY","Zip":"33565","COUNTY":"HILLSBOROUGH","X":-82.189413619999996,"Y":28.02826993,"LONGLAT":"-82.18941362,28.02826993","USNG":"17R LM 83079 00904","OWNERSHIP":null,"PARCELID":"212822ZZZ000003674000U","FACILITY_TYPE":"ATTRACTION"}},{"type":"Feature","id":24,"geometry":{"type":"Point","coordinates":[-81.06795318373446,29.185765828392121]},"properties":{"OBJECTID":24,"Name":"DAYTONA INTERNATIONAL SPEEDWAY","Address":"1801 W INTERNATIONAL SPEEDWAY BLVD","City":"DAYTONA BEACH","Zip":"32114","COUNTY":"VOLUSIA","X":-81.067953180000003,"Y":29.185765830000001,"LONGLAT":"-81.06795318,29.18576583","USNG":"17R MN 93393 28569","OWNERSHIP":null,"PARCELID":"32153900000740","FACILITY_TYPE":"ATTRACTION"}},{"type":"Feature","id":25,"geometry":{"type":"Point","coordinates":[-81.471483382818775,28.433776681759777]},"properties":{"OBJECTID":25,"Name":"WONDER WORKS","Address":"9067 INTERNATIONAL DR","City":"ORLANDO","Zip":"32819","COUNTY":"ORANGE","X":-81.471483379999995,"Y":28.433776680000001,"LONGLAT":"-81.47148338,28.43377668","USNG":"17R MM 53829 45346","OWNERSHIP":null,"PARCELID":"282336716500017","FACILITY_TYPE":"ATTRACTION"}},{"type":"Feature","id":26,"geometry":{"type":"Point","coordinates":[-81.83809999966104,28.532500015597968]},"properties":{"OBJECTID":26,"Name":"INTERNATIONAL MARKET WORLD","Address":"1052 HWY. 92 W.","City":"GROVELAND","Zip":"34736","COUNTY":"LAKE","X":-81.838099999999997,"Y":28.532500020000001,"LONGLAT":"-81.83810000,28.53250002","USNG":"17R MM 18002 56478","OWNERSHIP":null,"PARCELID":"322225000200000300","FACILITY_TYPE":"ATTRACTION"}},{"type":"Feature","id":27,"geometry":{"type":"Point","coordinates":[-82.423189423962413,28.035946928618038]},"properties":{"OBJECTID":27,"Name":"BUSCH GARDENS","Address":"3605 E BOUGAINVILLEA AVE","City":"TAMPA","Zip":"33612","COUNTY":"HILLSBOROUGH","X":-82.42318942,"Y":28.035946930000001,"LONGLAT":"-82.42318942,28.03594693","USNG":"17R LM 60106 02001","OWNERSHIP":null,"PARCELID":"19282142Z000000000400A","FACILITY_TYPE":"ATTRACTION"}},{"type":"Feature","id":28,"geometry":{"type":"Point","coordinates":[-80.148231023281085,26.20673497354402]},"properties":{"OBJECTID":28,"Name":"FUNSCAPE","Address":"6501 NORTH ANDREWS AVE.","City":"FORT LAUDERDALE","Zip":"33309","COUNTY":"BROWARD","X":-80.148231019999997,"Y":26.206734969999999,"LONGLAT":"-80.14823102,26.20673497","USNG":"17R NJ 85095 98858","OWNERSHIP":null,"PARCELID":"494210440030","FACILITY_TYPE":"ATTRACTION"}},{"type":"Feature","id":29,"geometry":{"type":"Point","coordinates":[-85.794593392211723,30.178750728431126]},"properties":{"OBJECTID":29,"Name":"SUPER SPEED FUN PARK","Address":"9523 FRONT BEACH ROAD","City":"PANAMA CITY","Zip":"32408","COUNTY":"BAY","X":-85.794593390000003,"Y":30.178750730000001,"LONGLAT":"-85.79459339,30.17875073","USNG":"16R FU 16054 39206","OWNERSHIP":null,"PARCELID":"34985-000-000","FACILITY_TYPE":"ATTRACTION"}},{"type":"Feature","id":30,"geometry":{"type":"Point","coordinates":[-81.470099954565399,28.324457580695224]},"properties":{"OBJECTID":30,"Name":"NASKART FAMILY RACEWAY","Address":"5071 W. HWY 192","City":"KISSIMMEE","Zip":"34746","COUNTY":"OSCEOLA","X":-81.470099950000005,"Y":28.324457580000001,"LONGLAT":"-81.47009995,28.32445758","USNG":"17R MM 53917 33234","OWNERSHIP":null,"PARCELID":"12-25-28-0000-0190-0000","FACILITY_TYPE":"ATTRACTION"}},{"type":"Feature","id":31,"geometry":{"type":"Point","coordinates":[-81.575301899009759,28.343621766017943]},"properties":{"OBJECTID":31,"Name":"DISNEY'S ALL-STAR SPORTS RESORT","Address":"1701 W BUENA VISTA DR","City":"KISSIMMEE","Zip":"34747","COUNTY":"OSCEOLA","X":-81.575301899999999,"Y":28.343621769999999,"LONGLAT":"-81.57530190,28.34362177","USNG":"17R MM 43614 35402","OWNERSHIP":null,"PARCELID":"02-25-27-0000-0060-0000","FACILITY_TYPE":"ATTRACTION"}},{"type":"Feature","id":32,"geometry":{"type":"Point","coordinates":[-80.304541974974086,26.010335515666053]},"properties":{"OBJECTID":32,"Name":"LEARSI, INC.(PEMBROKE LAKES MALL)","Address":"PEMBROKE LAKES MALL11605 PINES BLVD.","City":"HOLLYWOOD","Zip":"33026","COUNTY":"BROWARD","X":-80.304541970000002,"Y":26.010335520000002,"LONGLAT":"-80.30454197,26.01033552","USNG":"17R NJ 69594 77013","OWNERSHIP":null,"PARCELID":"514013130010","FACILITY_TYPE":"ATTRACTION"}},{"type":"Feature","id":33,"geometry":{"type":"Point","coordinates":[-81.575276389953586,28.351623053588401]},"properties":{"OBJECTID":33,"Name":"DISNEY WORLD - BLIZZARD BEACH ","Address":"1500 W BUENA VISTA DRIVE","City":"ORLANDO","Zip":"32830","COUNTY":"ORANGE","X":-81.575276389999999,"Y":28.351623050000001,"LONGLAT":"-81.57527639,28.35162305","USNG":"17R MM 43621 36288","OWNERSHIP":null,"PARCELID":"272435000000008","FACILITY_TYPE":"ATTRACTION"}},{"type":"Feature","id":34,"geometry":{"type":"Point","coordinates":[-82.411517605926505,29.657292756186624]},"properties":{"OBJECTID":34,"Name":"LEARSI, INC. (OAKS MALL)","Address":"6419 NEWBERRY RD","City":"GAINESVILLE","Zip":"32607","COUNTY":"ALACHUA","X":-82.411517610000004,"Y":29.657292760000001,"LONGLAT":"-82.41151761,29.65729276","USNG":"17R LN 63389 81644","OWNERSHIP":null,"PARCELID":"06655 005 018","FACILITY_TYPE":"ATTRACTION"}},{"type":"Feature","id":35,"geometry":{"type":"Point","coordinates":[-80.264500007523253,25.894500000528225]},"properties":{"OBJECTID":35,"Name":"NEW RACING SCHOOL INC","Address":"3990  N.W. 132ND ST.","City":"OPA LOCKA","Zip":"33054","COUNTY":"MIAMI-DADE","X":-80.264500010000006,"Y":25.894500000000001,"LONGLAT":"-80.26450001,25.89450000","USNG":"17R NJ 73674 64206","OWNERSHIP":null,"PARCELID":"0821290000170","FACILITY_TYPE":"ATTRACTION"}},{"type":"Feature","id":36,"geometry":{"type":"Point","coordinates":[-81.559623659074617,28.356455238137627]},"properties":{"OBJECTID":36,"Name":"MGM STUDIOS (DISNEY WORLD)","Address":"14351 NORTH SOUTH RD","City":"ORLANDO","Zip":"32830","COUNTY":"ORANGE","X":-81.55962366,"Y":28.356455239999999,"LONGLAT":"-81.55962366,28.35645524","USNG":"17R MM 45158 36816","OWNERSHIP":null,"PARCELID":"272436000000003","FACILITY_TYPE":"ATTRACTION"}},{"type":"Feature","id":37,"geometry":{"type":"Point","coordinates":[-86.434701348170364,30.387050088012508]},"properties":{"OBJECTID":37,"Name":"NASKART RACEWAYS","Address":"26000 EMERALD COAST PKY","City":"DESTIN","Zip":"32541","COUNTY":"OKALOOSA","X":-86.434701349999997,"Y":30.387050089999999,"LONGLAT":"-86.43470135,30.38705009","USNG":"16R EU 54309 61810","OWNERSHIP":null,"PARCELID":"00-2S-22-0000-0001-0500","FACILITY_TYPE":"ATTRACTION"}},{"type":"Feature","id":38,"geometry":{"type":"Point","coordinates":[-81.589793378051937,28.354263219768661]},"properties":{"OBJECTID":38,"Name":"ANIMAL KINGDOM (DISNEY WORLD)","Address":"OFF I-4 SW OF ORLANDO","City":"ORLANDO","Zip":"32830","COUNTY":"ORANGE","X":-81.589793380000003,"Y":28.35426322,"LONGLAT":"-81.58979338,28.35426322","USNG":"17R MM 42200 36588","OWNERSHIP":null,"PARCELID":"272434000000003","FACILITY_TYPE":"ATTRACTION"}},{"type":"Feature","id":39,"geometry":{"type":"Point","coordinates":[-81.46499997882718,28.412000017352568]},"properties":{"OBJECTID":39,"Name":"SEA WORLD","Address":"7007 SEA WORLD BLVD.","City":"ORLANDO","Zip":"32821","COUNTY":"ORANGE","X":-81.464999980000002,"Y":28.412000020000001,"LONGLAT":"-81.46499998,28.41200002","USNG":"17R MM 54454 42931","OWNERSHIP":null,"PARCELID":"282412787400010","FACILITY_TYPE":"ATTRACTION"}},{"type":"Feature","id":40,"geometry":{"type":"Point","coordinates":[-82.411517605926505,29.657292756186624]},"properties":{"OBJECTID":40,"Name":"LEARSI, INC. (OAKS MALL)","Address":"6419 NEWBERRY RD","City":"GAINESVILLE","Zip":"32607","COUNTY":"ALACHUA","X":-82.411517610000004,"Y":29.657292760000001,"LONGLAT":"-82.41151761,29.65729276","USNG":"17R LN 63389 81644","OWNERSHIP":null,"PARCELID":"06655 005 018","FACILITY_TYPE":"ATTRACTION"}},{"type":"Feature","id":41,"geometry":{"type":"Point","coordinates":[-81.5810683846844,28.419085230586699]},"properties":{"OBJECTID":41,"Name":"MAGIC KINGDOM (DISNEY WORLD)","Address":"OFF I-4 SW OF ORLANDO","City":"ORLANDO","Zip":"32830","COUNTY":"ORANGE","X":-81.581068380000005,"Y":28.41908523,"LONGLAT":"-81.58106838,28.41908523","USNG":"17R MM 43089 43765","OWNERSHIP":null,"PARCELID":"272411000000001","FACILITY_TYPE":"ATTRACTION"}},{"type":"Feature","id":42,"geometry":{"type":"Point","coordinates":[-82.730537298346434,27.995502639654749]},"properties":{"OBJECTID":42,"Name":"CELEBRATION STATION (CLEARWATER)","Address":"24546 US 19 NORTH","City":"CLEARWATER","Zip":"33763","COUNTY":"PINELLAS","X":-82.730537299999995,"Y":27.995502640000002,"LONGLAT":"-82.73053730,27.99550264","USNG":"17R LL 29827 97910","OWNERSHIP":null,"PARCELID":"16 29 06 09072 000 0700","FACILITY_TYPE":"ATTRACTION"}},{"type":"Feature","id":43,"geometry":{"type":"Point","coordinates":[-81.00827635843298,29.227936589766699]},"properties":{"OBJECTID":43,"Name":"LITTLE DAYTONA 500","Address":"13 N.OCEAN AVE.","City":"DAYTONA BEACH","Zip":"32118","COUNTY":"VOLUSIA","X":-81.008276359999996,"Y":29.227936589999999,"LONGLAT":"-81.00827636,29.22793659","USNG":"17R MN 99195 33239","OWNERSHIP":null,"PARCELID":"33150405020020","FACILITY_TYPE":"ATTRACTION"}},{"type":"Feature","id":44,"geometry":{"type":"Point","coordinates":[-80.274940193730274,27.242029690733432]},"properties":{"OBJECTID":44,"Name":"SMALL FRY CAROUSEL (TREASURE COAST MALL)","Address":"3174 N FEDERAL HWY","City":"STUART","Zip":"34994","COUNTY":"MARTIN","X":-80.274940189999995,"Y":27.242029689999999,"LONGLAT":"-80.27494019,27.24202969","USNG":"17R NL 71783 13450","OWNERSHIP":null,"PARCELID":"193741005001000107","FACILITY_TYPE":"ATTRACTION"}},{"type":"Feature","id":45,"geometry":{"type":"Point","coordinates":[-81.06795318373446,29.185765828392121]},"properties":{"OBJECTID":45,"Name":"DAYTONA INTERNATIONAL SPEEDWAY","Address":"1801 W INTERNATIONAL SPEEDWAY BLVD","City":"DAYTONA BEACH","Zip":"32114","COUNTY":"VOLUSIA","X":-81.067953180000003,"Y":29.185765830000001,"LONGLAT":"-81.06795318,29.18576583","USNG":"17R MN 93393 28569","OWNERSHIP":null,"PARCELID":"32153900000740","FACILITY_TYPE":"ATTRACTION"}},{"type":"Feature","id":46,"geometry":{"type":"Point","coordinates":[-80.322191025982576,26.150570339798151]},"properties":{"OBJECTID":46,"Name":"KEHOES CAROUSEL (SAWGRASS MALL)","Address":"SAWGRASS MALL","City":"FORT LAUDERDALE","Zip":"33323","COUNTY":"BROWARD","X":-80.322191029999999,"Y":26.150570340000002,"LONGLAT":"-80.32219103,26.15057034","USNG":"17R NJ 67747 92535","OWNERSHIP":null,"PARCELID":"494026050080","FACILITY_TYPE":"ATTRACTION"}},{"type":"Feature","id":47,"geometry":{"type":"Point","coordinates":[-82.411517605926505,29.657292756186624]},"properties":{"OBJECTID":47,"Name":"LEARSI, INC. (OAKS MALL)","Address":"6419 NEWBERRY RD","City":"GAINESVILLE","Zip":"32607","COUNTY":"ALACHUA","X":-82.411517610000004,"Y":29.657292760000001,"LONGLAT":"-82.41151761,29.65729276","USNG":"17R LN 63389 81644","OWNERSHIP":null,"PARCELID":"06655 005 018","FACILITY_TYPE":"ATTRACTION"}},{"type":"Feature","id":48,"geometry":{"type":"Point","coordinates":[-81.529620728403358,28.365793023032875]},"properties":{"OBJECTID":48,"Name":"TYPHOON LAGOON","Address":"1675 N BUENA VISTA DRIVE","City":"ORLANDO","Zip":"32830","COUNTY":"ORANGE","X":-81.529620730000005,"Y":28.365793020000002,"LONGLAT":"-81.52962073,28.36579302","USNG":"17R MM 48102 37838","OWNERSHIP":null,"PARCELID":"282429000000022","FACILITY_TYPE":"ATTRACTION"}},{"type":"Feature","id":49,"geometry":{"type":"Point","coordinates":[-80.20629317925048,26.373955925470707]},"properties":{"OBJECTID":49,"Name":"PALM BEACH COUNTY (COCONUT COVE )","Address":"11200 PARK ACCESS ROAD","City":"BOCA RATON","Zip":"33498","COUNTY":"PALM BEACH","X":-80.206293180000003,"Y":26.373955930000001,"LONGLAT":"-80.20629318,26.37395593","USNG":"17R NK 79180 17341","OWNERSHIP":null,"PARCELID":"00414713250020000","FACILITY_TYPE":"ATTRACTION"}},{"type":"Feature","id":50,"geometry":{"type":"Point","coordinates":[-84.253699773005636,30.436479170963423]},"properties":{"OBJECTID":50,"Name":"INDOOR ENTERTAINMENT OF FLORIDA, (GOV SQ MALL)","Address":"GOVERNOR'S SQUARE MALL","City":"TALLAHASSEE","Zip":"32301","COUNTY":"LEON","X":-84.253699769999997,"Y":30.436479169999998,"LONGLAT":"-84.25369977,30.43647917","USNG":"16R GU 63757 70356","OWNERSHIP":null,"PARCELID":"1132204080000","FACILITY_TYPE":"ATTRACTION"}},{"type":"Feature","id":51,"geometry":{"type":"Point","coordinates":[-87.315221960488472,30.521143733392844]},"properties":{"OBJECTID":51,"Name":"FUN STATION USA","Address":"8021 LAVELLE WAY","City":"PENSACOLA","Zip":"32526","COUNTY":"ESCAMBIA","X":-87.315221960000002,"Y":30.521143729999999,"LONGLAT":"-87.31522196,30.52114373","USNG":"16R DU 69757 76576","OWNERSHIP":null,"PARCELID":"111S314400000002","FACILITY_TYPE":"ATTRACTION"}},{"type":"Feature","id":52,"geometry":{"type":"Point","coordinates":[-80.32307491902084,26.718555264781664]},"properties":{"OBJECTID":52,"Name":"LION COUNTRY SAFARI","Address":"2003 LION COUNTRY ROAD","City":"LOXAHATCHEE","Zip":"33470","COUNTY":"PALM BEACH","X":-80.323074919999996,"Y":26.71855527,"LONGLAT":"-80.32307492,26.71855527","USNG":"17R NK 67328 55442","OWNERSHIP":null,"PARCELID":"00404323000001020","FACILITY_TYPE":"ATTRACTION"}},{"type":"Feature","id":53,"geometry":{"type":"Point","coordinates":[-82.572618829016562,28.518621645943774]},"properties":{"OBJECTID":53,"Name":"WEEKI WACHEE SPRINGS","Address":"6131 COMMERCIAL WAY","City":"SPRING HILL","Zip":"34607","COUNTY":"HERNANDO","X":-82.572618829999996,"Y":28.51862165,"LONGLAT":"-82.57261883,28.51862165","USNG":"17R LM 46112 55663","OWNERSHIP":"WATER MANAGEMENT DISTRICT","PARCELID":"R02 423 17 0000 0030 0000","FACILITY_TYPE":"ATTRACTION"}},{"type":"Feature","id":54,"geometry":{"type":"Point","coordinates":[-80.24689316760464,25.847081128409709]},"properties":{"OBJECTID":54,"Name":"CARNIVAL USA","Address":"3015 N.W. 79 ST.","City":"MIAMI","Zip":"33147","COUNTY":"MIAMI-DADE","X":-80.246893170000007,"Y":25.847081129999999,"LONGLAT":"-80.24689317,25.84708113","USNG":"17R NJ 75467 58965","OWNERSHIP":null,"PARCELID":"3031090000110","FACILITY_TYPE":"ATTRACTION"}},{"type":"Feature","id":55,"geometry":{"type":"Point","coordinates":[-81.337683358547352,28.803537403729692]},"properties":{"OBJECTID":55,"Name":"MCM CONCEPTS, INC.","Address":"200 TOWNE CENTER","City":"SANFORD","Zip":"32771","COUNTY":"SEMINOLE","X":-81.33768336,"Y":28.8035374,"LONGLAT":"-81.33768336,28.80353740","USNG":"17R MM 67047 86266","OWNERSHIP":null,"PARCELID":"2919305LW010A0000","FACILITY_TYPE":"ATTRACTION"}},{"type":"Feature","id":56,"geometry":{"type":"Point","coordinates":[-86.472342011791625,30.389820486595852]},"properties":{"OBJECTID":56,"Name":"FESTIVAL FUN PARKS/BIG KAHUNA'S","Address":"1007 HWY. 98 EAST","City":"DESTIN","Zip":"32541","COUNTY":"OKALOOSA","X":-86.472342010000006,"Y":30.389820490000002,"LONGLAT":"-86.47234201,30.38982049","USNG":"16R EU 50691 62099","OWNERSHIP":null,"PARCELID":"00-2S-22-0000-0013-0100","FACILITY_TYPE":"ATTRACTION"}},{"type":"Feature","id":57,"geometry":{"type":"Point","coordinates":[-80.248984847992617,26.241470769475164]},"properties":{"OBJECTID":57,"Name":"LEARSI, INC.(CORAL SQUARE MALL)","Address":"CORAL SQUARE MALL UNIVERSITY BLVD.","City":"POMPANO BEACH","Zip":"33071","COUNTY":"BROWARD","X":-80.248984849999999,"Y":26.241470769999999,"LONGLAT":"-80.24898485,26.24147077","USNG":"17R NK 75006 02643","OWNERSHIP":null,"PARCELID":"484127036261","FACILITY_TYPE":"ATTRACTION"}},{"type":"Feature","id":58,"geometry":{"type":"Point","coordinates":[-80.396288400457593,27.432447139911627]},"properties":{"OBJECTID":58,"Name":"Ft Pierce Jai Alai","Address":"1750 S Kings Hwy","City":"FORT PIERCE","Zip":"34945","COUNTY":"ST. LUCIE","X":-80.396288400000003,"Y":27.432447140000001,"LONGLAT":"-80.39628840,27.43244714","USNG":"17R NL 59667 34479","OWNERSHIP":null,"PARCELID":null,"FACILITY_TYPE":"ATTRACTION"}},{"type":"Feature","id":59,"geometry":{"type":"Point","coordinates":[-80.122140459952064,26.53301486725028]},"properties":{"OBJECTID":59,"Name":"YMCA OF BOYNTON BEACH","Address":"9600 S MILITARY TRL","City":"BOYNTON BEACH","Zip":"33436","COUNTY":"PALM BEACH","X":-80.122140459999997,"Y":26.533014869999999,"LONGLAT":"-80.12214046,26.53301487","USNG":"17R NK 87455 35013","OWNERSHIP":null,"PARCELID":null,"FACILITY_TYPE":"ATTRACTION"}},{"type":"Feature","id":60,"geometry":{"type":"Point","coordinates":[-80.205559823402581,27.275329644330583]},"properties":{"OBJECTID":60,"Name":"Waveland Beach Complex","Address":"10350 S Ocean Dr","City":" ","Zip":"34957","COUNTY":"ST. LUCIE","X":-80.205559820000005,"Y":27.27532965,"LONGLAT":"-80.20555982,27.27532965","USNG":"17R NL 78629 17180","OWNERSHIP":null,"PARCELID":null,"FACILITY_TYPE":"ATTRACTION"}},{"type":"Feature","id":61,"geometry":{"type":"Point","coordinates":[-82.532980747089965,27.270543236049921]},"properties":{"OBJECTID":61,"Name":"PHILLIPPI ESTATE PK CARRIAGE HOUSE","Address":"5500 S TAMIAMI TRL","City":"SARASOTA","Zip":"34231","COUNTY":"SARASOTA","X":-82.532980749999993,"Y":27.270543239999999,"LONGLAT":"-82.53298075,27.27054324","USNG":"17R LL 48260 17331","OWNERSHIP":null,"PARCELID":null,"FACILITY_TYPE":"ATTRACTION"}},{"type":"Feature","id":62,"geometry":{"type":"Point","coordinates":[-81.549382695527925,28.37530923189539]},"properties":{"OBJECTID":62,"Name":"EPCOT (DISNEY WORLD)","Address":"OFF I-4 SW OF ORLANDO","City":"ORLANDO","Zip":"32830","COUNTY":"ORANGE","X":-81.549382699999995,"Y":28.375309229999999,"LONGLAT":"-81.54938270,28.37530923","USNG":"17R MM 46171 38901","OWNERSHIP":null,"PARCELID":"282430000000001","FACILITY_TYPE":"ATTRACTION"}},{"type":"Feature","id":63,"geometry":{"type":"Point","coordinates":[-81.288290595940296,29.881780029240836]},"properties":{"OBJECTID":63,"Name":"St Augustine Alligator Farm","Address":"999 Anastasia Blvd","City":"St Augustine","Zip":"32080","COUNTY":"ST. JOHNS","X":-81.288290599999996,"Y":29.881780030000002,"LONGLAT":"-81.28829060,29.88178003","USNG":"17R MP 72162 05720","OWNERSHIP":null,"PARCELID":null,"FACILITY_TYPE":"ATTRACTION"}},{"type":"Feature","id":64,"geometry":{"type":"Point","coordinates":[-80.154815437359829,25.709526785335502]},"properties":{"OBJECTID":64,"Name":"MIAMI DADE COUNTY PARKS (CRANDON PARK)","Address":"4000 CRANDON BLVD","City":"KEY BISCAYNE","Zip":"33149","COUNTY":"MIAMI-DADE","X":-80.154815439999993,"Y":25.709526790000002,"LONGLAT":"-80.15481544,25.70952679","USNG":"17R NJ 84792 43787","OWNERSHIP":"STATE","PARCELID":"3052040030010","FACILITY_TYPE":"ATTRACTION"}},{"type":"Feature","id":65,"geometry":{"type":"Point","coordinates":[-81.29498825982202,28.744786430763522]},"properties":{"OBJECTID":65,"Name":"FUN WORLD AT FLEA WORLD","Address":"4311 US HWY 17/92","City":"SANFORD","Zip":"32773","COUNTY":"SEMINOLE","X":-81.294988259999997,"Y":28.744786430000001,"LONGLAT":"-81.29498826,28.74478643","USNG":"17R MM 71197 79746","OWNERSHIP":null,"PARCELID":"14203030001500000","FACILITY_TYPE":"ATTRACTION"}},{"type":"Feature","id":66,"geometry":{"type":"Point","coordinates":[-85.825997160824542,30.188256169437619]},"properties":{"OBJECTID":66,"Name":"NASKART PARK, INC.","Address":"11838 FRONT BEACH RD.","City":"PANAMA CITY BEACH","Zip":"32407","COUNTY":"BAY","X":-85.82599716,"Y":30.188256169999999,"LONGLAT":"-85.82599716,30.18825617","USNG":"16R FU 13019 40228","OWNERSHIP":null,"PARCELID":"34788-000-000","FACILITY_TYPE":"ATTRACTION"}},{"type":"Feature","id":67,"geometry":{"type":"Point","coordinates":[-81.018566280479064,24.72138881497105]},"properties":{"OBJECTID":67,"Name":"Key Colony Beach Auditorium","Address":"600 W OCEAN DR","City":"MARATHON","Zip":"33050","COUNTY":"MONROE","X":-81.018566280000002,"Y":24.721388820000001,"LONGLAT":"-81.01856628,24.72138882","USNG":"17R MH 98122 34098","OWNERSHIP":"MUNICIPAL","PARCELID":"0566 33 00074050000000","FACILITY_TYPE":"ATTRACTION"}},{"type":"Feature","id":68,"geometry":{"type":"Point","coordinates":[-82.577545852342766,27.445731609051386]},"properties":{"OBJECTID":68,"Name":"PIRATES COVE FAMILY FUN PARK","Address":"5410 14TH ST W","City":"BRADENTON","Zip":"34207","COUNTY":"MANATEE","X":-82.577545850000007,"Y":27.445731609999999,"LONGLAT":"-82.57754585,27.44573161","USNG":"17R LL 44093 36795","OWNERSHIP":null,"PARCELID":"5886200109","FACILITY_TYPE":"ATTRACTION"}},{"type":"Feature","id":69,"geometry":{"type":"Point","coordinates":[-82.555824260588579,27.367871492451432]},"properties":{"OBJECTID":69,"Name":"Sarasota Jungle Gardens","Address":"3701 Bay Shore Rd","City":"Sarasota","Zip":"34234","COUNTY":null,"X":-82.555824259999994,"Y":27.367871489999999,"LONGLAT":"-82.55582426,27.36787149","USNG":"17R LL 46133 28141","OWNERSHIP":null,"PARCELID":null,"FACILITY_TYPE":"ATTRACTION"}},{"type":"Feature","id":70,"geometry":{"type":"Point","coordinates":[-80.192057234115765,26.137274298832143]},"properties":{"OBJECTID":70,"Name":"FAMILY FUN CORP (THUNDERBIRD SWAP SHOP)","Address":"3291 W. SUNRISE BLVD.","City":"FORT LAUDERDALE","Zip":"33311","COUNTY":"BROWARD","X":-80.192057230000003,"Y":26.137274300000001,"LONGLAT":"-80.19205723,26.13727430","USNG":"17R NJ 80764 91137","OWNERSHIP":null,"PARCELID":"494231390010","FACILITY_TYPE":"ATTRACTION"}},{"type":"Feature","id":71,"geometry":{"type":"Point","coordinates":[-80.495133819855056,27.409691172507319]},"properties":{"OBJECTID":71,"Name":"SAVE THE CHIMPS","Address":"16891  Carole Noon Ln","City":"ST LUCIE COUNTY","Zip":"34945","COUNTY":"ST. LUCIE","X":-80.495133820000007,"Y":27.409691169999999,"LONGLAT":"-80.49513382,27.40969117","USNG":"17R NL 49907 31914","OWNERSHIP":"PRIVATE","PARCELID":null,"FACILITY_TYPE":"ATTRACTION"}},{"type":"Feature","id":72,"geometry":{"type":"Point","coordinates":[-81.766421478753927,26.227853159979006]},"properties":{"OBJECTID":72,"Name":"KING RICHARDS","Address":"6780 N. AIRPORT RD.","City":"NAPLES","Zip":"34109","COUNTY":"COLLIER","X":-81.766421480000005,"Y":26.227853159999999,"LONGLAT":"-81.76642148,26.22785316","USNG":"17R MK 23445 01143","OWNERSHIP":null,"PARCELID":"00235320005","FACILITY_TYPE":"ATTRACTION"}},{"type":"Feature","id":73,"geometry":{"type":"Point","coordinates":[-81.51708864532344,28.333641271361213]},"properties":{"OBJECTID":73,"Name":"GILBERTS GO KARTS (RACIN STATION)","Address":"6073 W. IRLO BRONSON HWY.","City":"KISSIMMEE","Zip":"34746","COUNTY":"OSCEOLA","X":-81.517088650000005,"Y":28.333641270000001,"LONGLAT":"-81.51708865,28.33364127","USNG":"17R MM 49315 34270","OWNERSHIP":null,"PARCELID":"04-25-28-5519-0001-0020","FACILITY_TYPE":"ATTRACTION"}},{"type":"Feature","id":74,"geometry":{"type":"Point","coordinates":[-82.469360878712038,28.013684262439181]},"properties":{"OBJECTID":74,"Name":"LOWRY PARK ZOO","Address":"1101 W SLIGH AVE","City":"TAMPA","Zip":"33604","COUNTY":"HILLSBOROUGH","X":-82.469360879999996,"Y":28.013684260000002,"LONGLAT":"-82.46936088,28.01368426","USNG":"17R LL 55538 99588","OWNERSHIP":"MUNICIPAL","PARCELID":"182826ZZZ000005390900A","FACILITY_TYPE":"ATTRACTION"}},{"type":"Feature","id":75,"geometry":{"type":"Point","coordinates":[-82.452742398117593,28.077029556542126]},"properties":{"OBJECTID":75,"Name":"MALIBU ENT WW (TAMPA MGPC)","Address":"14320 N NEBRASKA AVE","City":"TAMPA","Zip":"33613","COUNTY":"HILLSBOROUGH","X":-82.452742400000005,"Y":28.07702956,"LONGLAT":"-82.45274240,28.07702956","USNG":"17R LM 57255 06587","OWNERSHIP":null,"PARCELID":"1828010T3000000000010U","FACILITY_TYPE":"ATTRACTION"}},{"type":"Feature","id":76,"geometry":{"type":"Point","coordinates":[-81.605831146999208,28.336164476393964]},"properties":{"OBJECTID":76,"Name":"SPLENDID CHINA","Address":"3000 SPLENDID CHINA BLVD.","City":"KISSIMMEE","Zip":"34747","COUNTY":"OSCEOLA","X":-81.60583115,"Y":28.336164480000001,"LONGLAT":"-81.60583115,28.33616448","USNG":"17R MM 40618 34590","OWNERSHIP":null,"PARCELID":"03-25-27-3183-0001-0010","FACILITY_TYPE":"ATTRACTION"}},{"type":"Feature","id":77,"geometry":{"type":"Point","coordinates":[-80.251722997418057,27.12157167885891]},"properties":{"OBJECTID":77,"Name":"KLAK GOLF HOLDING  (ALLGOLF)","Address":"6801 S KANNER HWY","City":"STUART","Zip":"34997","COUNTY":"MARTIN","X":-80.251722999999998,"Y":27.121571679999999,"LONGLAT":"-80.25172300,27.12157168","USNG":"17R NL 74161 00121","OWNERSHIP":null,"PARCELID":"553841000043000302","FACILITY_TYPE":"ATTRACTION"}},{"type":"Feature","id":78,"geometry":{"type":"Point","coordinates":[-82.056878747199335,29.216412821168433]},"properties":{"OBJECTID":78,"Name":"WILD WATERS","Address":"5656 E SILVER SPRINGS BLVD","City":"SILVER SPRINGS","Zip":"34488","COUNTY":"MARION","X":-82.056878749999996,"Y":29.216412819999999,"LONGLAT":"-82.05687875,29.21641282","USNG":"17R LN 97272 32425","OWNERSHIP":"STATE OF FLORIDA TIITF","PARCELID":"31757-000-00","FACILITY_TYPE":"ATTRACTION"}},{"type":"Feature","id":79,"geometry":{"type":"Point","coordinates":[-82.634503853836975,27.463578538287909]},"properties":{"OBJECTID":79,"Name":"PLANET FUN","Address":"7250 CORTEZ RD W.","City":"BRADENTON","Zip":"34209","COUNTY":"MANATEE","X":-82.634503850000002,"Y":27.46357854,"LONGLAT":"-82.63450385,27.46357854","USNG":"17R LL 38489 38845","OWNERSHIP":null,"PARCELID":"5164500000","FACILITY_TYPE":"ATTRACTION"}},{"type":"Feature","id":80,"geometry":{"type":"Point","coordinates":[-82.547441564031445,27.343990824424662]},"properties":{"OBJECTID":80,"Name":"LAWN BOWLING PK OFFICE","Address":"809 N TAMIAMI TRL","City":"SARASOTA","Zip":"34236","COUNTY":"SARASOTA","X":-82.547441559999996,"Y":27.343990829999999,"LONGLAT":"-82.54744156,27.34399083","USNG":"17R LL 46929 25485","OWNERSHIP":null,"PARCELID":null,"FACILITY_TYPE":"ATTRACTION"}},{"type":"Feature","id":81,"geometry":{"type":"Point","coordinates":[-82.530136241546344,27.334336990782653]},"properties":{"OBJECTID":81,"Name":"PAYNE PARK","Address":"2050 ADAMS LN","City":"SARASOTA","Zip":"34237","COUNTY":null,"X":-82.530136240000004,"Y":27.334336990000001,"LONGLAT":"-82.53013624,27.33433699","USNG":"17R LL 48628 24395","OWNERSHIP":null,"PARCELID":null,"FACILITY_TYPE":"ATTRACTION"}},{"type":"Feature","id":82,"geometry":{"type":"Point","coordinates":[-81.468659472869845,28.47290985064468]},"properties":{"OBJECTID":82,"Name":"UNIVERSAL STUDIOS","Address":"1000 UNIVERSAL STUDIOS PLZ","City":"ORLANDO","Zip":"32819","COUNTY":"ORANGE","X":-81.468659470000006,"Y":28.472909850000001,"LONGLAT":"-81.46865947,28.47290985","USNG":"17R MM 54122 49680","OWNERSHIP":null,"PARCELID":"282313883300120","FACILITY_TYPE":"ATTRACTION"}},{"type":"Feature","id":83,"geometry":{"type":"Point","coordinates":[-86.593557332509022,30.394300977396881]},"properties":{"OBJECTID":83,"Name":"WEST DESTIN WATER PARK (PLEASURE ISLAND)","Address":"1310 HIGHWAY 98 EAST","City":"FORT WALTON BEACH","Zip":"32548","COUNTY":"OKALOOSA","X":-86.593557329999996,"Y":30.394300980000001,"LONGLAT":"-86.59355733,30.39430098","USNG":"16R EU 39044 62548","OWNERSHIP":null,"PARCELID":"00-2S-24-2185-0010-0020","FACILITY_TYPE":"ATTRACTION"}},{"type":"Feature","id":84,"geometry":{"type":"Point","coordinates":[-81.433307354637051,28.495291035931224]},"properties":{"OBJECTID":84,"Name":"HOLY LAND EXPERIENCE","Address":"4655 VINELAND ROAD","City":"ORLANDO","Zip":"32811","COUNTY":"ORANGE","X":-81.433307350000007,"Y":28.495291040000001,"LONGLAT":"-81.43330735,28.49529104","USNG":"17R MM 57592 52146","OWNERSHIP":null,"PARCELID":"292317002700020","FACILITY_TYPE":"ATTRACTION"}},{"type":"Feature","id":85,"geometry":{"type":"Point","coordinates":[-81.470712732974278,28.438907611171434]},"properties":{"OBJECTID":85,"Name":"GUINNESS WORLD OF RECORDS EXPERIENCE","Address":"8437 INTERNATIONAL DRIVE","City":"ORLANDO","Zip":"32819","COUNTY":"ORANGE","X":-81.470712730000002,"Y":28.438907610000001,"LONGLAT":"-81.47071273,28.43890761","USNG":"17R MM 53906 45914","OWNERSHIP":null,"PARCELID":"282336716500013","FACILITY_TYPE":"ATTRACTION"}},{"type":"Feature","id":86,"geometry":{"type":"Point","coordinates":[-81.06795318373446,29.185765828392121]},"properties":{"OBJECTID":86,"Name":"DAYTONA INTERNATIONAL SPEEDWAY","Address":"1801 W INTERNATIONAL SPEEDWAY BLVD","City":"DAYTONA BEACH","Zip":"32114","COUNTY":"VOLUSIA","X":-81.067953180000003,"Y":29.185765830000001,"LONGLAT":"-81.06795318,29.18576583","USNG":"17R MN 93393 28569","OWNERSHIP":null,"PARCELID":"32153900000740","FACILITY_TYPE":"ATTRACTION"}},{"type":"Feature","id":87,"geometry":{"type":"Point","coordinates":[-82.711559517212478,28.294388556658511]},"properties":{"OBJECTID":87,"Name":"CYPRESS GROUP (PORT RICHEY)","Address":"GULF VIEW SQ. MALL U.S.19  N.","City":"PORT RICHEY","Zip":"34668","COUNTY":"PASCO","X":-82.711559519999994,"Y":28.294388560000002,"LONGLAT":"-82.71155952,28.29438856","USNG":"17R LM 32160 31002","OWNERSHIP":null,"PARCELID":"1625210000002000030","FACILITY_TYPE":"ATTRACTION"}},{"type":"Feature","id":88,"geometry":{"type":"Point","coordinates":[-80.254816787435729,26.117776675964215]},"properties":{"OBJECTID":88,"Name":"LEARSI, INC.(BROWARD MALL)","Address":"BROWARD MALL UNIVERSITY BLVD.","City":"FORT LAUDERDALE","Zip":"33324","COUNTY":"BROWARD","X":-80.254816790000007,"Y":26.117776679999999,"LONGLAT":"-80.25481679,26.11777668","USNG":"17R NJ 74502 88940","OWNERSHIP":null,"PARCELID":"504109050020","FACILITY_TYPE":"ATTRACTION"}},{"type":"Feature","id":89,"geometry":{"type":"Point","coordinates":[-81.978362964130199,26.640503580755698]},"properties":{"OBJECTID":89,"Name":"SUN SPLASH FAMILY WATERPARK","Address":"400 SANTA BARBARA BOULEVARD","City":"CAPE CORAL","Zip":"33991","COUNTY":"LEE","X":-81.978362959999998,"Y":26.640503580000001,"LONGLAT":"-81.97836296,26.64050358","USNG":"17R MK 02621 46991","OWNERSHIP":"MUNICIPAL","PARCELID":"144423C3019580000","FACILITY_TYPE":"ATTRACTION"}},{"type":"Feature","id":90,"geometry":{"type":"Point","coordinates":[-87.253974251323612,30.465204837637579]},"properties":{"OBJECTID":90,"Name":"FAST EDDIES FUN CENTER","Address":"505 MICHIGAN AVE","City":"PENSACOLA","Zip":"32505","COUNTY":"ESCAMBIA","X":-87.253974249999999,"Y":30.465204839999998,"LONGLAT":"-87.25397425,30.46520484","USNG":"16R DU 75619 70363","OWNERSHIP":null,"PARCELID":"461S302001024052","FACILITY_TYPE":"ATTRACTION"}},{"type":"Feature","id":91,"geometry":{"type":"Point","coordinates":[-80.186002929100397,25.776194701337104]},"properties":{"OBJECTID":91,"Name":"CASINO PRINCESA MOORING","Address":"Plant Road","City":"MIAMI","Zip":"33132","COUNTY":"MIAMI-DADE","X":-80.186002930000001,"Y":25.776194700000001,"LONGLAT":"-80.18600293,25.77619470","USNG":"17R NJ 81618 51151","OWNERSHIP":null,"PARCELID":null,"FACILITY_TYPE":"ATTRACTION"}},{"type":"Feature","id":92,"geometry":{"type":"Point","coordinates":[-87.147161460850185,30.340641566210699]},"properties":{"OBJECTID":92,"Name":"BONIFAY WATER SPORTS INC DBA SPEEDY JOHNS","Address":"460 PENSACOLA BCH BLVD","City":"GULF BREEZE","Zip":"32561","COUNTY":"ESCAMBIA","X":-87.147161460000007,"Y":30.340641569999999,"LONGLAT":"-87.14716146,30.34064157","USNG":"16R DU 85855 56541","OWNERSHIP":"COUNTY","PARCELID":"282S260900000000","FACILITY_TYPE":"ATTRACTION"}},{"type":"Feature","id":93,"geometry":{"type":"Point","coordinates":[-82.567108579096967,28.436075691496367]},"properties":{"OBJECTID":93,"Name":"PUTT & SPUTT","Address":"9227 COUNTY LINE RD","City":"SPRING HILL","Zip":"34608","COUNTY":"HERNANDO","X":-82.567108579999996,"Y":28.436075689999999,"LONGLAT":"-82.56710858,28.43607569","USNG":"17R LM 46532 46509","OWNERSHIP":null,"PARCELID":"R36 223 17 1700 0000 1220","FACILITY_TYPE":"ATTRACTION"}},{"type":"Feature","id":94,"geometry":{"type":"Point","coordinates":[-81.514365486923609,28.330865171892281]},"properties":{"OBJECTID":94,"Name":"SKYCOASTER OF FLORIDA","Address":"2850 FLORIDA PLAZA BLVD.","City":"KISSIMMEE","Zip":"34746","COUNTY":"OSCEOLA","X":-81.514365490000003,"Y":28.330865169999999,"LONGLAT":"-81.51436549,28.33086517","USNG":"17R MM 49581 33962","OWNERSHIP":null,"PARCELID":"09-25-28-3181-0001-0010","FACILITY_TYPE":"ATTRACTION"}},{"type":"Feature","id":95,"geometry":{"type":"Point","coordinates":[-81.691920414064668,27.993225931962399]},"properties":{"OBJECTID":95,"Name":"CYPRESS GARDENS","Address":"2641 S LAKE SUMMIT DR\n","City":"WINTER HAVEN","Zip":"33884","COUNTY":"POLK","X":-81.691920409999994,"Y":27.993225930000001,"LONGLAT":"-81.69192041,27.99322593","USNG":"17R ML 31963 96644","OWNERSHIP":"COUNTY","PARCELID":"262902663640000020","FACILITY_TYPE":"ATTRACTION"}},{"type":"Feature","id":96,"geometry":{"type":"Point","coordinates":[-81.717928756766298,26.167004672693242]},"properties":{"OBJECTID":96,"Name":"COLLIER COUNTY (GOLDEN GATE AQUATIC FACILITY)","Address":"3300 SANTA BARBARA BLVD.","City":"NAPLES","Zip":"34116","COUNTY":"COLLIER","X":-81.717928760000007,"Y":26.167004670000001,"LONGLAT":"-81.71792876,26.16700467","USNG":"17R MJ 28252 94377","OWNERSHIP":"COUNTY","PARCELID":"00296200009","FACILITY_TYPE":"ATTRACTION"}},{"type":"Feature","id":97,"geometry":{"type":"Point","coordinates":[-80.311095344664182,27.460342837556734]},"properties":{"OBJECTID":97,"Name":"SLC Smithsonian Marine Center","Address":"701 Seaway Dr","City":" ","Zip":"34950","COUNTY":"ST. LUCIE","X":-80.311095339999994,"Y":27.460342839999999,"LONGLAT":"-80.31109534,27.46034284","USNG":"17R NL 68070 37612","OWNERSHIP":null,"PARCELID":null,"FACILITY_TYPE":"ATTRACTION"}},{"type":"Feature","id":98,"geometry":{"type":"Point","coordinates":[-82.877310659158027,29.507864952196915]},"properties":{"OBJECTID":98,"Name":"FLYWHEELS GOCART TRACK","Address":"12310 NW 62ND TER","City":"CHIEFLAND","Zip":"32626","COUNTY":"LEVY","X":-82.877310660000006,"Y":29.507864949999998,"LONGLAT":"-82.87731066,29.50786495","USNG":"17R LN 18034 65723","OWNERSHIP":null,"PARCELID":"0755700800","FACILITY_TYPE":"ATTRACTION"}},{"type":"Feature","id":99,"geometry":{"type":"Point","coordinates":[-81.896757567368041,26.704961978657977]},"properties":{"OBJECTID":99,"Name":"SHELL FACTORY MUSEUM","Address":"2787 TAMIAMI TRAIL","City":"NORTH FORT MYERS","Zip":"33903","COUNTY":"LEE","X":-81.896757570000005,"Y":26.70496198,"LONGLAT":"-81.89675757,26.70496198","USNG":"17R MK 10794 54071","OWNERSHIP":null,"PARCELID":"27432400000090000","FACILITY_TYPE":"ATTRACTION"}},{"type":"Feature","id":100,"geometry":{"type":"Point","coordinates":[-80.393973148195428,25.598694253039383]},"properties":{"OBJECTID":100,"Name":"MIAMI DADE CO. PARKS( LARRY & PENNY PARK)","Address":"12451 S.W. 184 ST.","City":"MIAMI","Zip":"33177","COUNTY":"MIAMI-DADE","X":-80.393973149999994,"Y":25.598694250000001,"LONGLAT":"-80.39397315,25.59869425","USNG":"17R NJ 60855 31382","OWNERSHIP":"COUNTY","PARCELID":"3059360000030","FACILITY_TYPE":"ATTRACTION"}},{"type":"Feature","id":101,"geometry":{"type":"Point","coordinates":[-83.368254414389611,30.396334940528998]},"properties":{"OBJECTID":101,"Name":"YOGI BEAR JELLYSTONE PARK","Address":"1051 SW OLD ST AUGUSTINE RD","City":"MADISON","Zip":"32340","COUNTY":"MADISON","X":-83.368254410000006,"Y":30.396334939999999,"LONGLAT":"-83.36825441,30.39633494","USNG":"17R KP 72468 65083","OWNERSHIP":null,"PARCELID":"27-1N-09-4407-000-000","FACILITY_TYPE":"ATTRACTION"}},{"type":"Feature","id":102,"geometry":{"type":"Point","coordinates":[-86.983872367796252,30.400869918989642]},"properties":{"OBJECTID":102,"Name":"GULF BREEZE ZOO","Address":"5701 GULF BREEZE PKWAY","City":"GULF BREEZE","Zip":"32563","COUNTY":"SANTA ROSA","X":-86.98387237,"Y":30.400869920000002,"LONGLAT":"-86.98387237,30.40086992","USNG":"16R EU 01549 63206","OWNERSHIP":null,"PARCELID":"20-2S-27-0000-02201-0000","FACILITY_TYPE":"ATTRACTION"}},{"type":"Feature","id":103,"geometry":{"type":"Point","coordinates":[-82.143106843334394,27.015486658638956]},"properties":{"OBJECTID":103,"Name":"SUN FLEA MARKET, INC. (KIDSTAR)","Address":"18505 PAULSON DRIVE (KIDSTAR)","City":"PORT CHARLOTTE","Zip":"33954","COUNTY":"CHARLOTTE","X":-82.143106840000002,"Y":27.015486660000001,"LONGLAT":"-82.14310684,27.01548666","USNG":"17R LK 86597 88664","OWNERSHIP":null,"PARCELID":"402207228002","FACILITY_TYPE":"ATTRACTION"}},{"type":"Feature","id":104,"geometry":{"type":"Point","coordinates":[-81.35419998148096,28.645599998805402]},"properties":{"OBJECTID":104,"Name":"MARON, INC DBA LIL 500 GO CARTS","Address":"150 ATLANTIC DRIVE","City":"MAITLAND","Zip":"32751","COUNTY":"SEMINOLE","X":-81.354199980000004,"Y":28.645600000000002,"LONGLAT":"-81.35419998,28.64560000","USNG":"17R MM 65383 68773","OWNERSHIP":null,"PARCELID":"1921305140B000080","FACILITY_TYPE":"ATTRACTION"}}]}