{"type":"FeatureCollection","features":[{"type":"Feature","id":1,"geometry":{"type":"Point","coordinates":[-82.050280000171369,27.016589999214201]},"properties":{"OBJECTID":1,"Name":"GREYHOUND-PORT CHARLOTTE","Address":"900 KINGS HWY","City":"PORT CHARLOTTE","Zip":" ","COUNTY":"CHARLOTTE","X":-82.050280000000001,"Y":27.016590000000001,"LONGLAT":"-82.05028000,27.01659000","USNG":"17R LK 95808 88706","OWNERSHIP":null,"PARCELID":null,"FACILITY_TYPE":"BUS TERMINAL"}},{"type":"Feature","id":2,"geometry":{"type":"Point","coordinates":[-80.629989999914045,24.922679999465732]},"properties":{"OBJECTID":2,"Name":"GREYHOUND-ISLAMORADA","Address":"82201 OVERSEAS HWY","City":"ISLAMORADA","Zip":" ","COUNTY":"MONROE","X":-80.629990000000006,"Y":24.92268,"LONGLAT":"-80.62999000,24.92268000","USNG":"17R NH 37361 56437","OWNERSHIP":null,"PARCELID":null,"FACILITY_TYPE":"BUS TERMINAL"}},{"type":"Feature","id":3,"geometry":{"type":"Point","coordinates":[-84.282429999880037,30.444719999242977]},"properties":{"OBJECTID":3,"Name":"GREYHOUND-TALLAHASSEE","Address":"112 W TENNESSEE ST","City":"TALLAHASSEE","Zip":" ","COUNTY":"LEON","X":-84.282430000000005,"Y":30.44472,"LONGLAT":"-84.28243000,30.44472000","USNG":"16R GU 60974 71203","OWNERSHIP":null,"PARCELID":null,"FACILITY_TYPE":"BUS TERMINAL"}},{"type":"Feature","id":4,"geometry":{"type":"Point","coordinates":[-80.061989999672008,26.712189999378595]},"properties":{"OBJECTID":4,"Name":"GREYHOUND-WEST PALM BEACH","Address":"205 S TAMARIND AVE","City":"WEST PALM BEACH","Zip":" ","COUNTY":"PALM BEACH","X":-80.061989999999994,"Y":26.71219,"LONGLAT":"-80.06199000,26.71219000","USNG":"17R NK 93303 54901","OWNERSHIP":null,"PARCELID":null,"FACILITY_TYPE":"BUS TERMINAL"}},{"type":"Feature","id":5,"geometry":{"type":"Point","coordinates":[-81.754660000161863,24.553539999415886]},"properties":{"OBJECTID":5,"Name":"GREYHOUND-KEY WEST INT'L","Address":"3535 S ROOSEVELT BLVD","City":"KEY WEST","Zip":" ","COUNTY":"MONROE","X":-81.754660000000001,"Y":24.553540000000002,"LONGLAT":"-81.75466000,24.55354000","USNG":"17R MH 23573 15722","OWNERSHIP":null,"PARCELID":null,"FACILITY_TYPE":"BUS TERMINAL"}},{"type":"Feature","id":6,"geometry":{"type":"Point","coordinates":[-82.420750000148971,28.556899999503958]},"properties":{"OBJECTID":6,"Name":"GREYHOUND-BROOKSVILLE","Address":"9020 COBB RD","City":"BROOKSVILLE","Zip":" ","COUNTY":"HERNANDO","X":-82.420749999999998,"Y":28.556899999999999,"LONGLAT":"-82.42075000,28.55690000","USNG":"17R LM 61025 59719","OWNERSHIP":null,"PARCELID":null,"FACILITY_TYPE":"BUS TERMINAL"}},{"type":"Feature","id":7,"geometry":{"type":"Point","coordinates":[-81.662950000191671,30.32751999946494]},"properties":{"OBJECTID":7,"Name":"GREYHOUND-JACKSONVILLE","Address":"10 N PEARL ST","City":"JACKSONVILLE","Zip":" ","COUNTY":"DUVAL","X":-81.662949999999995,"Y":30.32752,"LONGLAT":"-81.66295000,30.32752000","USNG":"17R MP 36270 55264","OWNERSHIP":null,"PARCELID":null,"FACILITY_TYPE":"BUS TERMINAL"}},{"type":"Feature","id":8,"geometry":{"type":"Point","coordinates":[-81.732920000324711,28.031059999375305]},"properties":{"OBJECTID":8,"Name":"GREYHOUND-WINTER HAVEN","Address":"900 6TH ST NW","City":"WINTER HAVEN","Zip":" ","COUNTY":"POLK","X":-81.732919999999993,"Y":28.03106,"LONGLAT":"-81.73292000,28.03106000","USNG":"17R MM 27957 00859","OWNERSHIP":null,"PARCELID":null,"FACILITY_TYPE":"BUS TERMINAL"}},{"type":"Feature","id":9,"geometry":{"type":"Point","coordinates":[-82.108409999807321,29.95284999916559]},"properties":{"OBJECTID":9,"Name":"GREYHOUND-STARKE","Address":"838 N TEMPLE AVE","City":"STARKE","Zip":" ","COUNTY":"BRADFORD","X":-82.108410000000006,"Y":29.952850000000002,"LONGLAT":"-82.10841000,29.95285000","USNG":"17R LP 93042 14077","OWNERSHIP":null,"PARCELID":null,"FACILITY_TYPE":"BUS TERMINAL"}},{"type":"Feature","id":10,"geometry":{"type":"Point","coordinates":[-81.772580000340568,26.138529999038358]},"properties":{"OBJECTID":10,"Name":"GREYHOUND-NAPLES","Address":"2669 DAVIS BLVD","City":"NAPLES","Zip":" ","COUNTY":"COLLIER","X":-81.772580000000005,"Y":26.138529999999999,"LONGLAT":"-81.77258000,26.13853000","USNG":"17R MJ 22771 91254","OWNERSHIP":null,"PARCELID":null,"FACILITY_TYPE":"BUS TERMINAL"}},{"type":"Feature","id":11,"geometry":{"type":"Point","coordinates":[-87.211009880544168,30.411254472005282]},"properties":{"OBJECTID":11,"Name":"FIVE FLAGS TROLLEY","Address":"226 E INTENDENCIA ST","City":"PENSACOLA","Zip":"32502","COUNTY":"ESCAMBIA","X":-87.211009880000006,"Y":30.411254469999999,"LONGLAT":"-87.21100988,30.41125447","USNG":"16R DU 79733 64376","OWNERSHIP":null,"PARCELID":null,"FACILITY_TYPE":"BUS TERMINAL"}},{"type":"Feature","id":12,"geometry":{"type":"Point","coordinates":[-82.676669689321841,27.886928077872547]},"properties":{"OBJECTID":12,"Name":"PINELLAS SUNCOAST TRANSIT AUTHORITY","Address":"3201 SCHERER DRIVE","City":"SAINT PETERSBURG","Zip":"33716","COUNTY":"PINELLAS","X":-82.676669689999997,"Y":27.886928080000001,"LONGLAT":"-82.67666969,27.88692808","USNG":"17R LL 34960 85806","OWNERSHIP":"SPECIAL TAXING DISTRICT","PARCELID":"16 30 11 00000 230 0200","FACILITY_TYPE":"BUS TERMINAL"}},{"type":"Feature","id":13,"geometry":{"type":"Point","coordinates":[-82.294380000209529,29.652479999251117]},"properties":{"OBJECTID":13,"Name":"GREYHOUND-GAINESVILLE","Address":"101 NE 23RD ST","City":"GAINESVILLE","Zip":" ","COUNTY":"ALACHUA","X":-82.294380000000004,"Y":29.652480000000001,"LONGLAT":"-82.29438000,29.65248000","USNG":"17R LN 74721 80978","OWNERSHIP":null,"PARCELID":null,"FACILITY_TYPE":"BUS TERMINAL"}},{"type":"Feature","id":14,"geometry":{"type":"Point","coordinates":[-80.632380030174232,28.097633664722988]},"properties":{"OBJECTID":14,"Name":"GREYHOUND-MELBOURNE","Address":"1 AIR TERMINAL PKWY  ","City":"MELBOURNE","Zip":" ","COUNTY":"BREVARD","X":-80.632380029999993,"Y":28.09763367,"LONGLAT":"-80.63238003,28.09763367","USNG":"17R NM 36112 08072","OWNERSHIP":null,"PARCELID":null,"FACILITY_TYPE":"BUS TERMINAL"}},{"type":"Feature","id":15,"geometry":{"type":"Point","coordinates":[-80.68606000020533,26.678979999001438]},"properties":{"OBJECTID":15,"Name":"GREYHOUND-BELLE GLADE","Address":"640 SW 16TH ST","City":"BELLE GLADE","Zip":" ","COUNTY":"PALM BEACH","X":-80.686059999999998,"Y":26.678979999999999,"LONGLAT":"-80.68606000,26.67898000","USNG":"17R NK 31235 50918","OWNERSHIP":null,"PARCELID":null,"FACILITY_TYPE":"BUS TERMINAL"}},{"type":"Feature","id":16,"geometry":{"type":"Point","coordinates":[-82.531039999990199,27.340929999226137]},"properties":{"OBJECTID":16,"Name":"GREYHOUND-SARASOTA","Address":"575 N WASHINGTON BLVD","City":"SARASOTA","Zip":" ","COUNTY":"SARASOTA","X":-82.531040000000004,"Y":27.34093,"LONGLAT":"-82.53104000,27.34093000","USNG":"17R LL 48547 25126","OWNERSHIP":null,"PARCELID":null,"FACILITY_TYPE":"BUS TERMINAL"}},{"type":"Feature","id":17,"geometry":{"type":"Point","coordinates":[-80.262979999712613,25.800249998956911]},"properties":{"OBJECTID":17,"Name":"GREYHOUND-MIAMI","Address":"4111 NW 27TH ST","City":"MIAMI","Zip":" ","COUNTY":"MIAMI-DADE","X":-80.262979999999999,"Y":25.800249999999998,"LONGLAT":"-80.26298000,25.80025000","USNG":"17R NJ 73884 53769","OWNERSHIP":null,"PARCELID":null,"FACILITY_TYPE":"BUS TERMINAL"}},{"type":"Feature","id":18,"geometry":{"type":"Point","coordinates":[-81.02601000003358,24.731149999262332]},"properties":{"OBJECTID":18,"Name":"GREYHOUND-MARATHON","Address":"12222 OVERSEAS HWY","City":"MARATHON","Zip":" ","COUNTY":"MONROE","X":-81.026009999999999,"Y":24.73115,"LONGLAT":"-81.02601000,24.73115000","USNG":"17R MH 97369 35179","OWNERSHIP":null,"PARCELID":null,"FACILITY_TYPE":"BUS TERMINAL"}},{"type":"Feature","id":19,"geometry":{"type":"Point","coordinates":[-82.868590000300784,29.496909999446956]},"properties":{"OBJECTID":19,"Name":"GREYHOUND-CHIEFLAND","Address":"1904 N YOUNG BLVD","City":"CHIEFLAND","Zip":" ","COUNTY":"LEVY","X":-82.868589999999998,"Y":29.49691,"LONGLAT":"-82.86859000,29.49691000","USNG":"17R LN 18860 64495","OWNERSHIP":null,"PARCELID":null,"FACILITY_TYPE":"BUS TERMINAL"}},{"type":"Feature","id":20,"geometry":{"type":"Point","coordinates":[-82.629610000054186,28.454659999016346]},"properties":{"OBJECTID":20,"Name":"GREYHOUND-SPRING HILL","Address":"1394 COMMERCIAL WAY","City":"SPRING HILL","Zip":" ","COUNTY":"HERNANDO","X":-82.62961,"Y":28.454660000000001,"LONGLAT":"-82.62961000,28.45466000","USNG":"17R LM 40438 48650","OWNERSHIP":null,"PARCELID":null,"FACILITY_TYPE":"BUS TERMINAL"}},{"type":"Feature","id":21,"geometry":{"type":"Point","coordinates":[-82.637100000088594,30.187119999195108]},"properties":{"OBJECTID":21,"Name":"GREYHOUND-LAKE CITY","Address":"251 S MARION AVE","City":"LAKE CITY","Zip":" ","COUNTY":"COLUMBIA","X":-82.637100000000004,"Y":30.18712,"LONGLAT":"-82.63710000,30.18712000","USNG":"17R LP 42391 40652","OWNERSHIP":null,"PARCELID":null,"FACILITY_TYPE":"BUS TERMINAL"}},{"type":"Feature","id":22,"geometry":{"type":"Point","coordinates":[-81.413590000140346,28.54816999948407]},"properties":{"OBJECTID":22,"Name":"GREYHOUND-ORLANDO","Address":"555 N JOHN YOUNG PKY","City":"ORLANDO","Zip":" ","COUNTY":"ORANGE","X":-81.413589999999999,"Y":28.548169999999999,"LONGLAT":"-81.41359000,28.54817000","USNG":"17R MM 59542 57998","OWNERSHIP":null,"PARCELID":null,"FACILITY_TYPE":"BUS TERMINAL"}},{"type":"Feature","id":23,"geometry":{"type":"Point","coordinates":[-81.404649999727553,28.293419999510938]},"properties":{"OBJECTID":23,"Name":"GREYHOUND-KISSIMMEE","Address":"103 E DAKIN AVE","City":"KISSIMMEE","Zip":" ","COUNTY":"OSCEOLA","X":-81.404650000000004,"Y":28.293420000000001,"LONGLAT":"-81.40465000,28.29342000","USNG":"17R MM 60321 29773","OWNERSHIP":null,"PARCELID":null,"FACILITY_TYPE":"BUS TERMINAL"}},{"type":"Feature","id":24,"geometry":{"type":"Point","coordinates":[-81.43858000027825,26.761769999024452]},"properties":{"OBJECTID":24,"Name":"GREYHOUND-LABELLE","Address":"10 W HICKPOOCHEE AVE","City":"LABELLE","Zip":" ","COUNTY":"HENDRY","X":-81.438580000000002,"Y":26.761769999999999,"LONGLAT":"-81.43858000,26.76177000","USNG":"17R MK 56394 60124","OWNERSHIP":null,"PARCELID":null,"FACILITY_TYPE":"BUS TERMINAL"}},{"type":"Feature","id":25,"geometry":{"type":"Point","coordinates":[-86.602829999679713,30.408539999311291]},"properties":{"OBJECTID":25,"Name":"GREYHOUND-FORT WALTON BEACH","Address":"101 PERRY AVE SE","City":"FORT WALTON BEACH","Zip":" ","COUNTY":"OKALOOSA","X":-86.602829999999997,"Y":30.408539999999999,"LONGLAT":"-86.60283000,30.40854000","USNG":"16R EU 38148 64123","OWNERSHIP":null,"PARCELID":null,"FACILITY_TYPE":"BUS TERMINAL"}},{"type":"Feature","id":26,"geometry":{"type":"Point","coordinates":[-80.807719999983249,28.601449999496364]},"properties":{"OBJECTID":26,"Name":"GREYHOUND-TITUSVILLE","Address":"1220 S WASHINGTON AVE","City":"TITUSVILLE","Zip":" ","COUNTY":"BREVARD","X":-80.807720000000003,"Y":28.60145,"LONGLAT":"-80.80772000,28.60145000","USNG":"17R NM 18799 63846","OWNERSHIP":null,"PARCELID":null,"FACILITY_TYPE":"BUS TERMINAL"}},{"type":"Feature","id":27,"geometry":{"type":"Point","coordinates":[-80.213299999813742,25.921559999004003]},"properties":{"OBJECTID":27,"Name":"GREYHOUND-MIAMI NORTH","Address":"16000 NW 7TH AVE   ","City":"MIAMI","Zip":" ","COUNTY":"MIAMI-DADE","X":-80.213300000000004,"Y":25.921559999999999,"LONGLAT":"-80.21330000,25.92156000","USNG":"17R NJ 78784 67233","OWNERSHIP":null,"PARCELID":null,"FACILITY_TYPE":"BUS TERMINAL"}},{"type":"Feature","id":28,"geometry":{"type":"Point","coordinates":[-80.066920000096374,26.453959998959519]},"properties":{"OBJECTID":28,"Name":"GREYHOUND-DELRAY BEACH","Address":"402 SE 6TH AVE","City":"DELRAY BEACH","Zip":" ","COUNTY":"PALM BEACH","X":-80.066919999999996,"Y":26.453959999999999,"LONGLAT":"-80.06692000,26.45396000","USNG":"17R NK 93021 26296","OWNERSHIP":null,"PARCELID":null,"FACILITY_TYPE":"BUS TERMINAL"}},{"type":"Feature","id":29,"geometry":{"type":"Point","coordinates":[-81.381387889512951,28.548509059294954]},"properties":{"OBJECTID":29,"Name":"CENTRAL FLORIDA REGIONAL TRANSPORTATION","Address":"445 W AMELIA ST","City":"ORLANDO","Zip":"32801","COUNTY":"ORANGE","X":-81.381387889999999,"Y":28.548509060000001,"LONGLAT":"-81.38138789,28.54850906","USNG":"17R MM 62692 58025","OWNERSHIP":"MUNICIPAL","PARCELID":"292226226300040","FACILITY_TYPE":"BUS TERMINAL"}},{"type":"Feature","id":30,"geometry":{"type":"Point","coordinates":[-81.334879999651733,29.870429998875899]},"properties":{"OBJECTID":30,"Name":"GREYHOUND-ST AUGUSTINE","Address":"1711 DOBBS RD","City":"ST AUGUSTINE","Zip":" ","COUNTY":"ST. JOHNS","X":-81.334879999999998,"Y":29.870429999999999,"LONGLAT":"-81.33488000,29.87043000","USNG":"17R MP 67659 04475","OWNERSHIP":null,"PARCELID":null,"FACILITY_TYPE":"BUS TERMINAL"}},{"type":"Feature","id":31,"geometry":{"type":"Point","coordinates":[-80.138129999978588,26.125239999538906]},"properties":{"OBJECTID":31,"Name":"GREYHOUND-FORT LAUDERDALE","Address":"515 NE 3RD ST","City":"FORT LAUDERDALE","Zip":" ","COUNTY":"BROWARD","X":-80.138130000000004,"Y":26.125240000000002,"LONGLAT":"-80.13813000,26.12524000","USNG":"17R NJ 86164 89838","OWNERSHIP":null,"PARCELID":null,"FACILITY_TYPE":"BUS TERMINAL"}},{"type":"Feature","id":32,"geometry":{"type":"Point","coordinates":[-81.954149999744686,28.047119999219706]},"properties":{"OBJECTID":32,"Name":"GREYHOUND-LAKELAND","Address":"303 N MASSACHUSETTS AVE","City":"LAKELAND","Zip":" ","COUNTY":"POLK","X":-81.954149999999998,"Y":28.04712,"LONGLAT":"-81.95415000,28.04712000","USNG":"17R MM 06223 02789","OWNERSHIP":null,"PARCELID":null,"FACILITY_TYPE":"BUS TERMINAL"}},{"type":"Feature","id":33,"geometry":{"type":"Point","coordinates":[-80.36681999995568,25.578499999524286]},"properties":{"OBJECTID":33,"Name":"GREYHOUND-MIAMI CUTLER RIDGE","Address":"10801 CARIBBEAN BLVD","City":"MIAMI","Zip":" ","COUNTY":"MIAMI-DADE","X":-80.366820000000004,"Y":25.578499999999998,"LONGLAT":"-80.36682000,25.57850000","USNG":"17R NJ 63592 29158","OWNERSHIP":null,"PARCELID":null,"FACILITY_TYPE":"BUS TERMINAL"}},{"type":"Feature","id":34,"geometry":{"type":"Point","coordinates":[-82.58345999973902,28.888169999470016]},"properties":{"OBJECTID":34,"Name":"GREYHOUND-CRYSTAL RIVER","Address":"640 SE 8TH TER","City":"CRYSTAL RIVER","Zip":" ","COUNTY":"CITRUS","X":-82.583460000000002,"Y":28.888169999999999,"LONGLAT":"-82.58346000,28.88817000","USNG":"17R LM 45594 96626","OWNERSHIP":null,"PARCELID":null,"FACILITY_TYPE":"BUS TERMINAL"}},{"type":"Feature","id":35,"geometry":{"type":"Point","coordinates":[-82.456329999801426,27.951739999231094]},"properties":{"OBJECTID":35,"Name":"GREYHOUND-TAMPA","Address":"610 E POLK ST","City":"TAMPA","Zip":" ","COUNTY":"HILLSBOROUGH","X":-82.456329999999994,"Y":27.951740000000001,"LONGLAT":"-82.45633000,27.95174000","USNG":"17R LL 56737 92709","OWNERSHIP":null,"PARCELID":null,"FACILITY_TYPE":"BUS TERMINAL"}},{"type":"Feature","id":36,"geometry":{"type":"Point","coordinates":[-81.351569999742978,24.669589999367144]},"properties":{"OBJECTID":36,"Name":"GREYHOUND-BIG PINE KEY","Address":"30725 OVERSEAS HWY","City":"BIG PINE KEY","Zip":" ","COUNTY":"MONROE","X":-81.351569999999995,"Y":24.669589999999999,"LONGLAT":"-81.35157000,24.66959000","USNG":"17R MH 64428 28408","OWNERSHIP":null,"PARCELID":null,"FACILITY_TYPE":"BUS TERMINAL"}},{"type":"Feature","id":37,"geometry":{"type":"Point","coordinates":[-81.639649999700751,29.649769999052189]},"properties":{"OBJECTID":37,"Name":"GREYHOUND-PALATKA","Address":"220 N 11TH ST","City":"PALATKA","Zip":" ","COUNTY":"PUTNAM","X":-81.639650000000003,"Y":29.64977,"LONGLAT":"-81.63965000,29.64977000","USNG":"17R MN 38091 80149","OWNERSHIP":null,"PARCELID":null,"FACILITY_TYPE":"BUS TERMINAL"}},{"type":"Feature","id":38,"geometry":{"type":"Point","coordinates":[-87.234880043500041,30.444629533131188]},"properties":{"OBJECTID":38,"Name":"ESCAMBIA COUNTY AREA TRANSIT","Address":"1515 W FAIRFIELD DR","City":"PENSACOLA","Zip":"32501","COUNTY":"ESCAMBIA","X":-87.234880039999993,"Y":30.44462953,"LONGLAT":"-87.23488004,30.44462953","USNG":"16R DU 77448 68079","OWNERSHIP":null,"PARCELID":null,"FACILITY_TYPE":"BUS TERMINAL"}},{"type":"Feature","id":39,"geometry":{"type":"Point","coordinates":[-87.228811740430302,30.46848158025869]},"properties":{"OBJECTID":39,"Name":"GOOD TIME TOURS","Address":"455 CORDAY ST","City":"PENSACOLA","Zip":"32503","COUNTY":"ESCAMBIA","X":-87.228811739999998,"Y":30.468481579999999,"LONGLAT":"-87.22881174,30.46848158","USNG":"16R DU 78036 70721","OWNERSHIP":null,"PARCELID":null,"FACILITY_TYPE":"BUS TERMINAL"}},{"type":"Feature","id":40,"geometry":{"type":"Point","coordinates":[-80.145079971415669,26.123303403795575]},"properties":{"OBJECTID":40,"Name":"BROWARD COUNTY MASS TRANSIT","Address":"101 NW 1ST AVENUE","City":"FORT LAUDERDALE","Zip":"33301","COUNTY":"BROWARD","X":-80.145079969999998,"Y":26.123303400000001,"LONGLAT":"-80.14507997,26.12330340","USNG":"17R NJ 85470 89619","OWNERSHIP":"COUNTY","PARCELID":"504210011730","FACILITY_TYPE":"BUS TERMINAL"}},{"type":"Feature","id":41,"geometry":{"type":"Point","coordinates":[-81.868010000239195,26.639769999092795]},"properties":{"OBJECTID":41,"Name":"GREYHOUND-FORT MYERS","Address":"2250 WIDMAN WAY","City":"FORT MYERS","Zip":" ","COUNTY":"LEE","X":-81.868009999999998,"Y":26.639769999999999,"LONGLAT":"-81.86801000,26.63977000","USNG":"17R MK 13605 46830","OWNERSHIP":null,"PARCELID":null,"FACILITY_TYPE":"BUS TERMINAL"}},{"type":"Feature","id":42,"geometry":{"type":"Point","coordinates":[-85.660300000047911,30.165189998859688]},"properties":{"OBJECTID":42,"Name":"GREYHOUND BUS LINE","Address":"917 HARRISON AVE","City":"","Zip":" ","COUNTY":"BAY","X":-85.660300000000007,"Y":30.165189999999999,"LONGLAT":"-85.66030000,30.16519000","USNG":"16R FU 29002 37847","OWNERSHIP":null,"PARCELID":null,"FACILITY_TYPE":"BUS TERMINAL"}},{"type":"Feature","id":43,"geometry":{"type":"Point","coordinates":[-82.563049999807376,27.472449999322325]},"properties":{"OBJECTID":43,"Name":"GREYHOUND-BRADENTON","Address":"3028 1ST ST","City":"BRADENTON","Zip":" ","COUNTY":"MANATEE","X":-82.563050000000004,"Y":27.472449999999998,"LONGLAT":"-82.56305000,27.47245000","USNG":"17R LL 45563 39737","OWNERSHIP":null,"PARCELID":null,"FACILITY_TYPE":"BUS TERMINAL"}},{"type":"Feature","id":44,"geometry":{"type":"Point","coordinates":[-81.022219999939097,29.209529999056507]},"properties":{"OBJECTID":44,"Name":"GREYHOUND-DAYTONA BEACH","Address":"138 S RIDGEWOOD AVE","City":"DAYTONA BEACH","Zip":" ","COUNTY":"VOLUSIA","X":-81.022220000000004,"Y":29.209530000000001,"LONGLAT":"-81.02222000,29.20953000","USNG":"17R MN 97840 31200","OWNERSHIP":null,"PARCELID":null,"FACILITY_TYPE":"BUS TERMINAL"}},{"type":"Feature","id":45,"geometry":{"type":"Point","coordinates":[-80.397600000132314,27.413119999389149]},"properties":{"OBJECTID":45,"Name":"GREYHOUND-FORT PIERCE","Address":"7150 OKEECHOBEE RD","City":"FORT PIERCE","Zip":" ","COUNTY":"ST. LUCIE","X":-80.397599999999997,"Y":27.413119999999999,"LONGLAT":"-80.39760000,27.41312000","USNG":"17R NL 59547 32337","OWNERSHIP":null,"PARCELID":null,"FACILITY_TYPE":"BUS TERMINAL"}},{"type":"Feature","id":46,"geometry":{"type":"Point","coordinates":[-82.646649999653519,27.773389999358592]},"properties":{"OBJECTID":46,"Name":"GREYHOUND-ST PETERSBURG","Address":"180 9TH ST N","City":"ST PETERSBURG","Zip":" ","COUNTY":"PINELLAS","X":-82.646649999999994,"Y":27.773389999999999,"LONGLAT":"-82.64665000,27.77339000","USNG":"17R LL 37747 73186","OWNERSHIP":null,"PARCELID":null,"FACILITY_TYPE":"BUS TERMINAL"}},{"type":"Feature","id":47,"geometry":{"type":"Point","coordinates":[-87.261837263101498,30.496438678488925]},"properties":{"OBJECTID":47,"Name":"GREYHOUND","Address":"505 W BURGESS RD","City":"PENSACOLA","Zip":"32503","COUNTY":"ESCAMBIA","X":-87.261837259999993,"Y":30.496438680000001,"LONGLAT":"-87.26183726,30.49643868","USNG":"16R DU 74873 73826","OWNERSHIP":null,"PARCELID":null,"FACILITY_TYPE":"BUS TERMINAL"}},{"type":"Feature","id":48,"geometry":{"type":"Point","coordinates":[-82.720719999852435,27.960599999072471]},"properties":{"OBJECTID":48,"Name":"GREYHOUND-CLEARWATER","Address":"2811 GULF TO BAY BLVD","City":"CLEARWATER","Zip":" ","COUNTY":"PINELLAS","X":-82.72072,"Y":27.960599999999999,"LONGLAT":"-82.72072000,27.96060000","USNG":"17R LL 30738 94029","OWNERSHIP":null,"PARCELID":null,"FACILITY_TYPE":"BUS TERMINAL"}},{"type":"Feature","id":49,"geometry":{"type":"Point","coordinates":[-82.410589701356216,27.968759637506174]},"properties":{"OBJECTID":49,"Name":"HILLSBOROUGH AREA REGIONAL TRANSIT","Address":"4305 E 21ST AVE","City":"TAMPA","Zip":"33605","COUNTY":"HILLSBOROUGH","X":-82.410589700000003,"Y":27.968759639999998,"LONGLAT":"-82.41058970,27.96875964","USNG":"17R LL 61259 94542","OWNERSHIP":"COUNTY","PARCELID":"1929094BO000000000044A","FACILITY_TYPE":"BUS TERMINAL"}},{"type":"Feature","id":50,"geometry":{"type":"Point","coordinates":[-82.13596000015005,29.191979999077038]},"properties":{"OBJECTID":50,"Name":"GREYHOUND-OCALA","Address":"529 NE 1ST AVE","City":"OCALA","Zip":" ","COUNTY":"MARION","X":-82.135959999999997,"Y":29.191980000000001,"LONGLAT":"-82.13596000,29.19198000","USNG":"17R LN 89558 29789","OWNERSHIP":null,"PARCELID":null,"FACILITY_TYPE":"BUS TERMINAL"}}]}