{"type":"FeatureCollection","features":[{"type":"Feature","id":1,"geometry":{"type":"Point","coordinates":[-82.290848463433676,29.642206868865209]},"properties":{"OBJECTID":1,"Name":"ALACHUA COUNTY SHERIFF'S COMBINED COMMUNICATION CENTER","Address":"1100 SE 27TH ST","City":"GAINESVILLE","Zip":"32641","COUNTY":"ALACHUA","X":-82.290848460000007,"Y":29.642206869999999,"LONGLAT":"-82.29084846,29.64220687","USNG":"17R LN 75051 79836","OWNERSHIP":"COUNTY","PARCELID":"16073 001 000","FACILITY_TYPE":"CALL CENTER"}},{"type":"Feature","id":2,"geometry":{"type":"Point","coordinates":[-82.289965497975416,29.641398297221315]},"properties":{"OBJECTID":2,"Name":"ALACHUA COUNTY SHERIFF'S COMBINED COMMUNICATIONS CENTER","Address":"1100 SE 27TH ST","City":"GAINESVILLE","Zip":"32641","COUNTY":"ALACHUA","X":-82.289965499999994,"Y":29.641398299999999,"LONGLAT":"-82.28996550,29.64139830","USNG":"17R LN 75135 79745","OWNERSHIP":"COUNTY","PARCELID":"16073 001 000","FACILITY_TYPE":"CALL CENTER"}},{"type":"Feature","id":3,"geometry":{"type":"Point","coordinates":[-85.650015743290837,30.157889170252503]},"properties":{"OBJECTID":3,"Name":"BAY MEDICAL EMS","Address":"518 N COVE BLVD","City":"PANAMA CITY","Zip":"32401","COUNTY":"BAY","X":-85.650015740000001,"Y":30.157889170000001,"LONGLAT":"-85.65001574,30.15788917","USNG":"16R FU 30002 37050","OWNERSHIP":"COUNTY","PARCELID":"20802-000-000","FACILITY_TYPE":"CALL CENTER"}},{"type":"Feature","id":4,"geometry":{"type":"Point","coordinates":[-85.664751470341955,30.160329690525835]},"properties":{"OBJECTID":4,"Name":"BAY COUNTY DEPARTMENT OF PUBLIC SAFETY","Address":"644 MULBERRY AVE","City":"PANAMA CITY","Zip":"32401","COUNTY":"BAY","X":-85.664751469999999,"Y":30.160329690000001,"LONGLAT":"-85.66475147,30.16032969","USNG":"16R FU 28579 37304","OWNERSHIP":"COUNTY","PARCELID":"20104-000-000","FACILITY_TYPE":"CALL CENTER"}},{"type":"Feature","id":5,"geometry":{"type":"Point","coordinates":[-85.650576917823855,30.21046641140812]},"properties":{"OBJECTID":5,"Name":"BAY COUNTY SHERIFF'S DEPT HEADQUARTERS","Address":"3421 N HWY 77","City":"PANAMA CITY","Zip":"32405","COUNTY":"BAY","X":-85.650576920000006,"Y":30.210466409999999,"LONGLAT":"-85.65057692,30.21046641","USNG":"16R FU 29879 42876","OWNERSHIP":"COUNTY","PARCELID":"11811-000-000","FACILITY_TYPE":"CALL CENTER"}},{"type":"Feature","id":6,"geometry":{"type":"Point","coordinates":[-85.641211844784877,30.175560179495932]},"properties":{"OBJECTID":6,"Name":"PANAMA CITY POLICE DEPT HEADQUARTERS","Address":"1209 E 15TH ST","City":"PANAMA CITY","Zip":"32405","COUNTY":"BAY","X":-85.641211839999997,"Y":30.175560180000002,"LONGLAT":"-85.64121184,30.17556018","USNG":"16R FU 30826 39018","OWNERSHIP":"MUNICIPAL","PARCELID":"14723-000-000","FACILITY_TYPE":"CALL CENTER"}},{"type":"Feature","id":7,"geometry":{"type":"Point","coordinates":[-80.638757918940854,28.117123501175882]},"properties":{"OBJECTID":7,"Name":"MELBOURNE POLICE DEPARTMENT","Address":"650 N APOLLO BLVD","City":"MELBOURNE","Zip":"32935","COUNTY":"BREVARD","X":-80.638757920000003,"Y":28.117123500000002,"LONGLAT":"-80.63875792,28.11712350","USNG":"17R NM 35479 10229","OWNERSHIP":"MUNICIPAL","PARCELID":"27 372000  750","FACILITY_TYPE":"CALL CENTER"}},{"type":"Feature","id":8,"geometry":{"type":"Point","coordinates":[-80.74678247521922,28.356274303371958]},"properties":{"OBJECTID":8,"Name":"COCOA POLICE DEPARTMENT","Address":"1226 W KING ST","City":"COCOA","Zip":"32922","COUNTY":"BREVARD","X":-80.746782479999993,"Y":28.356274299999999,"LONGLAT":"-80.74678248,28.35627430","USNG":"17R NM 24814 36695","OWNERSHIP":"MUNICIPAL","PARCELID":"24 363200  270","FACILITY_TYPE":"CALL CENTER"}},{"type":"Feature","id":9,"geometry":{"type":"Point","coordinates":[-80.570044744559382,28.090964034625646]},"properties":{"OBJECTID":9,"Name":"INDIALANTIC POLICE DEPT HEADQUARTERS","Address":"220 5TH AVE","City":"INDIALANTIC","Zip":"32903","COUNTY":"BREVARD","X":-80.57004474,"Y":28.090964039999999,"LONGLAT":"-80.57004474,28.09096404","USNG":"17R NM 42238 07353","OWNERSHIP":"MUNICIPAL","PARCELID":"27 3831EO   20   13","FACILITY_TYPE":"CALL CENTER"}},{"type":"Feature","id":10,"geometry":{"type":"Point","coordinates":[-80.818973855382282,28.60742971716488]},"properties":{"OBJECTID":10,"Name":"BREVARD CO SHERIFF'S OFFICE - HEADQUARTERS","Address":"700 PARK AVE","City":"TITUSVILLE","Zip":"32780","COUNTY":"BREVARD","X":-80.81897386,"Y":28.607429719999999,"LONGLAT":"-80.81897386,28.60742972","USNG":"17R NM 17698 64506","OWNERSHIP":"COUNTY","PARCELID":"22 350476         1","FACILITY_TYPE":"CALL CENTER"}},{"type":"Feature","id":11,"geometry":{"type":"Point","coordinates":[-80.723618476434424,28.330230649646168]},"properties":{"OBJECTID":11,"Name":"ROCKLEDGE POLICE DEPARTMENT","Address":"123 BARTON BLVD","City":"ROCKLEDGE","Zip":"32955","COUNTY":"BREVARD","X":-80.723618479999999,"Y":28.330230650000001,"LONGLAT":"-80.72361848,28.33023065","USNG":"17R NM 27091 33815","OWNERSHIP":"MUNICIPAL","PARCELID":"25 360900    4","FACILITY_TYPE":"CALL CENTER"}},{"type":"Feature","id":12,"geometry":{"type":"Point","coordinates":[-80.725512763656596,28.34294315792603]},"properties":{"OBJECTID":12,"Name":"TIMOTHY J. MILLS FIRE RESCUE CENTER","Address":"1040 FLORIDA AVE S","City":"ROCKLEDGE","Zip":"32955","COUNTY":"BREVARD","X":-80.725512760000001,"Y":28.342943160000001,"LONGLAT":"-80.72551276,28.34294316","USNG":"17R NM 26902 35223","OWNERSHIP":"COUNTY","PARCELID":"25 360400    8","FACILITY_TYPE":"CALL CENTER"}},{"type":"Feature","id":13,"geometry":{"type":"Point","coordinates":[-80.610375264984043,28.317893783562656]},"properties":{"OBJECTID":13,"Name":"COCOA BEACH POLICE DEPARTMENT","Address":"2 S ORLANDO AVE","City":"COCOA BEACH","Zip":"32932","COUNTY":"BREVARD","X":-80.610375259999998,"Y":28.317893779999999,"LONGLAT":"-80.61037526,28.31789378","USNG":"17R NM 38196 32479","OWNERSHIP":null,"PARCELID":null,"FACILITY_TYPE":"CALL CENTER"}},{"type":"Feature","id":14,"geometry":{"type":"Point","coordinates":[-80.669467753079999,27.997688238818711]},"properties":{"OBJECTID":14,"Name":"PALM BAY POLICE DEPARTMENT","Address":"130 MALABAR RD SE","City":"PALM BAY","Zip":"32909","COUNTY":"BREVARD","X":-80.669467749999995,"Y":27.997688239999999,"LONGLAT":"-80.66946775,27.99768824","USNG":"17R NL 32499 96990","OWNERSHIP":"MUNICIPAL","PARCELID":"29 3706GK    A","FACILITY_TYPE":"CALL CENTER"}},{"type":"Feature","id":15,"geometry":{"type":"Point","coordinates":[-80.602313706380556,28.173336417571807]},"properties":{"OBJECTID":15,"Name":"SATELLITE BEACH POLICE DEPARTMENT","Address":"510 CINNAMON DR","City":"SATELLITE BEACH","Zip":"32937","COUNTY":"BREVARD","X":-80.602313710000004,"Y":28.173336419999998,"LONGLAT":"-80.60231371,28.17333642","USNG":"17R NM 39038 16467","OWNERSHIP":"MUNICIPAL","PARCELID":"26 373553    E    1","FACILITY_TYPE":"CALL CENTER"}},{"type":"Feature","id":16,"geometry":{"type":"Point","coordinates":[-80.597924613969695,28.145947167258662]},"properties":{"OBJECTID":16,"Name":"INDIAN HARBOUR BEACH POLICE DEPARTMENT","Address":"40 CHEYENNE CT","City":"SATELLITE BEACH","Zip":"32937","COUNTY":"BREVARD","X":-80.597924610000007,"Y":28.145947169999999,"LONGLAT":"-80.59792461,28.14594717","USNG":"17R NM 39479 13435","OWNERSHIP":"MUNICIPAL","PARCELID":"27 371180        17","FACILITY_TYPE":"CALL CENTER"}},{"type":"Feature","id":17,"geometry":{"type":"Point","coordinates":[-80.207068595199303,26.17007445164613]},"properties":{"OBJECTID":17,"Name":"BROWARD SHERIFF FIRE RESCUE","Address":"4300 NW 36TH ST","City":"FORT LAUDERDALE","Zip":"33319","COUNTY":"BROWARD","X":-80.207068599999999,"Y":26.170074450000001,"LONGLAT":"-80.20706860,26.17007445","USNG":"17R NJ 79241 94760","OWNERSHIP":"MUNICIPAL","PARCELID":"494124060010","FACILITY_TYPE":"CALL CENTER"}},{"type":"Feature","id":18,"geometry":{"type":"Point","coordinates":[-80.159259681699254,26.121481176596923]},"properties":{"OBJECTID":18,"Name":"FT LAUDERDALE POLICE DEPT HEADQUARTERS","Address":"1300 W BROWARD BLVD","City":"FORT LAUDERDALE","Zip":"33312","COUNTY":"BROWARD","X":-80.159259680000005,"Y":26.12148118,"LONGLAT":"-80.15925968,26.12148118","USNG":"17R NJ 84054 89408","OWNERSHIP":"MUNICIPAL","PARCELID":"504209010070","FACILITY_TYPE":"CALL CENTER"}},{"type":"Feature","id":19,"geometry":{"type":"Point","coordinates":[-80.344272905582727,25.984863749404091]},"properties":{"OBJECTID":19,"Name":"MIRAMAR FIRE RESCUE","Address":"14801 SW 27TH ST","City":"HOLLYWOOD","Zip":"33027","COUNTY":"BROWARD","X":-80.344272910000001,"Y":25.984863749999999,"LONGLAT":"-80.34427291,25.98486375","USNG":"17R NJ 65632 74172","OWNERSHIP":"MUNICIPAL","PARCELID":"514028100020","FACILITY_TYPE":"CALL CENTER"}},{"type":"Feature","id":20,"geometry":{"type":"Point","coordinates":[-80.174787120235109,26.010218042308075]},"properties":{"OBJECTID":20,"Name":"HOLLYWOOD POLICE DEPT HEADQUARTERS","Address":"3250 HOLLYWOOD BLVD","City":"HOLLYWOOD","Zip":"33021","COUNTY":"BROWARD","X":-80.174787120000005,"Y":26.010218040000002,"LONGLAT":"-80.17478712,26.01021804","USNG":"17R NJ 82580 77076","OWNERSHIP":"MUNICIPAL","PARCELID":"514217050010","FACILITY_TYPE":"CALL CENTER"}},{"type":"Feature","id":21,"geometry":{"type":"Point","coordinates":[-80.261922921248384,26.123698854353801]},"properties":{"OBJECTID":21,"Name":"BROWARD COUNTY EMERGENCY MANAGEMENT-EMERGENCY OPERATIONS CENTER","Address":"201 NORTHWEST 84TH AVENUE","City":"FORT LAUDERDALE","Zip":"33324","COUNTY":"BROWARD","X":-80.261922920000004,"Y":26.123698860000001,"LONGLAT":"-80.26192292,26.12369886","USNG":"17R NJ 73788 89592","OWNERSHIP":"COUNTY","PARCELID":"504104400010","FACILITY_TYPE":"CALL CENTER"}},{"type":"Feature","id":22,"geometry":{"type":"Point","coordinates":[-80.28713554854744,26.043867476305447]},"properties":{"OBJECTID":22,"Name":"BROWARD SHERIFF OFFICE","Address":"10580 STIRLING RD","City":"HOLLYWOOD","Zip":"33026","COUNTY":"BROWARD","X":-80.287135550000002,"Y":26.043867479999999,"LONGLAT":"-80.28713555,26.04386748","USNG":"17R NJ 71316 80736","OWNERSHIP":"COUNTY","PARCELID":"514106080010","FACILITY_TYPE":"CALL CENTER"}},{"type":"Feature","id":23,"geometry":{"type":"Point","coordinates":[-80.177176204693794,26.122410489835499]},"properties":{"OBJECTID":23,"Name":"BROWARD COUNTY SHERIFF'S DEPT. HEADQUARTERS","Address":"2601 W BROWARD BLVD","City":"FORT LAUDERDALE","Zip":"33311","COUNTY":"BROWARD","X":-80.177176200000005,"Y":26.12241049,"LONGLAT":"-80.17717620,26.12241049","USNG":"17R NJ 82262 89500","OWNERSHIP":"COUNTY","PARCELID":"504205450010","FACILITY_TYPE":"CALL CENTER"}},{"type":"Feature","id":24,"geometry":{"type":"Point","coordinates":[-80.265029439011457,26.264158793746439]},"properties":{"OBJECTID":24,"Name":"CORAL SPRINGS POLICE DEPT HEADQUARTERS","Address":"2801 CORAL SPRINGS DR","City":"POMPANO BEACH","Zip":"33065","COUNTY":"BROWARD","X":-80.265029440000006,"Y":26.26415879,"LONGLAT":"-80.26502944,26.26415879","USNG":"17R NK 73390 05146","OWNERSHIP":"MUNICIPAL","PARCELID":"484121310010","FACILITY_TYPE":"CALL CENTER"}},{"type":"Feature","id":25,"geometry":{"type":"Point","coordinates":[-80.242848072712292,26.127809653603343]},"properties":{"OBJECTID":25,"Name":"PLANTATION POLICE DEPT HEADQUARTERS","Address":"451 NW 70TH TER","City":"FORT LAUDERDALE","Zip":"33317","COUNTY":"BROWARD","X":-80.242848069999994,"Y":26.12780965,"LONGLAT":"-80.24284807,26.12780965","USNG":"17R NJ 75693 90058","OWNERSHIP":"MUNICIPAL","PARCELID":"504103660010","FACILITY_TYPE":"CALL CENTER"}},{"type":"Feature","id":26,"geometry":{"type":"Point","coordinates":[-80.33378610196992,26.131746107532095]},"properties":{"OBJECTID":26,"Name":"SUNRISE POLICE DEPT HEADQUARTERS","Address":"777 SAWGRASS CORPORATE PKY","City":"FORT LAUDERDALE","Zip":"33325","COUNTY":"BROWARD","X":-80.333786099999998,"Y":26.131746110000002,"LONGLAT":"-80.33378610,26.13174611","USNG":"17R NJ 66599 90444","OWNERSHIP":"MUNICIPAL","PARCELID":"494034040021","FACILITY_TYPE":"CALL CENTER"}},{"type":"Feature","id":27,"geometry":{"type":"Point","coordinates":[-80.27123350484041,26.007786940866048]},"properties":{"OBJECTID":27,"Name":"PEMBROKE PINES FIRE/RESC","Address":"9500 PINES BLVD","City":"HOLLYWOOD","Zip":"33025","COUNTY":"BROWARD","X":-80.271233499999994,"Y":26.007786939999999,"LONGLAT":"-80.27123350,26.00778694","USNG":"17R NJ 72929 76749","OWNERSHIP":"MUNICIPAL","PARCELID":"514117010030","FACILITY_TYPE":"CALL CENTER"}},{"type":"Feature","id":28,"geometry":{"type":"Point","coordinates":[-80.178158942336609,26.048210536264094]},"properties":{"OBJECTID":28,"Name":"HOLLYWOOD FIRE RESCUE STATION 74","Address":"2741 STIRLING ROAD","City":"FORT LAUDERDALE","Zip":"33312","COUNTY":"BROWARD","X":-80.178158940000003,"Y":26.048210539999999,"LONGLAT":"-80.17815894,26.04821054","USNG":"17R NJ 82216 81281","OWNERSHIP":"MUNICIPAL","PARCELID":"504232240010","FACILITY_TYPE":"CALL CENTER"}},{"type":"Feature","id":29,"geometry":{"type":"Point","coordinates":[-82.328264747589699,28.835595658079587]},"properties":{"OBJECTID":29,"Name":"CITRUS COUNTY SHERIFF'S DEPT. HEADQUARTERS","Address":"1 DR MARTIN LUTHER KING JR AVE","City":"INVERNESS","Zip":"34450","COUNTY":"CITRUS","X":-82.328264750000002,"Y":28.835595659999999,"LONGLAT":"-82.32826475,28.83559566","USNG":"17R LM 70416 90495","OWNERSHIP":"COUNTY","PARCELID":"20E19S170050  01030 0020","FACILITY_TYPE":"CALL CENTER"}},{"type":"Feature","id":30,"geometry":{"type":"Point","coordinates":[-82.491003567641783,28.823600349326654]},"properties":{"OBJECTID":30,"Name":"CITRUS COUNTY EOC","Address":"3549 SAUNDERS WAY","City":"LECANTO","Zip":"34461","COUNTY":"CITRUS","X":-82.491003570000004,"Y":28.82360035,"LONGLAT":"-82.49100357,28.82360035","USNG":"17R LM 54521 89355","OWNERSHIP":"COUNTY","PARCELID":"18E19S16      24000","FACILITY_TYPE":"CALL CENTER"}},{"type":"Feature","id":31,"geometry":{"type":"Point","coordinates":[-81.702512063111371,30.164853834793135]},"properties":{"OBJECTID":31,"Name":"ORANGE PARK POLICE DEPTARTMENT","Address":"2025 SMITH ST","City":"ORANGE PARK","Zip":"32073","COUNTY":"CLAY","X":-81.702512060000004,"Y":30.164853839999999,"LONGLAT":"-81.70251206,30.16485384","USNG":"17R MP 32355 37261","OWNERSHIP":"MUNICIPAL","PARCELID":"41-04-26-018899-000-00","FACILITY_TYPE":"CALL CENTER"}},{"type":"Feature","id":32,"geometry":{"type":"Point","coordinates":[-81.694726193790586,26.10527434779052]},"properties":{"OBJECTID":32,"Name":"COLLIER CO SHERIFF'S DEPT 911 & DISPATCH","Address":"8075 LELY CULTURAL PKWY","City":"NAPLES","Zip":"34113","COUNTY":"COLLIER","X":-81.694726189999997,"Y":26.105274349999998,"LONGLAT":"-81.69472619,26.10527435","USNG":"17R MJ 30534 87527","OWNERSHIP":"COUNTY","PARCELID":"55425014105","FACILITY_TYPE":"CALL CENTER"}},{"type":"Feature","id":33,"geometry":{"type":"Point","coordinates":[-81.790148643607353,26.151810848819952]},"properties":{"OBJECTID":33,"Name":"NAPLES POLICE DISPATCH","Address":"355 RIVERSIDE CIR","City":"NAPLES","Zip":"34102","COUNTY":"COLLIER","X":-81.790148639999998,"Y":26.15181085,"LONGLAT":"-81.79014864,26.15181085","USNG":"17R MJ 21024 92736","OWNERSHIP":"MUNICIPAL","PARCELID":"20760920002","FACILITY_TYPE":"CALL CENTER"}},{"type":"Feature","id":34,"geometry":{"type":"Point","coordinates":[-82.700676895333686,30.183514909944577]},"properties":{"OBJECTID":34,"Name":"COLUMBIA COUNTY DEPT. OF EMERGENCY PREPAREDNESS","Address":"263 NW LAKE CITY AVE","City":"LAKE CITY","Zip":"32055","COUNTY":"COLUMBIA","X":-82.700676900000005,"Y":30.18351491,"LONGLAT":"-82.70067690,30.18351491","USNG":"17R LP 36264 40342","OWNERSHIP":"COUNTY","PARCELID":"34-3S-16-02464-005","FACILITY_TYPE":"CALL CENTER"}},{"type":"Feature","id":35,"geometry":{"type":"Point","coordinates":[-81.856330850592059,27.217100068050584]},"properties":{"OBJECTID":35,"Name":"DESOTO COUNTY SHERIFF'S DEPT. HEADQUARTERS","Address":"208 E CYPRESS ST","City":"ARCADIA","Zip":"34266","COUNTY":"DESOTO","X":-81.856330850000006,"Y":27.217100070000001,"LONGLAT":"-81.85633085,27.21710007","USNG":"17R ML 15200 10771","OWNERSHIP":"COUNTY","PARCELID":"25-37-24-0012-0210-0010","FACILITY_TYPE":"CALL CENTER"}},{"type":"Feature","id":36,"geometry":{"type":"Point","coordinates":[-81.396963109653171,30.323843145278605]},"properties":{"OBJECTID":36,"Name":"NEPTUNE BEACH POLICE DEPT HEADQUARTERS","Address":"200 LEMON ST","City":"NEPTUNE BEACH","Zip":"32266","COUNTY":"DUVAL","X":-81.396963110000002,"Y":30.323843149999998,"LONGLAT":"-81.39696311,30.32384315","USNG":"17R MP 61838 54737","OWNERSHIP":"MUNICIPAL","PARCELID":"1727930000R","FACILITY_TYPE":"CALL CENTER"}},{"type":"Feature","id":37,"geometry":{"type":"Point","coordinates":[-81.40277829785974,30.332709247614332]},"properties":{"OBJECTID":37,"Name":"ATLANTIC BEACH POLICE DEPT HEADQUARTERS","Address":"850 SEMINOLE RD","City":"ATLANTIC BEACH","Zip":"32233","COUNTY":"DUVAL","X":-81.402778299999994,"Y":30.332709250000001,"LONGLAT":"-81.40277830,30.33270925","USNG":"17R MP 61283 55721","OWNERSHIP":"COUNTY","PARCELID":"1703890000R","FACILITY_TYPE":"CALL CENTER"}},{"type":"Feature","id":38,"geometry":{"type":"Point","coordinates":[-81.651746323192796,30.325367574265989]},"properties":{"OBJECTID":38,"Name":"JACKSONVILLE SHERIFF'S DEPT. HEADQUARTERS","Address":"501 E BAY ST","City":"JACKSONVILLE","Zip":"32202","COUNTY":"DUVAL","X":-81.651746320000001,"Y":30.325367580000002,"LONGLAT":"-81.65174632,30.32536758","USNG":"17R MP 37345 55019","OWNERSHIP":"COUNTY","PARCELID":"0734020000R","FACILITY_TYPE":"CALL CENTER"}},{"type":"Feature","id":39,"geometry":{"type":"Point","coordinates":[-87.26143840002409,30.483835323476722]},"properties":{"OBJECTID":39,"Name":"ESCAMBIA COUNTY DISPATCH-COUNTY WARNING POINT","Address":"6575 N W ST","City":"PENSACOLA","Zip":"32505","COUNTY":"ESCAMBIA","X":-87.261438400000003,"Y":30.483835320000001,"LONGLAT":"-87.26143840,30.48383532","USNG":"16R DU 74908 72429","OWNERSHIP":"COUNTY","PARCELID":"391S301106000002","FACILITY_TYPE":"CALL CENTER"}},{"type":"Feature","id":40,"geometry":{"type":"Point","coordinates":[-87.226731868145976,30.410458736931297]},"properties":{"OBJECTID":40,"Name":"U.S. CUSTOMS AND BORDER PROTECTION PORT OF ENTRY - PORT OF PENSACOLA","Address":"1 S A ST","City":"PENSACOLA","Zip":"32501","COUNTY":"ESCAMBIA","X":-87.226731869999995,"Y":30.410458739999999,"LONGLAT":"-87.22673187,30.41045874","USNG":"16R DU 78222 64290","OWNERSHIP":"FEDERAL","PARCELID":"000S009080011059","FACILITY_TYPE":"CALL CENTER"}},{"type":"Feature","id":41,"geometry":{"type":"Point","coordinates":[-87.213540025298272,30.421340014789486]},"properties":{"OBJECTID":41,"Name":"CITY OF PENSACOLA ADMIN OFFICE","Address":"711 N HAYNE ST","City":"PENSACOLA","Zip":"32501","COUNTY":"ESCAMBIA","X":-87.213540030000004,"Y":30.421340019999999,"LONGLAT":"-87.21354003,30.42134002","USNG":"16R DU 79492 65494","OWNERSHIP":"MUNICIPAL","PARCELID":"000S009020012140","FACILITY_TYPE":"CALL CENTER"}},{"type":"Feature","id":42,"geometry":{"type":"Point","coordinates":[-81.261480284390927,29.458544340039531]},"properties":{"OBJECTID":42,"Name":"FLAGLER COUNTY SHERIFF'S DEPT. HEADQUARTERS","Address":"1001 JUSTICE LN","City":"BUNNELL","Zip":"32110","COUNTY":"FLAGLER","X":-81.261480280000001,"Y":29.45854434,"LONGLAT":"-81.26148028,29.45854434","USNG":"17R MN 74645 58818","OWNERSHIP":"COUNTY","PARCELID":"15-12-30-0650-000D0-0070","FACILITY_TYPE":"CALL CENTER"}},{"type":"Feature","id":43,"geometry":{"type":"Point","coordinates":[-81.256512542005424,29.466277759002619]},"properties":{"OBJECTID":43,"Name":"FLAGLER COUNTY DEPARTMENT OF EMERGENCY MANAGEMENT","Address":"201 MOODY BLVD E","City":"BUNNELL","Zip":"32110","COUNTY":"FLAGLER","X":-81.256512540000003,"Y":29.466277760000001,"LONGLAT":"-81.25651254,29.46627776","USNG":"17R MN 75128 59674","OWNERSHIP":"COUNTY","PARCELID":"10-12-30-0850-01330-0000","FACILITY_TYPE":"CALL CENTER"}},{"type":"Feature","id":44,"geometry":{"type":"Point","coordinates":[-84.830914287132146,29.776128629750957]},"properties":{"OBJECTID":44,"Name":"FRANKLIN COUNTY SHERIFF'S DEPT. HEADQUARTERS","Address":"270 STATE ROAD 65","City":"EASTPOINT","Zip":"32328","COUNTY":"FRANKLIN","X":-84.830914289999996,"Y":29.776128629999999,"LONGLAT":"-84.83091429,29.77612863","USNG":"16R GT 09696 95950","OWNERSHIP":"COUNTY","PARCELID":"15-08S-06W-0000-0010-0010","FACILITY_TYPE":"CALL CENTER"}},{"type":"Feature","id":45,"geometry":{"type":"Point","coordinates":[-84.656347559562263,30.589756741343297]},"properties":{"OBJECTID":45,"Name":"GADSDEN CORRECTIONAL INSTITUTION","Address":"6044 GREENSBORO HWY","City":"QUINCY","Zip":"32351","COUNTY":"GADSDEN","X":-84.65634756,"Y":30.589756739999999,"LONGLAT":"-84.65634756,30.58975674","USNG":"16R GU 24721 86477","OWNERSHIP":"COUNTY","PARCELID":"3-08-2N-4W-0000-00120-0000","FACILITY_TYPE":"CALL CENTER"}},{"type":"Feature","id":46,"geometry":{"type":"Point","coordinates":[-84.846622716167531,30.703885742650577]},"properties":{"OBJECTID":46,"Name":"CHATTAHOOCHEE POLICE DEPT. HEADQUARTERS","Address":"32 JEFFERSON ST","City":"CHATTAHOOCHEE","Zip":"32324","COUNTY":"GADSDEN","X":-84.846622719999999,"Y":30.70388574,"LONGLAT":"-84.84662272,30.70388574","USNG":"16R GU 06230 98765","OWNERSHIP":"MUNICIPAL","PARCELID":"1-33-4N-6W-0050-00000-0171","FACILITY_TYPE":"CALL CENTER"}},{"type":"Feature","id":47,"geometry":{"type":"Point","coordinates":[-82.817488565477035,29.612424903017903]},"properties":{"OBJECTID":47,"Name":"GILCHRIST COUNTY EMERGENCY MANAGEMENT (WEEKS BLDG)","Address":"209 SE 1ST ST","City":"TRENTON","Zip":"32693","COUNTY":"GILCHRIST","X":-82.817488569999995,"Y":29.612424900000001,"LONGLAT":"-82.81748857,29.61242490","USNG":"17R LN 24015 77219","OWNERSHIP":"COUNTY","PARCELID":null,"FACILITY_TYPE":"CALL CENTER"}},{"type":"Feature","id":48,"geometry":{"type":"Point","coordinates":[-81.801801286703565,27.543316156126942]},"properties":{"OBJECTID":48,"Name":"HARDEE COUNTY SHERIFF'S DEPT. HEADQUARTERS","Address":"900 E SUMMIT ST","City":"WAUCHULA","Zip":"33873","COUNTY":"HARDEE","X":-81.80180129,"Y":27.54331616,"LONGLAT":"-81.80180129,27.54331616","USNG":"17R ML 20833 46870","OWNERSHIP":"COUNTY","PARCELID":"10-34-25-0000-01530-0000","FACILITY_TYPE":"CALL CENTER"}},{"type":"Feature","id":49,"geometry":{"type":"Point","coordinates":[-81.436670501721181,26.760351809715907]},"properties":{"OBJECTID":49,"Name":"HENDRY COUNTY ","Address":"101 S BRIDGE ST","City":"LABELLE","Zip":"33935","COUNTY":"HENDRY","X":-81.436670500000005,"Y":26.76035181,"LONGLAT":"-81.43667050,26.76035181","USNG":"17R MK 56583 59966","OWNERSHIP":"COUNTY","PARCELID":"2 29 43 01 010 0046-003.0","FACILITY_TYPE":"CALL CENTER"}},{"type":"Feature","id":50,"geometry":{"type":"Point","coordinates":[-81.436670501721181,26.760351809715907]},"properties":{"OBJECTID":50,"Name":"HENDRY COUNTY ","Address":"101 S BRIDGE ST","City":"LABELLE","Zip":"33935","COUNTY":"HENDRY","X":-81.436670500000005,"Y":26.76035181,"LONGLAT":"-81.43667050,26.76035181","USNG":"17R MK 56583 59966","OWNERSHIP":"COUNTY","PARCELID":"2 29 43 01 010 0046-003.0","FACILITY_TYPE":"CALL CENTER"}},{"type":"Feature","id":51,"geometry":{"type":"Point","coordinates":[-81.436670501721181,26.760351809715907]},"properties":{"OBJECTID":51,"Name":"HENDRY COUNTY ","Address":"101 S BRIDGE ST","City":"LABELLE","Zip":"33935","COUNTY":"HENDRY","X":-81.436670500000005,"Y":26.76035181,"LONGLAT":"-81.43667050,26.76035181","USNG":"17R MK 56583 59966","OWNERSHIP":"COUNTY","PARCELID":"2 29 43 01 010 0046-003.0","FACILITY_TYPE":"CALL CENTER"}},{"type":"Feature","id":52,"geometry":{"type":"Point","coordinates":[-80.945524120794175,26.755879470130452]},"properties":{"OBJECTID":52,"Name":"HENDRY COUNTY SHERIFF'S DEPT. SUBSTATION","Address":"943 W SUGARLAND HWY","City":"CLEWISTON","Zip":"33440","COUNTY":"HENDRY","X":-80.945524120000002,"Y":26.75587947,"LONGLAT":"-80.94552412,26.75587947","USNG":"17R NK 05416 59398","OWNERSHIP":"COUNTY","PARCELID":"3 34 43 01 010 0397-002.0","FACILITY_TYPE":"CALL CENTER"}},{"type":"Feature","id":53,"geometry":{"type":"Point","coordinates":[-81.382804869344227,26.750368519063695]},"properties":{"OBJECTID":53,"Name":"HENDRY CO EMERGENCY SERVICE","Address":"1050 E COWBOY WAY","City":"LABELLE","Zip":"33935","COUNTY":"HENDRY","X":-81.382804870000001,"Y":26.750368519999999,"LONGLAT":"-81.38280487,26.75036852","USNG":"17R MK 61936 58843","OWNERSHIP":"COUNTY","PARCELID":"4 29 43 10 060 000D-001.1","FACILITY_TYPE":"CALL CENTER"}},{"type":"Feature","id":54,"geometry":{"type":"Point","coordinates":[-80.93533934571073,26.752692631667532]},"properties":{"OBJECTID":54,"Name":"CLEWISTON POLICE DEPT HEADQUARTERS","Address":"205 W VENTURA AVE","City":"CLEWISTON","Zip":"33440","COUNTY":"HENDRY","X":-80.935339350000007,"Y":26.752692629999999,"LONGLAT":"-80.93533935,26.75269263","USNG":"17R NK 06429 59045","OWNERSHIP":"MUNICIPAL","PARCELID":"3 34 43 01 010 0354-001.0","FACILITY_TYPE":"CALL CENTER"}},{"type":"Feature","id":55,"geometry":{"type":"Point","coordinates":[-80.90573943492312,26.301706364563074]},"properties":{"OBJECTID":55,"Name":"BIG CYPRESS INDIAN RESERVATION FD","Address":"35154 FIREHOUSE PL","City":"CLEWISTON","Zip":"33440","COUNTY":"HENDRY","X":-80.905739429999997,"Y":26.301706370000002,"LONGLAT":"-80.90573943,26.30170637","USNG":"17R NK 09409 09100","OWNERSHIP":"OTHER PUBLIC","PARCELID":"1 34 48 23 A00 0001.0000","FACILITY_TYPE":"CALL CENTER"}},{"type":"Feature","id":56,"geometry":{"type":"Point","coordinates":[-80.997567312402992,26.325894028054197]},"properties":{"OBJECTID":56,"Name":"SEMINOLE TRIBE POLICE DEPARTMENT - BIG CYPRESS","Address":"30300 JOSIE BILLIE HWY","City":"CLEWISTON","Zip":"33440","COUNTY":"HENDRY","X":-80.997567309999994,"Y":26.325894030000001,"LONGLAT":"-80.99756731,26.32589403","USNG":"17R NK 00242 11775","OWNERSHIP":"OTHER PUBLIC","PARCELID":null,"FACILITY_TYPE":"CALL CENTER"}},{"type":"Feature","id":57,"geometry":{"type":"Point","coordinates":[-82.421940620252656,28.547297136247295]},"properties":{"OBJECTID":57,"Name":"HERNANDO SHERIFF'S OFFICE HQ","Address":"18900 CORTEZ BLVD","City":"BROOKSVILLE","Zip":"34601","COUNTY":"HERNANDO","X":-82.421940620000001,"Y":28.547297140000001,"LONGLAT":"-82.42194062,28.54729714","USNG":"17R LM 60896 58656","OWNERSHIP":"COUNTY","PARCELID":"R29 422 19 0000 0380 0030","FACILITY_TYPE":"CALL CENTER"}},{"type":"Feature","id":58,"geometry":{"type":"Point","coordinates":[-81.436056514865967,27.493512345595917]},"properties":{"OBJECTID":58,"Name":"HIGHLANDS COUNTY SHERIFF'S DEPT. HEADQUARTERS","Address":"434 FERNLEAF AVE","City":"SEBRING","Zip":"33870","COUNTY":"HIGHLANDS","X":-81.43605651,"Y":27.49351235,"LONGLAT":"-81.43605651,27.49351235","USNG":"17R ML 56926 41173","OWNERSHIP":"COUNTY","PARCELID":"S29342907007100010","FACILITY_TYPE":"CALL CENTER"}},{"type":"Feature","id":59,"geometry":{"type":"Point","coordinates":[-81.420903128644738,27.442191254487017]},"properties":{"OBJECTID":59,"Name":"HIGHLANDS COUNTY EMS","Address":"4500 GEORGE BLVD","City":"SEBRING","Zip":"33875","COUNTY":"HIGHLANDS","X":-81.420903129999999,"Y":27.442191260000001,"LONGLAT":"-81.42090313,27.44219126","USNG":"17R ML 58404 35483","OWNERSHIP":"COUNTY","PARCELID":"C093529A0001610000","FACILITY_TYPE":"CALL CENTER"}},{"type":"Feature","id":60,"geometry":{"type":"Point","coordinates":[-81.440589985544491,27.498270008950957]},"properties":{"OBJECTID":60,"Name":"SEBRING POLICE DEPT HEADQUARTERS","Address":"307 N RIDGEWOOD DR","City":"SEBRING","Zip":"33870","COUNTY":"HIGHLANDS","X":-81.440589990000007,"Y":27.498270009999999,"LONGLAT":"-81.44058999,27.49827001","USNG":"17R ML 56480 41702","OWNERSHIP":"MUNICIPAL","PARCELID":"S29342907004300020","FACILITY_TYPE":"CALL CENTER"}},{"type":"Feature","id":61,"geometry":{"type":"Point","coordinates":[-81.50515361972505,27.596365505370105]},"properties":{"OBJECTID":61,"Name":"AVON PARK POLICE DEPT HEADQUARTERS","Address":"304 W PLEASANT ST","City":"AVON PARK","Zip":"33825","COUNTY":"HIGHLANDS","X":-81.505153620000002,"Y":27.596365509999998,"LONGLAT":"-81.50515362,27.59636551","USNG":"17R ML 50147 52592","OWNERSHIP":"MUNICIPAL","PARCELID":"A22332801005500010","FACILITY_TYPE":"CALL CENTER"}},{"type":"Feature","id":62,"geometry":{"type":"Point","coordinates":[-82.394159008778743,28.050511599318401]},"properties":{"OBJECTID":62,"Name":"TEMPLE TERRACE POLICE DEPT HEADQUARTERS","Address":"11250 N 56TH ST","City":"TAMPA","Zip":"33617","COUNTY":"HILLSBOROUGH","X":-82.394159009999996,"Y":28.0505116,"LONGLAT":"-82.39415901,28.05051160","USNG":"17R LM 62979 03581","OWNERSHIP":"MUNICIPAL","PARCELID":"19281554V000024A00000T","FACILITY_TYPE":"CALL CENTER"}},{"type":"Feature","id":63,"geometry":{"type":"Point","coordinates":[-82.12287088767664,28.010078810111821]},"properties":{"OBJECTID":63,"Name":"PLANT CITY POLICE DEPT HEADQUARTERS","Address":"611 S COLLINS ST","City":"PLANT CITY","Zip":"33563","COUNTY":"HILLSBOROUGH","X":-82.122870890000002,"Y":28.01007881,"LONGLAT":"-82.12287089,28.01007881","USNG":"17R LL 89602 98826","OWNERSHIP":"MUNICIPAL","PARCELID":"2228325DS000001000040P","FACILITY_TYPE":"CALL CENTER"}},{"type":"Feature","id":64,"geometry":{"type":"Point","coordinates":[-82.458418121720399,27.938121263425007]},"properties":{"OBJECTID":64,"Name":"TAMPA GENERAL HOSPITAL","Address":"1 TAMPA GENERAL CIR","City":"TAMPA","Zip":"33606","COUNTY":"HILLSBOROUGH","X":-82.458418120000005,"Y":27.938121259999999,"LONGLAT":"-82.45841812,27.93812126","USNG":"17R LL 56514 91203","OWNERSHIP":"MUNICIPAL","PARCELID":null,"FACILITY_TYPE":"CALL CENTER"}},{"type":"Feature","id":65,"geometry":{"type":"Point","coordinates":[-82.528314259365956,27.852890015123933]},"properties":{"OBJECTID":65,"Name":"MAC DILL AFB","Address":"N BOUNDARY BLVD, MCDILL AFB","City":"TAMPA","Zip":"33621","COUNTY":"HILLSBOROUGH","X":-82.528314260000002,"Y":27.85289002,"LONGLAT":"-82.52831426,27.85289002","USNG":"17R LL 49518 81844","OWNERSHIP":"FEDERAL","PARCELID":"183020ZZZ000005565000A","FACILITY_TYPE":"CALL CENTER"}},{"type":"Feature","id":66,"geometry":{"type":"Point","coordinates":[-82.435937407091018,27.961743310571865]},"properties":{"OBJECTID":66,"Name":"HILLSBOROUGH COUNTY SHERIFF'S DEPT. HEADQUARTERS","Address":"2008 E 8TH AVE","City":"TAMPA","Zip":"33605","COUNTY":"HILLSBOROUGH","X":-82.435937409999994,"Y":27.961743309999999,"LONGLAT":"-82.43593741,27.96174331","USNG":"17R LL 58756 93794","OWNERSHIP":"COUNTY","PARCELID":"19291850R000086000000A","FACILITY_TYPE":"CALL CENTER"}},{"type":"Feature","id":67,"geometry":{"type":"Point","coordinates":[-82.534307438164959,27.974324217002938]},"properties":{"OBJECTID":67,"Name":"TAMPA INTERNATIONAL AIRPORT","Address":"5020 W TAMPA BAY BLVD","City":"TAMPA","Zip":"33607","COUNTY":"HILLSBOROUGH","X":-82.534307440000006,"Y":27.97432422,"LONGLAT":"-82.53430744,27.97432422","USNG":"17R LL 49097 95306","OWNERSHIP":"MUNICIPAL","PARCELID":"182907ZZZ000005454400A","FACILITY_TYPE":"CALL CENTER"}},{"type":"Feature","id":68,"geometry":{"type":"Point","coordinates":[-82.457686749667673,27.94836007561122]},"properties":{"OBJECTID":68,"Name":"TAMPA POLICE DEPT HEADQUARTERS / DISTRICT 3","Address":"411 N FRANKLIN ST","City":"TAMPA","Zip":"33602","COUNTY":"HILLSBOROUGH","X":-82.457686749999993,"Y":27.94836008,"LONGLAT":"-82.45768675,27.94836008","USNG":"17R LL 56599 92337","OWNERSHIP":"MUNICIPAL","PARCELID":"1829244ZI000064000000A","FACILITY_TYPE":"CALL CENTER"}},{"type":"Feature","id":69,"geometry":{"type":"Point","coordinates":[-80.394558500934579,27.638438459577102]},"properties":{"OBJECTID":69,"Name":"VERO BEACH POLICE DEPARTMENT","Address":"1055 20TH PL","City":"VERO BEACH","Zip":"32960","COUNTY":"INDIAN RIVER","X":-80.394558500000002,"Y":27.63843846,"LONGLAT":"-80.39455850,27.63843846","USNG":"17R NL 59726 57297","OWNERSHIP":"MUNICIPAL","PARCELID":"33390100023002000009.0","FACILITY_TYPE":"CALL CENTER"}},{"type":"Feature","id":70,"geometry":{"type":"Point","coordinates":[-85.227265353142897,30.774990061541754]},"properties":{"OBJECTID":70,"Name":"MARIANNA CITY POLICE DEPT HEADQUARTERS","Address":"2890 GREEN ST","City":"MARIANNA","Zip":"32446","COUNTY":"JACKSON","X":-85.227265349999996,"Y":30.77499006,"LONGLAT":"-85.22726535,30.77499006","USNG":"16R FV 69645 06008","OWNERSHIP":"MUNICIPAL","PARCELID":"03-4N-10-0346-0000-0210","FACILITY_TYPE":"CALL CENTER"}},{"type":"Feature","id":71,"geometry":{"type":"Point","coordinates":[-85.261615092050491,30.784903103305272]},"properties":{"OBJECTID":71,"Name":"JACKSON COUNTY SHERIFF'S DEPT. HEADQUARTERS","Address":"4012 LAFAYETTE ST","City":"MARIANNA","Zip":"32446","COUNTY":"JACKSON","X":-85.261615090000006,"Y":30.784903100000001,"LONGLAT":"-85.26161509,30.78490310","USNG":"16R FV 66340 07055","OWNERSHIP":"COUNTY","PARCELID":"32-5N-10-0000-0220-0000","FACILITY_TYPE":"CALL CENTER"}},{"type":"Feature","id":72,"geometry":{"type":"Point","coordinates":[-81.673392580813001,28.80958319658728]},"properties":{"OBJECTID":72,"Name":"LAKE CO EMS ST 151","Address":"2753 W OLD HWY 441","City":"MOUNT DORA","Zip":"32757","COUNTY":"LAKE","X":-81.673392579999998,"Y":28.809583199999999,"LONGLAT":"-81.67339258,28.80958320","USNG":"17R MM 34290 87075","OWNERSHIP":"COUNTY","PARCELID":"251926052500000100","FACILITY_TYPE":"CALL CENTER"}},{"type":"Feature","id":73,"geometry":{"type":"Point","coordinates":[-81.730708699599063,28.801513972338395]},"properties":{"OBJECTID":73,"Name":"LAKE COUNTY SHERIFF'S OFFICE","Address":"360 W RUBY ST","City":"TAVARES","Zip":"32778","COUNTY":"LAKE","X":-81.730708699999994,"Y":28.801513969999998,"LONGLAT":"-81.73070870,28.80151397","USNG":"17R MM 28692 86214","OWNERSHIP":"COUNTY","PARCELID":"291926010000500000","FACILITY_TYPE":"CALL CENTER"}},{"type":"Feature","id":74,"geometry":{"type":"Point","coordinates":[-81.726600175130642,28.802407390308197]},"properties":{"OBJECTID":74,"Name":"TAVARES POLICE DEPARTMENT","Address":"201 E MAIN ST","City":"TAVARES","Zip":"32778","COUNTY":"LAKE","X":-81.726600180000005,"Y":28.802407389999999,"LONGLAT":"-81.72660018,28.80240739","USNG":"17R MM 29093 86310","OWNERSHIP":"MUNICIPAL","PARCELID":"291926010001100A00","FACILITY_TYPE":"CALL CENTER"}},{"type":"Feature","id":75,"geometry":{"type":"Point","coordinates":[-81.874747190548462,28.8096763941784]},"properties":{"OBJECTID":75,"Name":"LEESBURG POLICE DEPARTMENT","Address":"115 E MAGNOLIA ST","City":"LEESBURG","Zip":"34748","COUNTY":"LAKE","X":-81.874747189999994,"Y":28.80967639,"LONGLAT":"-81.87474719,28.80967639","USNG":"17R MM 14642 87213","OWNERSHIP":"MUNICIPAL","PARCELID":"261924390004700301","FACILITY_TYPE":"CALL CENTER"}},{"type":"Feature","id":76,"geometry":{"type":"Point","coordinates":[-81.8590953914902,28.561230087844677]},"properties":{"OBJECTID":76,"Name":"GROVELAND POLICE DEPARTMENT","Address":"408 W ORANGE ST","City":"GROVELAND","Zip":"34736","COUNTY":"LAKE","X":-81.859095389999993,"Y":28.561230089999999,"LONGLAT":"-81.85909539,28.56123009","USNG":"17R MM 15971 59676","OWNERSHIP":"MUNICIPAL","PARCELID":"242224110007700100","FACILITY_TYPE":"CALL CENTER"}},{"type":"Feature","id":77,"geometry":{"type":"Point","coordinates":[-81.929665715257968,28.931858611905692]},"properties":{"OBJECTID":77,"Name":"LADY LAKE POLICE DEPARTMENT","Address":"423 FENNELL BLVD","City":"LADY LAKE","Zip":"32159","COUNTY":"LAKE","X":-81.929665720000003,"Y":28.931858609999999,"LONGLAT":"-81.92966572,28.93185861","USNG":"17R MN 09389 00791","OWNERSHIP":"MUNICIPAL","PARCELID":"081824015002600003","FACILITY_TYPE":"CALL CENTER"}},{"type":"Feature","id":78,"geometry":{"type":"Point","coordinates":[-81.769683159220222,28.554912514952719]},"properties":{"OBJECTID":78,"Name":"CLERMONT POLICE DEPARTMENT","Address":"865 W MONTROSE ST","City":"CLERMONT","Zip":"34711","COUNTY":"LAKE","X":-81.76968316,"Y":28.554912519999998,"LONGLAT":"-81.76968316,28.55491252","USNG":"17R MM 24712 58917","OWNERSHIP":"MUNICIPAL","PARCELID":"242225010009100900","FACILITY_TYPE":"CALL CENTER"}},{"type":"Feature","id":79,"geometry":{"type":"Point","coordinates":[-81.684793409898674,28.846225931190329]},"properties":{"OBJECTID":79,"Name":"EUSTIS POLICE DEPARTMENT","Address":"710 S BAY ST","City":"EUSTIS","Zip":"32726","COUNTY":"LAKE","X":-81.684793409999997,"Y":28.846225929999999,"LONGLAT":"-81.68479341,28.84622593","USNG":"17R MM 33201 91141","OWNERSHIP":"MUNICIPAL","PARCELID":"111926010012000100","FACILITY_TYPE":"CALL CENTER"}},{"type":"Feature","id":80,"geometry":{"type":"Point","coordinates":[-82.074116438782553,26.440382314853316]},"properties":{"OBJECTID":80,"Name":"SANIBEL POLICE DEPT HEADQUARTERS","Address":"800-958 DUNLOP RD","City":"SANIBEL","Zip":"33957","COUNTY":"LEE","X":-82.074116439999997,"Y":26.440382320000001,"LONGLAT":"-82.07411644,26.44038232","USNG":"17R LK 92905 24901","OWNERSHIP":"MUNICIPAL","PARCELID":"264622T2000070000","FACILITY_TYPE":"CALL CENTER"}},{"type":"Feature","id":81,"geometry":{"type":"Point","coordinates":[-81.95718372784269,26.630401177477133]},"properties":{"OBJECTID":81,"Name":"CAPE CORAL POLICE DEPT HEADQUARTERS","Address":"815 NICHOLAS PKWY E","City":"CAPE CORAL","Zip":"33990","COUNTY":"LEE","X":-81.957183729999997,"Y":26.63040118,"LONGLAT":"-81.95718373,26.63040118","USNG":"17R MK 04721 45856","OWNERSHIP":"MUNICIPAL","PARCELID":"244423C200833B010","FACILITY_TYPE":"CALL CENTER"}},{"type":"Feature","id":82,"geometry":{"type":"Point","coordinates":[-81.868189713569919,26.639495161615621]},"properties":{"OBJECTID":82,"Name":"FORT MYERS POLICE DEPT HEADQUARTERS","Address":"2210 WIDMAN WAY","City":"FORT MYERS","Zip":"33901","COUNTY":"LEE","X":-81.868189709999996,"Y":26.639495159999999,"LONGLAT":"-81.86818971,26.63949516","USNG":"17R MK 13587 46800","OWNERSHIP":"MUNICIPAL","PARCELID":"244424P1000010070","FACILITY_TYPE":"CALL CENTER"}},{"type":"Feature","id":83,"geometry":{"type":"Point","coordinates":[-81.810415572033165,26.629857637222059]},"properties":{"OBJECTID":83,"Name":"LEE COUNTY DISPATCH","Address":"2665 ORTIZ AVE","City":"FORT MYERS","Zip":"33905","COUNTY":"LEE","X":-81.810415570000004,"Y":26.629857640000001,"LONGLAT":"-81.81041557,26.62985764","USNG":"17R MK 19331 45695","OWNERSHIP":null,"PARCELID":null,"FACILITY_TYPE":"CALL CENTER"}},{"type":"Feature","id":84,"geometry":{"type":"Point","coordinates":[-84.222959203953721,30.45155997568714]},"properties":{"OBJECTID":84,"Name":"CONSOLIDATED DISPATCH AGENCY","Address":"911 EASTERWOOD DR","City":"TALLAHASSEE","Zip":"32311","COUNTY":"LEON","X":-84.222959200000005,"Y":30.451559979999999,"LONGLAT":"-84.22295920,30.45155998","USNG":"16R GU 66669 72100","OWNERSHIP":"COUNTY","PARCELID":"2133208510000","FACILITY_TYPE":"CALL CENTER"}},{"type":"Feature","id":85,"geometry":{"type":"Point","coordinates":[-84.29765139072876,30.440228081661033]},"properties":{"OBJECTID":85,"Name":"FSU POLICE","Address":"833 W JEFFERSON ST","City":"TALLAHASSEE","Zip":"32304","COUNTY":"LEON","X":-84.297651389999999,"Y":30.440228080000001,"LONGLAT":"-84.29765139,30.44022808","USNG":"16R GU 59524 70670","OWNERSHIP":"STATE","PARCELID":"2135209010007","FACILITY_TYPE":"CALL CENTER"}},{"type":"Feature","id":86,"geometry":{"type":"Point","coordinates":[-84.28196002632788,30.438439800293104]},"properties":{"OBJECTID":86,"Name":"FLORIDA CAPITOL POLICE HEADQUARTERS","Address":"400 S MONROE ST","City":"TALLAHASSEE","Zip":"32301","COUNTY":"LEON","X":-84.281960029999993,"Y":30.438439800000001,"LONGLAT":"-84.28196003,30.43843980","USNG":"16R GU 61036 70507","OWNERSHIP":"STATE OF FLORIDA TIITF","PARCELID":"2136251531450","FACILITY_TYPE":"CALL CENTER"}},{"type":"Feature","id":87,"geometry":{"type":"Point","coordinates":[-84.979931392357429,30.432413405206141]},"properties":{"OBJECTID":87,"Name":"LIBERTY COUNTY SHERIFF'S DEPT HEADQUARTERS","Address":"12499 NW POGO ST","City":"BRISTOL","Zip":"32321","COUNTY":"LIBERTY","X":-84.979931390000004,"Y":30.432413409999999,"LONGLAT":"-84.97993139,30.43241341","USNG":"16R FU 94000 68434","OWNERSHIP":"COUNTY","PARCELID":"031-1N-7W-01380 000","FACILITY_TYPE":"CALL CENTER"}},{"type":"Feature","id":88,"geometry":{"type":"Point","coordinates":[-83.433384728004782,30.476084455179432]},"properties":{"OBJECTID":88,"Name":"MADISON COUNTY SHERIFF'S OFFICE COMMUNICATION CENTER","Address":"1314 W BASE ST","City":"MADISON","Zip":"32340","COUNTY":"MADISON","X":-83.43338473,"Y":30.476084459999999,"LONGLAT":"-83.43338473,30.47608446","USNG":"17R KP 66399 74058","OWNERSHIP":"COUNTY","PARCELID":null,"FACILITY_TYPE":"CALL CENTER"}},{"type":"Feature","id":89,"geometry":{"type":"Point","coordinates":[-82.572683434553298,27.498551696649145]},"properties":{"OBJECTID":89,"Name":"BRADENTON POLICE DEPARTMENT","Address":"100 10TH ST W","City":"BRADENTON","Zip":"34205","COUNTY":"MANATEE","X":-82.572683429999998,"Y":27.4985517,"LONGLAT":"-82.57268343,27.49855170","USNG":"17R LL 44648 42640","OWNERSHIP":"MUNICIPAL","PARCELID":"3294300003","FACILITY_TYPE":"CALL CENTER"}},{"type":"Feature","id":90,"geometry":{"type":"Point","coordinates":[-82.174993002670789,29.192113929853011]},"properties":{"OBJECTID":90,"Name":"MARION COUNTY SHERIFF HEADQUARTERS","Address":"692 NW 30TH AVE","City":"OCALA","Zip":"34475","COUNTY":"MARION","X":-82.174993000000001,"Y":29.192113930000001,"LONGLAT":"-82.17499300,29.19211393","USNG":"17R LN 85763 29841","OWNERSHIP":"COUNTY","PARCELID":"21915-000-00","FACILITY_TYPE":"CALL CENTER"}},{"type":"Feature","id":91,"geometry":{"type":"Point","coordinates":[-82.217839426716651,29.183973145498445]},"properties":{"OBJECTID":91,"Name":"EMS ALLIANCE","Address":"325 SW 60TH AVE","City":"OCALA","Zip":"34474","COUNTY":"MARION","X":-82.217839429999998,"Y":29.18397315,"LONGLAT":"-82.21783943,29.18397315","USNG":"17R LN 81588 28982","OWNERSHIP":"PRIVATE","PARCELID":"2318-007-101","FACILITY_TYPE":"CALL CENTER"}},{"type":"Feature","id":92,"geometry":{"type":"Point","coordinates":[-82.133111770084952,29.189439656819172]},"properties":{"OBJECTID":92,"Name":"OCALA FIRE/RESCUE SERVICE","Address":"410 NE 3RD ST","City":"OCALA","Zip":"34470","COUNTY":"MARION","X":-82.133111769999999,"Y":29.189439660000001,"LONGLAT":"-82.13311177,29.18943966","USNG":"17R LN 89833 29505","OWNERSHIP":"MUNICIPAL","PARCELID":"2820-050-001","FACILITY_TYPE":"CALL CENTER"}},{"type":"Feature","id":93,"geometry":{"type":"Point","coordinates":[-82.141765673011037,29.183345826629342]},"properties":{"OBJECTID":93,"Name":"OCALA POLICE DEPT HEADQUARTERS","Address":"402 S PINE AVE","City":"OCALA","Zip":"34474","COUNTY":"MARION","X":-82.141765669999998,"Y":29.18334583,"LONGLAT":"-82.14176567,29.18334583","USNG":"17R LN 88985 28838","OWNERSHIP":"MUNICIPAL","PARCELID":"28510-002-00","FACILITY_TYPE":"CALL CENTER"}},{"type":"Feature","id":94,"geometry":{"type":"Point","coordinates":[-80.24159064721708,27.171989404197259]},"properties":{"OBJECTID":94,"Name":"MARTIN COUNTY SHERIFF'S DEPT HQ","Address":"800 SE MONTEREY RD","City":"STUART","Zip":"34994","COUNTY":"MARTIN","X":-80.241590650000006,"Y":27.171989400000001,"LONGLAT":"-80.24159065,27.17198940","USNG":"17R NL 75132 05711","OWNERSHIP":"COUNTY","PARCELID":"163841000000000509","FACILITY_TYPE":"CALL CENTER"}},{"type":"Feature","id":95,"geometry":{"type":"Point","coordinates":[-80.225291778564184,27.1314990716916]},"properties":{"OBJECTID":95,"Name":"MARTIN COUNTY PUBLIC SAFETY","Address":"6000 SE TOWER DR","City":"STUART","Zip":"34997","COUNTY":"MARTIN","X":-80.225291780000006,"Y":27.13149907,"LONGLAT":"-80.22529178,27.13149907","USNG":"17R NL 76774 01236","OWNERSHIP":"COUNTY","PARCELID":"553841000065000804","FACILITY_TYPE":"CALL CENTER"}},{"type":"Feature","id":96,"geometry":{"type":"Point","coordinates":[-80.239506116208304,27.193001740270866]},"properties":{"OBJECTID":96,"Name":"STUART POLICE DEPARTMENT","Address":"830 SE MARTIN LUTHER KING JR BLVD","City":"STUART","Zip":"34994","COUNTY":"MARTIN","X":-80.239506120000001,"Y":27.19300174,"LONGLAT":"-80.23950612,27.19300174","USNG":"17R NL 75324 08040","OWNERSHIP":"MUNICIPAL","PARCELID":"043841000000002308","FACILITY_TYPE":"CALL CENTER"}},{"type":"Feature","id":97,"geometry":{"type":"Point","coordinates":[-80.111554430662579,27.052791740695682]},"properties":{"OBJECTID":97,"Name":"JUPITER ISLAND POLICE DEPARTMENT","Address":"103 BUNKER HILL RD","City":"HOBE SOUND","Zip":"33455","COUNTY":"MARTIN","X":-80.111554429999998,"Y":27.05279174,"LONGLAT":"-80.11155443,27.05279174","USNG":"17R NK 88108 92593","OWNERSHIP":"MUNICIPAL","PARCELID":"353842009096000105","FACILITY_TYPE":"CALL CENTER"}},{"type":"Feature","id":98,"geometry":{"type":"Point","coordinates":[-80.133173226167756,25.782309574760053]},"properties":{"OBJECTID":98,"Name":"MIAMI BEACH POLICE DEPT HEADQUARTERS","Address":"1100 WASHINGTON AVE","City":"MIAMI BEACH","Zip":"33139","COUNTY":"MIAMI-DADE","X":-80.133173229999997,"Y":25.78230958,"LONGLAT":"-80.13317323,25.78230958","USNG":"17R NJ 86911 51862","OWNERSHIP":"MUNICIPAL","PARCELID":"0242030090370","FACILITY_TYPE":"CALL CENTER"}},{"type":"Feature","id":99,"geometry":{"type":"Point","coordinates":[-80.266293968060637,25.87254740185185]},"properties":{"OBJECTID":99,"Name":"HIALEAH POLICE DEPT. HEADQUARTERS","Address":"5555 E 8TH AVE","City":"HIALEAH","Zip":"33013","COUNTY":"MIAMI-DADE","X":-80.266293970000007,"Y":25.872547399999998,"LONGLAT":"-80.26629397,25.87254740","USNG":"17R NJ 73507 61774","OWNERSHIP":"MUNICIPAL","PARCELID":"0421320010011","FACILITY_TYPE":"CALL CENTER"}},{"type":"Feature","id":100,"geometry":{"type":"Point","coordinates":[-80.260320349286715,25.746068127850169]},"properties":{"OBJECTID":100,"Name":"CORAL GABLES POLICE DEPT HEADQUARTERS","Address":"2801 SALZEDO ST","City":"MIAMI","Zip":"33134","COUNTY":"MIAMI-DADE","X":-80.260320350000001,"Y":25.746068130000001,"LONGLAT":"-80.26032035,25.74606813","USNG":"17R NJ 74185 47770","OWNERSHIP":"MUNICIPAL","PARCELID":"0341170055110","FACILITY_TYPE":"CALL CENTER"}},{"type":"Feature","id":101,"geometry":{"type":"Point","coordinates":[-80.324300000637777,25.664010005619591]},"properties":{"OBJECTID":101,"Name":"PINECREST POLICE DEPT HEADQUARTERS","Address":"11555 S DIXIE HWY","City":"MIAMI","Zip":"33156","COUNTY":"MIAMI-DADE","X":-80.324299999999994,"Y":25.664010009999998,"LONGLAT":"-80.32430000,25.66401001","USNG":"17R NJ 67814 38649","OWNERSHIP":"MUNICIPAL","PARCELID":"2050100250050","FACILITY_TYPE":"CALL CENTER"}},{"type":"Feature","id":102,"geometry":{"type":"Point","coordinates":[-80.198309035145343,25.778235223987998]},"properties":{"OBJECTID":102,"Name":"MIAMI POLICE DEPT HEADQUARTERS","Address":"400 NW 2ND AVE","City":"MIAMI","Zip":"33128","COUNTY":"MIAMI-DADE","X":-80.198309039999998,"Y":25.778235219999999,"LONGLAT":"-80.19830904,25.77823522","USNG":"17R NJ 80383 51369","OWNERSHIP":"MUNICIPAL","PARCELID":"0101070501090","FACILITY_TYPE":"CALL CENTER"}},{"type":"Feature","id":103,"geometry":{"type":"Point","coordinates":[-81.096239140677156,24.710420968048556]},"properties":{"OBJECTID":103,"Name":"MONROE COUNTY SHERIFF MARATHON SUB STATION","Address":"3101 OVERSEAS HWY","City":"MARATHON","Zip":"33050","COUNTY":"MONROE","X":-81.096239139999994,"Y":24.710420970000001,"LONGLAT":"-81.09623914,24.71042097","USNG":"17R MH 90265 32887","OWNERSHIP":"COUNTY","PARCELID":"0966 32 00102310000000","FACILITY_TYPE":"CALL CENTER"}},{"type":"Feature","id":104,"geometry":{"type":"Point","coordinates":[-80.551628786108026,24.980235011073763]},"properties":{"OBJECTID":104,"Name":"PLANTATION DETENTION CENTER","Address":"53 HIGH POINT RD","City":"TAVERNIER","Zip":"33070","COUNTY":"MONROE","X":-80.551628789999995,"Y":24.980235010000001,"LONGLAT":"-80.55162879,24.98023501","USNG":"17R NH 45252 62833","OWNERSHIP":"COUNTY","PARCELID":"0563 38 00418900000000","FACILITY_TYPE":"CALL CENTER"}},{"type":"Feature","id":105,"geometry":{"type":"Point","coordinates":[-81.752176905369424,24.577315229645581]},"properties":{"OBJECTID":105,"Name":"MONROE COUNTY SHERIFF HEADQUARTERS","Address":"5525 COLLEGE RD","City":"KEY WEST","Zip":"33040","COUNTY":"MONROE","X":-81.752176910000003,"Y":24.57731523,"LONGLAT":"-81.75217691,24.57731523","USNG":"17R MH 23838 18353","OWNERSHIP":"COUNTY","PARCELID":"2767 25 00072080000101","FACILITY_TYPE":"CALL CENTER"}},{"type":"Feature","id":106,"geometry":{"type":"Point","coordinates":[-81.63510615803095,30.622418583288777]},"properties":{"OBJECTID":106,"Name":"NASSAU COUNTY SHERIFF DEPT. HEADQUARTERS","Address":"76001 BOBBY MOORE CIR.","City":"YULEE","Zip":"32097","COUNTY":"NASSAU","X":-81.635106160000007,"Y":30.622418580000001,"LONGLAT":"-81.63510616,30.62241858","USNG":"17R MP 39130 87929","OWNERSHIP":"COUNTY","PARCELID":"44-2N-27-0000-0001-0110","FACILITY_TYPE":"CALL CENTER"}},{"type":"Feature","id":107,"geometry":{"type":"Point","coordinates":[-86.510214132856788,30.484333469311881]},"properties":{"OBJECTID":107,"Name":"EGLIN AFB FD ST","Address":"501 N BARRANCAS AVE- SUITE 1","City":"EGLIN AFB","Zip":"32542","COUNTY":"OKALOOSA","X":-86.510214129999994,"Y":30.484333469999999,"LONGLAT":"-86.51021413,30.48433347","USNG":"16R EU 47007 72557","OWNERSHIP":"FEDERAL","PARCELID":"24-1S-23-0000-0001-0000","FACILITY_TYPE":"CALL CENTER"}},{"type":"Feature","id":108,"geometry":{"type":"Point","coordinates":[-86.557822109846228,30.480970232871289]},"properties":{"OBJECTID":108,"Name":"EGLIN AFB FD ST","Address":"NOMAD WAY","City":"EGLIN AFB","Zip":"32542","COUNTY":"OKALOOSA","X":-86.557822110000004,"Y":30.48097023,"LONGLAT":"-86.55782211,30.48097023","USNG":"16R EU 42440 72165","OWNERSHIP":"FEDERAL","PARCELID":"14-1S-23-0000-0001-0000","FACILITY_TYPE":"CALL CENTER"}},{"type":"Feature","id":109,"geometry":{"type":"Point","coordinates":[-86.693419816219219,30.424506967909029]},"properties":{"OBJECTID":109,"Name":"HURLBURT FIELD AFB FD","Address":"BENNETT AVE, 16 CE/CEF","City":"HURLBURT FIELD","Zip":"32544","COUNTY":"OKALOOSA","X":-86.693419820000003,"Y":30.424506969999999,"LONGLAT":"-86.69341982,30.42450697","USNG":"16R EU 29442 65865","OWNERSHIP":"FEDERAL","PARCELID":"05-2S-24-0000-0001-0000","FACILITY_TYPE":"CALL CENTER"}},{"type":"Feature","id":110,"geometry":{"type":"Point","coordinates":[-86.500085928282033,30.509642623488137]},"properties":{"OBJECTID":110,"Name":"VALPARAISO POLICE DEPT HEADQUARTERS","Address":"465 VALPARAISO PKWY","City":"VALPARAISO","Zip":"32580","COUNTY":"OKALOOSA","X":-86.500085929999997,"Y":30.509642620000001,"LONGLAT":"-86.50008593,30.50964262","USNG":"16R EU 47967 75366","OWNERSHIP":"MUNICIPAL","PARCELID":"12-1S-23-253F-0014-0100","FACILITY_TYPE":"CALL CENTER"}},{"type":"Feature","id":111,"geometry":{"type":"Point","coordinates":[-86.610921159448452,30.413289470497094]},"properties":{"OBJECTID":111,"Name":"FORT WALTON BEACH POLICE DEPT HEADQUARTERS","Address":"7 HOLLYWOOD BLVD NE","City":"FORT WALTON BEACH","Zip":"32548","COUNTY":"OKALOOSA","X":-86.610921160000004,"Y":30.413289469999999,"LONGLAT":"-86.61092116,30.41328947","USNG":"16R EU 37369 64646","OWNERSHIP":"MUNICIPAL","PARCELID":"13-2S-24-0000-0016-0000","FACILITY_TYPE":"CALL CENTER"}},{"type":"Feature","id":112,"geometry":{"type":"Point","coordinates":[-86.475001597793948,30.52445570868419]},"properties":{"OBJECTID":112,"Name":"NICEVILLE POLICE DEPT HEADQUARTERS","Address":"212 PARTIN DR N","City":"NICEVILLE","Zip":"32578","COUNTY":"OKALOOSA","X":-86.475001599999999,"Y":30.524455710000002,"LONGLAT":"-86.47500160,30.52445571","USNG":"16R EU 50366 77018","OWNERSHIP":"MUNICIPAL","PARCELID":"05-1S-22-256C-0035-0010","FACILITY_TYPE":"CALL CENTER"}},{"type":"Feature","id":113,"geometry":{"type":"Point","coordinates":[-86.562217456617418,30.773704622391037]},"properties":{"OBJECTID":113,"Name":"CRESTVIEW POLICE DEPT HEADQUARTERS","Address":"201 STILLWELL BLVD","City":"CRESTVIEW","Zip":"32539","COUNTY":"OKALOOSA","X":-86.571315920000004,"Y":30.757312420000002,"LONGLAT":"-86.57131592,30.75731242","USNG":"16R EV 41028 02785","OWNERSHIP":"MUNICIPAL","PARCELID":"17-3N-23-2490-0006-0070","FACILITY_TYPE":"CALL CENTER"}},{"type":"Feature","id":114,"geometry":{"type":"Point","coordinates":[-80.835020906929657,27.248709770999934]},"properties":{"OBJECTID":114,"Name":"OKEECHOBEE COUNTY SHERIFF HEADQUARTERS","Address":"504 NW 4 TH ST","City":"OKEECHOBEE","Zip":"34972","COUNTY":"OKEECHOBEE","X":-80.835020909999997,"Y":27.248709770000001,"LONGLAT":"-80.83502091,27.24870977","USNG":"17R NL 16332 13993","OWNERSHIP":"COUNTY","PARCELID":"3-15-37-35-0010-00950-0010","FACILITY_TYPE":"CALL CENTER"}},{"type":"Feature","id":115,"geometry":{"type":"Point","coordinates":[-81.58839849189404,28.565603357384958]},"properties":{"OBJECTID":115,"Name":"WINTER GARDEN POLICE HEADQUARTERS","Address":"251 W PLANT ST","City":"WINTER GARDEN","Zip":"34787","COUNTY":"ORANGE","X":-81.588398490000003,"Y":28.565603360000001,"LONGLAT":"-81.58839849,28.56560336","USNG":"17R MM 42451 60001","OWNERSHIP":"MUNICIPAL","PARCELID":"272223091600010","FACILITY_TYPE":"CALL CENTER"}},{"type":"Feature","id":116,"geometry":{"type":"Point","coordinates":[-81.354492618618309,28.601291224769462]},"properties":{"OBJECTID":116,"Name":"WINTER PARK POLICE HEADQUARTERS","Address":"500 N VIRGINIA AVE","City":"WINTER PARK","Zip":"32789","COUNTY":"ORANGE","X":-81.354492620000002,"Y":28.601291230000001,"LONGLAT":"-81.35449262,28.60129123","USNG":"17R MM 65340 63864","OWNERSHIP":"MUNICIPAL","PARCELID":"302205939800010","FACILITY_TYPE":"CALL CENTER"}},{"type":"Feature","id":117,"geometry":{"type":"Point","coordinates":[-81.543407014002312,28.572074224580312]},"properties":{"OBJECTID":117,"Name":"OCOEE POLICE DEPT HEADQUARTERS","Address":"175 N BLUFORD AVE","City":"OCOEE","Zip":"34761","COUNTY":"ORANGE","X":-81.543407009999996,"Y":28.572074229999998,"LONGLAT":"-81.54340701,28.57207423","USNG":"17R MM 46855 60697","OWNERSHIP":"MUNICIPAL","PARCELID":"282217614402061","FACILITY_TYPE":"CALL CENTER"}},{"type":"Feature","id":118,"geometry":{"type":"Point","coordinates":[-81.54714710172783,28.365553858209417]},"properties":{"OBJECTID":118,"Name":"REEDY CREEK FD ST 1","Address":"651 E BUENA VISTA DR","City":"ORLANDO","Zip":"32830","COUNTY":"ORANGE","X":-81.547147100000004,"Y":28.365553859999999,"LONGLAT":"-81.54714710,28.36555386","USNG":"17R MM 46385 37819","OWNERSHIP":"MUNICIPAL","PARCELID":"282430000000004","FACILITY_TYPE":"CALL CENTER"}},{"type":"Feature","id":119,"geometry":{"type":"Point","coordinates":[-81.411613203009352,28.551393481228295]},"properties":{"OBJECTID":119,"Name":"ORANGE COUNTY SHERIFF HEADQUARTERS","Address":"2500 W COLONIAL DR","City":"ORLANDO","Zip":"32805","COUNTY":"ORANGE","X":-81.411613200000005,"Y":28.551393480000002,"LONGLAT":"-81.41161320,28.55139348","USNG":"17R MM 59736 58354","OWNERSHIP":"COUNTY","PARCELID":"292228843800010","FACILITY_TYPE":"CALL CENTER"}},{"type":"Feature","id":120,"geometry":{"type":"Point","coordinates":[-81.383389677606999,28.541494226636896]},"properties":{"OBJECTID":120,"Name":"ORLANDO POLICE DEPT HEADQUARTERS","Address":"100 S HUGHEY AVE","City":"ORLANDO","Zip":"32801","COUNTY":"ORANGE","X":-81.383389679999993,"Y":28.541494230000001,"LONGLAT":"-81.38338968,28.54149423","USNG":"17R MM 62494 57248","OWNERSHIP":"MUNICIPAL","PARCELID":"292226673203011","FACILITY_TYPE":"CALL CENTER"}},{"type":"Feature","id":121,"geometry":{"type":"Point","coordinates":[-81.306309646673242,28.430802994491959]},"properties":{"OBJECTID":121,"Name":"ORLANDO INT'L AIRPORT POLICE DEPT HEADQUARTERS","Address":"1 AIRPORT BLVD","City":"ORLANDO","Zip":"32827","COUNTY":"ORANGE","X":-81.306309650000003,"Y":28.430803000000001,"LONGLAT":"-81.30630965,28.43080300","USNG":"17R MM 70003 44964","OWNERSHIP":"MUNICIPAL","PARCELID":"302403000000002","FACILITY_TYPE":"CALL CENTER"}},{"type":"Feature","id":122,"geometry":{"type":"Point","coordinates":[-81.196704029576253,28.592425573554728]},"properties":{"OBJECTID":122,"Name":"UNIVERSITY OF CENTRAL FLORIDA POLICE DEPT","Address":"4000 CENTRAL FLORIDA BLVD","City":"ORLANDO","Zip":"32826","COUNTY":"ORANGE","X":-81.196704030000006,"Y":28.59242557,"LONGLAT":"-81.19670403,28.59242557","USNG":"17R MM 80766 62847","OWNERSHIP":"PRIVATE","PARCELID":"312203000000005","FACILITY_TYPE":"CALL CENTER"}},{"type":"Feature","id":123,"geometry":{"type":"Point","coordinates":[-81.317890965337483,28.249891638326865]},"properties":{"OBJECTID":123,"Name":"911 PSAP ST CLOUD","Address":"4700 NEPTUNE RD","City":"SAINT CLOUD","Zip":"34769","COUNTY":"OSCEOLA","X":-81.317890969999993,"Y":28.249891640000001,"LONGLAT":"-81.31789097,28.24989164","USNG":"17R MM 68816 24925","OWNERSHIP":"MUNICIPAL","PARCELID":"04-26-30-00U0-0114-0000","FACILITY_TYPE":"CALL CENTER"}},{"type":"Feature","id":124,"geometry":{"type":"Point","coordinates":[-81.337313045098739,28.277400995206243]},"properties":{"OBJECTID":124,"Name":"911 PSAP OSCEOLA","Address":"2586 PARTIN SETTLEMENT RD","City":"KISSIMMEE","Zip":"34744","COUNTY":"OSCEOLA","X":-81.337313050000006,"Y":28.277401000000001,"LONGLAT":"-81.33731305,28.27740100","USNG":"17R MM 66919 27978","OWNERSHIP":"COUNTY","PARCELID":"29-25-30-4653-0001-0020","FACILITY_TYPE":"CALL CENTER"}},{"type":"Feature","id":125,"geometry":{"type":"Point","coordinates":[-81.408566827173402,28.292510244642664]},"properties":{"OBJECTID":125,"Name":"911 PSAP KISSIMMEE","Address":"8 N STEWART AVE","City":"KISSIMMEE","Zip":"34741","COUNTY":"OSCEOLA","X":-81.408566829999998,"Y":28.292510249999999,"LONGLAT":"-81.40856683,28.29251025","USNG":"17R MM 59937 29673","OWNERSHIP":"MUNICIPAL","PARCELID":"21-25-29-1574-0001-0020","FACILITY_TYPE":"CALL CENTER"}},{"type":"Feature","id":126,"geometry":{"type":"Point","coordinates":[-80.10493903779593,26.833190049780939]},"properties":{"OBJECTID":126,"Name":"PALM BEACH GARDENS POLICE DEPT HEADQUARTERS","Address":"10500 N MILITARY TRL","City":"PALM BEACH GARDENS","Zip":"33410","COUNTY":"PALM BEACH","X":-80.104939040000005,"Y":26.833190049999999,"LONGLAT":"-80.10493904,26.83319005","USNG":"17R NK 88936 68273","OWNERSHIP":"MUNICIPAL","PARCELID":"52424212290010000","FACILITY_TYPE":"CALL CENTER"}},{"type":"Feature","id":127,"geometry":{"type":"Point","coordinates":[-80.076503583933501,26.460800298372252]},"properties":{"OBJECTID":127,"Name":"DELRAY BEACH POLICE DEPT HEADQUARTERS","Address":"300 W ATLANTIC AVE","City":"DELRAY BEACH","Zip":"33444","COUNTY":"PALM BEACH","X":-80.076503579999994,"Y":26.460800299999999,"LONGLAT":"-80.07650358,26.46080030","USNG":"17R NK 92060 27046","OWNERSHIP":"MUNICIPAL","PARCELID":"12434617450010000","FACILITY_TYPE":"CALL CENTER"}},{"type":"Feature","id":128,"geometry":{"type":"Point","coordinates":[-80.063536991686902,26.799009057990251]},"properties":{"OBJECTID":128,"Name":"LAKE PARK POLICE DEPT HEADQUARTERS","Address":"700 6TH ST","City":"WEST PALM BEACH","Zip":"33403","COUNTY":"PALM BEACH","X":-80.063536990000003,"Y":26.799009059999999,"LONGLAT":"-80.06353699,26.79900906","USNG":"17R NK 93078 64516","OWNERSHIP":"MUNICIPAL","PARCELID":"36434220010190010","FACILITY_TYPE":"CALL CENTER"}},{"type":"Feature","id":129,"geometry":{"type":"Point","coordinates":[-80.088962861011183,26.351801511955273]},"properties":{"OBJECTID":129,"Name":"BOCA RATON CITY POLICE DEPT. HEADQUARTERS","Address":"100 NW BOCA RATON BLVD","City":"BOCA RATON","Zip":"33432","COUNTY":"PALM BEACH","X":-80.088962859999995,"Y":26.351801510000001,"LONGLAT":"-80.08896286,26.35180151","USNG":"17R NK 90903 14965","OWNERSHIP":"MUNICIPAL","PARCELID":"06434719310010010","FACILITY_TYPE":"CALL CENTER"}},{"type":"Feature","id":130,"geometry":{"type":"Point","coordinates":[-80.057558609798448,26.714079580871982]},"properties":{"OBJECTID":130,"Name":"WEST PALM BEACH POLICE DEPT HEADQUARTERS","Address":"600 BANYAN BLVD","City":"WEST PALM BEACH","Zip":"33401","COUNTY":"PALM BEACH","X":-80.057558610000001,"Y":26.71407958,"LONGLAT":"-80.05755861,26.71407958","USNG":"17R NK 93742 55114","OWNERSHIP":"MUNICIPAL","PARCELID":"74434321010280010","FACILITY_TYPE":"CALL CENTER"}},{"type":"Feature","id":131,"geometry":{"type":"Point","coordinates":[-80.095350824590639,26.641481601104239]},"properties":{"OBJECTID":131,"Name":"PALM SPRINGS POLICE DEPT HEADQUARTERS","Address":"230 CYPRESS LN","City":"LAKE WORTH","Zip":"33461","COUNTY":"PALM BEACH","X":-80.095350819999993,"Y":26.641481599999999,"LONGLAT":"-80.09535082,26.64148160","USNG":"17R NK 90040 47045","OWNERSHIP":"MUNICIPAL","PARCELID":"70434418380010010","FACILITY_TYPE":"CALL CENTER"}},{"type":"Feature","id":132,"geometry":{"type":"Point","coordinates":[-80.076167956147088,26.952488808692191]},"properties":{"OBJECTID":132,"Name":"JUPITER INLET COLONY POLICE DEPT HEADQUARTERS","Address":"1 COLONY RD","City":"JUPITER","Zip":"33469","COUNTY":"PALM BEACH","X":-80.076167960000006,"Y":26.952488809999998,"LONGLAT":"-80.07616796,26.95248881","USNG":"17R NK 91699 81508","OWNERSHIP":"MUNICIPAL","PARCELID":null,"FACILITY_TYPE":"CALL CENTER"}},{"type":"Feature","id":133,"geometry":{"type":"Point","coordinates":[-80.092659040848588,26.959366936701866]},"properties":{"OBJECTID":133,"Name":"TEQUESTA POLICE DEPT HEADQUARTERS","Address":"357 TEQUESTA DR","City":"JUPITER","Zip":"33469","COUNTY":"PALM BEACH","X":-80.092659040000001,"Y":26.959366939999999,"LONGLAT":"-80.09265904,26.95936694","USNG":"17R NK 90056 82258","OWNERSHIP":"MUNICIPAL","PARCELID":"60424025100030000","FACILITY_TYPE":"CALL CENTER"}},{"type":"Feature","id":134,"geometry":{"type":"Point","coordinates":[-80.048797336667491,26.52932585336135]},"properties":{"OBJECTID":134,"Name":"OCEAN RIDGE POLICE DEPT HEADQUARTERS","Address":"6450 N OCEAN BLVD","City":"BOYNTON BEACH","Zip":"33435","COUNTY":"PALM BEACH","X":-80.048797339999993,"Y":26.529325849999999,"LONGLAT":"-80.04879734,26.52932585","USNG":"17R NK 94766 34656","OWNERSHIP":"MUNICIPAL","PARCELID":"46434522000050070","FACILITY_TYPE":"CALL CENTER"}},{"type":"Feature","id":135,"geometry":{"type":"Point","coordinates":[-80.036042897578909,26.703592564867069]},"properties":{"OBJECTID":135,"Name":"PALM BEACH (TOWN OF) POLICE DEPT HEADQUARTERS","Address":"345 S COUNTY RD","City":"PALM BEACH","Zip":"33480","COUNTY":"PALM BEACH","X":-80.036042899999998,"Y":26.703592570000001,"LONGLAT":"-80.03604290,26.70359257","USNG":"17R NK 95891 53968","OWNERSHIP":"MUNICIPAL","PARCELID":"50434323050280351","FACILITY_TYPE":"CALL CENTER"}},{"type":"Feature","id":136,"geometry":{"type":"Point","coordinates":[-80.146459917764247,26.631011580330227]},"properties":{"OBJECTID":136,"Name":"GREENACRES FD ST 1","Address":"2995 JOG RD","City":"LAKE WORTH","Zip":"33467","COUNTY":"PALM BEACH","X":-80.146459919999998,"Y":26.631011579999999,"LONGLAT":"-80.14645992,26.63101158","USNG":"17R NK 84960 45851","OWNERSHIP":"COUNTY","PARCELID":"18424327050220012","FACILITY_TYPE":"CALL CENTER"}},{"type":"Feature","id":137,"geometry":{"type":"Point","coordinates":[-80.66666621702133,26.824215578536229]},"properties":{"OBJECTID":137,"Name":"PALM BEACH CO SHERIFF DISTRICT XII","Address":"171 N LAKE AVE","City":"PAHOKEE","Zip":"33476","COUNTY":"PALM BEACH","X":-80.666666219999996,"Y":26.824215580000001,"LONGLAT":"-80.66666622,26.82421558","USNG":"17R NK 33123 67009","OWNERSHIP":"COUNTY","PARCELID":"48374218180000200","FACILITY_TYPE":"CALL CENTER"}},{"type":"Feature","id":138,"geometry":{"type":"Point","coordinates":[-80.111052544786645,26.676505267118252]},"properties":{"OBJECTID":138,"Name":"PALM BEACH COUNTY DIVISION OF EMERGENCY MANAGEM","Address":"20 SOUTH MILITARY TRL","City":"WEST PALM BEACH","Zip":"33406","COUNTY":"PALM BEACH","X":-80.111052540000003,"Y":26.67650527,"LONGLAT":"-80.11105254,26.67650527","USNG":"17R NK 88450 50914","OWNERSHIP":"COUNTY","PARCELID":"00424401000001290","FACILITY_TYPE":"CALL CENTER"}},{"type":"Feature","id":139,"geometry":{"type":"Point","coordinates":[-80.663850313892638,26.725070818847264]},"properties":{"OBJECTID":139,"Name":"PALM BEACH COUNTY SHERIFF DISTRICT V","Address":"38840 STATE ROAD 80","City":"BELLE GLADE","Zip":"33430","COUNTY":"PALM BEACH","X":-80.663850310000001,"Y":26.725070819999999,"LONGLAT":"-80.66385031,26.72507082","USNG":"17R NK 33431 56029","OWNERSHIP":"COUNTY","PARCELID":"00374320000001000","FACILITY_TYPE":"CALL CENTER"}},{"type":"Feature","id":140,"geometry":{"type":"Point","coordinates":[-80.065240820234948,26.784509831016656]},"properties":{"OBJECTID":140,"Name":"RIVIERA BEACH POLICE DEPT. HEADQUARTERS","Address":"600 W BLUE HERON BLVD","City":"WEST PALM BEACH","Zip":"33404","COUNTY":"PALM BEACH","X":-80.06524082,"Y":26.784509830000001,"LONGLAT":"-80.06524082,26.78450983","USNG":"17R NK 92920 62909","OWNERSHIP":"MUNICIPAL","PARCELID":"56434228250300000","FACILITY_TYPE":"CALL CENTER"}},{"type":"Feature","id":141,"geometry":{"type":"Point","coordinates":[-80.055453220053948,26.576522921008106]},"properties":{"OBJECTID":141,"Name":"LANTANA POLICE DEPT. HEADQUARTERS","Address":"500 GREYNOLDS CIR","City":"LAKE WORTH","Zip":"33462","COUNTY":"PALM BEACH","X":-80.055453220000004,"Y":26.576522919999999,"LONGLAT":"-80.05545322,26.57652292","USNG":"17R NK 94064 39879","OWNERSHIP":"MUNICIPAL","PARCELID":"40434503150180000","FACILITY_TYPE":"CALL CENTER"}},{"type":"Feature","id":142,"geometry":{"type":"Point","coordinates":[-80.22470998636301,26.705859987590006]},"properties":{"OBJECTID":142,"Name":"ROYAL PALM BEACH POLICE DEPT HEADQUARTERS","Address":"11498 OKEECHOBEE BLVD","City":"WEST PALM BEACH","Zip":"33411","COUNTY":"PALM BEACH","X":-80.224709989999994,"Y":26.70585999,"LONGLAT":"-80.22470999,26.70585999","USNG":"17R NK 77121 54091","OWNERSHIP":"MUNICIPAL","PARCELID":"72414326070120200","FACILITY_TYPE":"CALL CENTER"}},{"type":"Feature","id":143,"geometry":{"type":"Point","coordinates":[-80.039260012468645,26.576249997713084]},"properties":{"OBJECTID":143,"Name":"MANALAPAN POLICE DEPT. HEADQUARTERS","Address":"600 S OCEAN BLVD","City":"LAKE WORTH","Zip":"33462","COUNTY":"PALM BEACH","X":-80.039260010000007,"Y":26.576250000000002,"LONGLAT":"-80.03926001,26.57625000","USNG":"17R NK 95677 39861","OWNERSHIP":"MUNICIPAL","PARCELID":"42434502010000071","FACILITY_TYPE":"CALL CENTER"}},{"type":"Feature","id":144,"geometry":{"type":"Point","coordinates":[-80.102636861561336,26.931844565631426]},"properties":{"OBJECTID":144,"Name":"JUPITER POLICE DEPT. HEADQUARTERS","Address":"210 MILITARY TRL","City":"JUPITER","Zip":"33458","COUNTY":"PALM BEACH","X":-80.102636860000004,"Y":26.931844569999999,"LONGLAT":"-80.10263686,26.93184457","USNG":"17R NK 89087 79202","OWNERSHIP":"MUNICIPAL","PARCELID":"30424101000007210","FACILITY_TYPE":"CALL CENTER"}},{"type":"Feature","id":145,"geometry":{"type":"Point","coordinates":[-80.037185191473142,26.778543816689346]},"properties":{"OBJECTID":145,"Name":"PALM BEACH SHORES PUBLIC SAFETY DEPT HEADQUARTERS","Address":"247 EDWARDS LN","City":"WEST PALM BEACH","Zip":"33404","COUNTY":"PALM BEACH","X":-80.037185190000002,"Y":26.778543819999999,"LONGLAT":"-80.03718519,26.77854382","USNG":"17R NK 95714 62269","OWNERSHIP":"MUNICIPAL","PARCELID":"54434227040006500","FACILITY_TYPE":"CALL CENTER"}},{"type":"Feature","id":146,"geometry":{"type":"Point","coordinates":[-80.056450034039415,26.812584852602974]},"properties":{"OBJECTID":146,"Name":"NORTH PALM BEACH FIRE RESCUE","Address":"560 US HIGHWAY 1","City":"NORTH PALM BEACH","Zip":"33408","COUNTY":"PALM BEACH","X":-80.056450029999993,"Y":26.81258485,"LONGLAT":"-80.05645003,26.81258485","USNG":"17R NK 93771 66025","OWNERSHIP":"MUNICIPAL","PARCELID":"68434216230030000","FACILITY_TYPE":"CALL CENTER"}},{"type":"Feature","id":147,"geometry":{"type":"Point","coordinates":[-80.063326383365094,26.528531843527105]},"properties":{"OBJECTID":147,"Name":"BOYNTON BEACH POLICE DEPT HEADQUARTERS","Address":"100 E BOYNTON BEACH BLVD","City":"BOYNTON BEACH","Zip":"33435","COUNTY":"PALM BEACH","X":-80.063326380000007,"Y":26.528531839999999,"LONGLAT":"-80.06332638,26.52853184","USNG":"17R NK 93319 34558","OWNERSHIP":"MUNICIPAL","PARCELID":"08434528060000020","FACILITY_TYPE":"CALL CENTER"}},{"type":"Feature","id":148,"geometry":{"type":"Point","coordinates":[-80.097201529855354,26.59496993779608]},"properties":{"OBJECTID":148,"Name":"ATLANTIS POLICE DEPT HEADQUARTERS","Address":"260 ORANGE TREE DR","City":"LAKE WORTH","Zip":"33462","COUNTY":"PALM BEACH","X":-80.097201530000007,"Y":26.594969939999999,"LONGLAT":"-80.09720153,26.59496994","USNG":"17R NK 89892 41892","OWNERSHIP":"MUNICIPAL","PARCELID":"02434431030090010","FACILITY_TYPE":"CALL CENTER"}},{"type":"Feature","id":149,"geometry":{"type":"Point","coordinates":[-80.058977941595231,26.617618289992766]},"properties":{"OBJECTID":149,"Name":"LAKE WORTH POLICE DEPT HEADQUARTERS","Address":"1020 LUCERNE AVE","City":"LAKE WORTH","Zip":"33460","COUNTY":"PALM BEACH","X":-80.058977940000005,"Y":26.617618289999999,"LONGLAT":"-80.05897794,26.61761829","USNG":"17R NK 93679 44428","OWNERSHIP":"MUNICIPAL","PARCELID":"38434421150140010","FACILITY_TYPE":"CALL CENTER"}},{"type":"Feature","id":150,"geometry":{"type":"Point","coordinates":[-82.186387452463265,28.363496877701007]},"properties":{"OBJECTID":150,"Name":"DADE CITY POLICE DEPT HQ","Address":"38042 PASCO AVE","City":"DADE CITY","Zip":"33525","COUNTY":"PASCO","X":-82.186387449999998,"Y":28.36349688,"LONGLAT":"-82.18638745,28.36349688","USNG":"17R LM 83740 38041","OWNERSHIP":"MUNICIPAL","PARCELID":"2124260050007000010","FACILITY_TYPE":"CALL CENTER"}},{"type":"Feature","id":151,"geometry":{"type":"Point","coordinates":[-82.673877530833778,28.26628353832432]},"properties":{"OBJECTID":151,"Name":"PASCO COUNTY SHERIFF'S OFFICE HQ - WEST OPERATIONS","Address":"7432 LITTLE RD","City":"NEW PORT RICHEY","Zip":"34654","COUNTY":"PASCO","X":-82.673877529999999,"Y":28.26628354,"LONGLAT":"-82.67387753,28.26628354","USNG":"17R LM 35813 27836","OWNERSHIP":"COUNTY","PARCELID":"1625350030010000000","FACILITY_TYPE":"CALL CENTER"}},{"type":"Feature","id":152,"geometry":{"type":"Point","coordinates":[-82.669776715227158,28.266268393079866]},"properties":{"OBJECTID":152,"Name":"911 CALL CENTER","Address":"8750 GOVERNMENT DR","City":"NEW PORT RICHEY","Zip":"34654","COUNTY":"PASCO","X":-82.669776720000002,"Y":28.26626839,"LONGLAT":"-82.66977672,28.26626839","USNG":"17R LM 36215 27829","OWNERSHIP":null,"PARCELID":null,"FACILITY_TYPE":"CALL CENTER"}},{"type":"Feature","id":153,"geometry":{"type":"Point","coordinates":[-82.71927829593568,28.255639886967103]},"properties":{"OBJECTID":153,"Name":"NEW PORT RICHEY POLICE DEPT HQ","Address":"6739 ADAMS ST","City":"NEW PORT RICHEY","Zip":"34652","COUNTY":"PASCO","X":-82.719278299999999,"Y":28.255639890000001,"LONGLAT":"-82.71927830,28.25563989","USNG":"17R LM 31342 26719","OWNERSHIP":"MUNICIPAL","PARCELID":"1626050030035000090","FACILITY_TYPE":"CALL CENTER"}},{"type":"Feature","id":154,"geometry":{"type":"Point","coordinates":[-82.18477183408811,28.246645257839376]},"properties":{"OBJECTID":154,"Name":"ZEPHYRHILLS POLICE DEPT HQ","Address":"6118 8TH ST","City":"ZEPHYRHILLS","Zip":"33542","COUNTY":"PASCO","X":-82.184771830000003,"Y":28.246645260000001,"LONGLAT":"-82.18477183,28.24664526","USNG":"17R LM 83771 25093","OWNERSHIP":"MUNICIPAL","PARCELID":"212602008000A000123","FACILITY_TYPE":"CALL CENTER"}},{"type":"Feature","id":155,"geometry":{"type":"Point","coordinates":[-82.705798104746776,27.746449885969316]},"properties":{"OBJECTID":155,"Name":"GULFPORT POLICE DEPT HEADQUARTERS","Address":"2401 53RD ST S","City":"SAINT PETERSBURG","Zip":"33707","COUNTY":"PINELLAS","X":-82.705798099999996,"Y":27.746449890000001,"LONGLAT":"-82.70579810,27.74644989","USNG":"17R LL 31876 70281","OWNERSHIP":"MUNICIPAL","PARCELID":"16 31 33 93942 000 1510","FACILITY_TYPE":"CALL CENTER"}},{"type":"Feature","id":156,"geometry":{"type":"Point","coordinates":[-82.714771817686525,27.841637007524028]},"properties":{"OBJECTID":156,"Name":"PINELLAS PARK POLICE DEPT HEADQUARTERS","Address":"7700 59TH ST N","City":"PINELLAS PARK","Zip":"33781","COUNTY":"PINELLAS","X":-82.714771819999996,"Y":27.841637009999999,"LONGLAT":"-82.71477182,27.84163701","USNG":"17R LL 31139 80840","OWNERSHIP":"MUNICIPAL","PARCELID":"16 30 28 71064 004 0010","FACILITY_TYPE":"CALL CENTER"}},{"type":"Feature","id":157,"geometry":{"type":"Point","coordinates":[-82.753074946227258,28.150448297957361]},"properties":{"OBJECTID":157,"Name":"TARPON SPRINGS POLICE DEPARTMENT","Address":"410 N RING AVE","City":"TARPON SPRINGS","Zip":"34689","COUNTY":"PINELLAS","X":-82.753074949999998,"Y":28.150448300000001,"LONGLAT":"-82.75307495,28.15044830","USNG":"17R LM 27858 15111","OWNERSHIP":"MUNICIPAL","PARCELID":"15 27 12 20700 000 0130","FACILITY_TYPE":"CALL CENTER"}},{"type":"Feature","id":158,"geometry":{"type":"Point","coordinates":[-82.810666428695171,27.885767062522632]},"properties":{"OBJECTID":158,"Name":"PINELLAS CO EMS AUTHORITY/SUNSTAR","Address":"12490 ULMERTON RD","City":"LARGO","Zip":"33774","COUNTY":"PINELLAS","X":-82.810666429999998,"Y":27.885767059999999,"LONGLAT":"-82.81066643,27.88576706","USNG":"17R LL 21766 85865","OWNERSHIP":"COUNTY","PARCELID":"15 30 09 00000 230 0100","FACILITY_TYPE":"CALL CENTER"}},{"type":"Feature","id":159,"geometry":{"type":"Point","coordinates":[-82.800619484446074,27.961219651190671]},"properties":{"OBJECTID":159,"Name":"PINELLAS COUNTY EMERGENCY MANAGEMENT","Address":"400 S FORT HARRISON AVE","City":"CLEARWATER","Zip":"33756","COUNTY":"PINELLAS","X":-82.800619479999995,"Y":27.96121965,"LONGLAT":"-82.80061948,27.96121965","USNG":"17R LL 22878 94211","OWNERSHIP":"COUNTY","PARCELID":"15 29 16 92574 007 0010","FACILITY_TYPE":"CALL CENTER"}},{"type":"Feature","id":160,"geometry":{"type":"Point","coordinates":[-82.788991997636472,27.894135785699863]},"properties":{"OBJECTID":160,"Name":"PINELLAS COUNTY SHERIFF'S HEADQUARTERS","Address":"10750 ULMERTON RD","City":"LARGO","Zip":"33778","COUNTY":"PINELLAS","X":-82.788991999999993,"Y":27.89413579,"LONGLAT":"-82.78899200,27.89413579","USNG":"17R LL 23913 86761","OWNERSHIP":"COUNTY","PARCELID":"15 30 10 70506 200 0200","FACILITY_TYPE":"CALL CENTER"}},{"type":"Feature","id":161,"geometry":{"type":"Point","coordinates":[-82.768462093341356,27.771060915712145]},"properties":{"OBJECTID":161,"Name":"TREASURE ISLAND POLICE DEPT HEADQUARTERS","Address":"180 108TH AVE","City":"SAINT PETERSBURG","Zip":"33706","COUNTY":"PINELLAS","X":-82.76846209,"Y":27.77106092,"LONGLAT":"-82.76846209,27.77106092","USNG":"17R LL 25738 73095","OWNERSHIP":"MUNICIPAL","PARCELID":"15 31 23 91818 008 0120","FACILITY_TYPE":"CALL CENTER"}},{"type":"Feature","id":162,"geometry":{"type":"Point","coordinates":[-82.826773140800967,27.981505374399386]},"properties":{"OBJECTID":162,"Name":"CLEARWATER POLICE DEPT HEADQUARTERS","Address":"483 MANDALAY AVE STE 208","City":"CLEARWATER BEACH","Zip":"33767","COUNTY":"PINELLAS","X":-82.82677314,"Y":27.981505380000002,"LONGLAT":"-82.82677314,27.98150538","USNG":"17R LL 20339 96497","OWNERSHIP":"MUNICIPAL","PARCELID":"15 29 08 16416 002 0320","FACILITY_TYPE":"CALL CENTER"}},{"type":"Feature","id":163,"geometry":{"type":"Point","coordinates":[-82.804203122841315,27.934794300682519]},"properties":{"OBJECTID":163,"Name":"BELLEAIR POLICE DEPT HEADQUARTERS","Address":"901 PONCE DE LEON BLVD","City":"CLEARWATER","Zip":"33756","COUNTY":"PINELLAS","X":-82.804203119999997,"Y":27.9347943,"LONGLAT":"-82.80420312,27.93479430","USNG":"17R LL 22482 91288","OWNERSHIP":"MUNICIPAL","PARCELID":"15 29 28 06732 045 0430","FACILITY_TYPE":"CALL CENTER"}},{"type":"Feature","id":164,"geometry":{"type":"Point","coordinates":[-82.652184005548378,27.771713914969599]},"properties":{"OBJECTID":164,"Name":"ST PETERSBURG POLICE DEPT HEADQUARTERS","Address":"1300 1ST AVE N","City":"SAINT PETERSBURG","Zip":"33705","COUNTY":"PINELLAS","X":-82.652184009999999,"Y":27.77171392,"LONGLAT":"-82.65218401,27.77171392","USNG":"17R LL 37199 73008","OWNERSHIP":"MUNICIPAL","PARCELID":"16 31 24 72477 001 0010","FACILITY_TYPE":"CALL CENTER"}},{"type":"Feature","id":165,"geometry":{"type":"Point","coordinates":[-81.528041113345779,27.746696214403652]},"properties":{"OBJECTID":165,"Name":"FROSTPROOF POLICE DEPT HEADQUARTERS","Address":"2 N LAKE REEDY BLVD","City":"FROSTPROOF","Zip":"33843","COUNTY":"POLK","X":-81.528041110000004,"Y":27.74669622,"LONGLAT":"-81.52804111,27.74669622","USNG":"17R ML 47960 69254","OWNERSHIP":"MUNICIPAL","PARCELID":"283133977800007010","FACILITY_TYPE":"CALL CENTER"}},{"type":"Feature","id":166,"geometry":{"type":"Point","coordinates":[-81.8023270044973,27.753024512259351]},"properties":{"OBJECTID":166,"Name":"FORT MEADE POLICE DEPT HEADQUARTERS","Address":"15 NW 1ST ST","City":"FORT MEADE","Zip":"33841","COUNTY":"POLK","X":-81.802327000000005,"Y":27.753024509999999,"LONGLAT":"-81.80232700,27.75302451","USNG":"17R ML 20932 70101","OWNERSHIP":"MUNICIPAL","PARCELID":"253127463000023010","FACILITY_TYPE":"CALL CENTER"}},{"type":"Feature","id":167,"geometry":{"type":"Point","coordinates":[-81.640570002878334,28.114479423938977]},"properties":{"OBJECTID":167,"Name":"HAINES CITY POLICE DEPT HEADQUARTERS","Address":"35400 US HWY 27","City":"HAINES CITY","Zip":"33844","COUNTY":"POLK","X":-81.640569999999997,"Y":28.114479419999999,"LONGLAT":"-81.64057000,28.11447942","USNG":"17R MM 37083 10049","OWNERSHIP":"MUNICIPAL","PARCELID":"272719744100000260","FACILITY_TYPE":"CALL CENTER"}},{"type":"Feature","id":168,"geometry":{"type":"Point","coordinates":[-81.727305194494789,28.035092765637518]},"properties":{"OBJECTID":168,"Name":"WINTER HAVEN POLICE DEPT. HEADQUARTERS","Address":"125 N LAKE SILVER DRIVE NW","City":"WINTER HAVEN","Zip":"33881","COUNTY":"POLK","X":-81.727305189999996,"Y":28.035092769999999,"LONGLAT":"-81.72730519,28.03509277","USNG":"17R MM 28511 01303","OWNERSHIP":"MUNICIPAL","PARCELID":"262820555500000011","FACILITY_TYPE":"CALL CENTER"}},{"type":"Feature","id":169,"geometry":{"type":"Point","coordinates":[-81.843713081304543,27.898438481953903]},"properties":{"OBJECTID":169,"Name":"POLK COUNTY SHERIFF HEADQUARTERS","Address":"455 N BROADWAY AVE","City":"BARTOW","Zip":"33830","COUNTY":"POLK","X":-81.843713080000001,"Y":27.898438479999999,"LONGLAT":"-81.84371308,27.89843848","USNG":"17R ML 16964 86238","OWNERSHIP":"COUNTY","PARCELID":"253006390000004010","FACILITY_TYPE":"CALL CENTER"}},{"type":"Feature","id":170,"geometry":{"type":"Point","coordinates":[-81.829179640543856,27.877764792779573]},"properties":{"OBJECTID":170,"Name":"POLK COUNTY EMERGENCY OPERATIONS CENTER-ALTERNATE","Address":"1702 US HWY 17","City":"BARTOW","Zip":"33830","COUNTY":"POLK","X":-81.829179640000007,"Y":27.877764790000001,"LONGLAT":"-81.82917964,27.87776479","USNG":"17R ML 18379 83938","OWNERSHIP":"COUNTY","PARCELID":"253017429532002130","FACILITY_TYPE":"CALL CENTER"}},{"type":"Feature","id":171,"geometry":{"type":"Point","coordinates":[-81.842976092978404,27.898634156578034]},"properties":{"OBJECTID":171,"Name":"BARTOW POLICE DEPT HEADQUARTERS","Address":"450 N BROADWAY AVE","City":"BARTOW","Zip":"33830","COUNTY":"POLK","X":-81.842976089999993,"Y":27.89863416,"LONGLAT":"-81.84297609,27.89863416","USNG":"17R ML 17037 86259","OWNERSHIP":"MUNICIPAL","PARCELID":"253006390000005010","FACILITY_TYPE":"CALL CENTER"}},{"type":"Feature","id":172,"geometry":{"type":"Point","coordinates":[-81.95381881876736,28.046321076055094]},"properties":{"OBJECTID":172,"Name":"LAKELAND POLICE DEPT HEADQUARTERS","Address":"219 N MASSACHUSETTS AVE","City":"LAKELAND","Zip":"33801","COUNTY":"POLK","X":-81.953818819999995,"Y":28.046321079999998,"LONGLAT":"-81.95381882,28.04632108","USNG":"17R MM 06255 02700","OWNERSHIP":"MUNICIPAL","PARCELID":"242818000000041010","FACILITY_TYPE":"CALL CENTER"}},{"type":"Feature","id":173,"geometry":{"type":"Point","coordinates":[-81.789247695703807,28.064099455710672]},"properties":{"OBJECTID":173,"Name":"AUBURNDALE POLICE DEPT HEADQUARTERS","Address":"2 BOBBY GREEN PLAZA","City":"AUBURNDALE","Zip":"33823","COUNTY":"POLK","X":-81.789247700000004,"Y":28.064099460000001,"LONGLAT":"-81.78924770,28.06409946","USNG":"17R MM 22443 04554","OWNERSHIP":"MUNICIPAL","PARCELID":"252811331500008010","FACILITY_TYPE":"CALL CENTER"}},{"type":"Feature","id":174,"geometry":{"type":"Point","coordinates":[-81.588208951517274,27.900513299439758]},"properties":{"OBJECTID":174,"Name":"LAKE WALES POLICE DEPT. HEADQUARTERS","Address":"133 E TILLMAN AVE","City":"LAKE WALES","Zip":"33853","COUNTY":"POLK","X":-81.588208949999995,"Y":27.9005133,"LONGLAT":"-81.58820895,27.90051330","USNG":"17R ML 42112 86320","OWNERSHIP":"MUNICIPAL","PARCELID":"273002909650031010","FACILITY_TYPE":"CALL CENTER"}},{"type":"Feature","id":175,"geometry":{"type":"Point","coordinates":[-81.620002672169647,28.023067903983488]},"properties":{"OBJECTID":175,"Name":"DUNDEE POLICE DEPT HEADQUARTERS","Address":"106 CENTER ST","City":"DUNDEE","Zip":"33838","COUNTY":"POLK","X":-81.620002670000005,"Y":28.023067900000001,"LONGLAT":"-81.62000267,28.02306790","USNG":"17R ML 39052 99912","OWNERSHIP":"MUNICIPAL","PARCELID":"272828836000011090","FACILITY_TYPE":"CALL CENTER"}},{"type":"Feature","id":176,"geometry":{"type":"Point","coordinates":[-81.661833599607348,29.668367835019534]},"properties":{"OBJECTID":176,"Name":"PUTNAM COUNTY SHERIFF DEPT HEADQUARTERS","Address":"130 ORIE GRIFFIN BLVD","City":"PALATKA","Zip":"32177","COUNTY":"PUTNAM","X":-81.661833599999994,"Y":29.668367839999998,"LONGLAT":"-81.66183360,29.66836784","USNG":"17R MN 35955 82221","OWNERSHIP":"COUNTY","PARCELID":"37-09-26-0000-0070-0000","FACILITY_TYPE":"CALL CENTER"}},{"type":"Feature","id":177,"geometry":{"type":"Point","coordinates":[-81.278951677068605,29.853586767112009]},"properties":{"OBJECTID":177,"Name":"ST. AUGUSTINE BEACH POLICE DEPT. HEADQUARTERS","Address":"2300 STATE ROAD A1A S","City":"SAINT AUGUSTINE","Zip":"32080","COUNTY":"ST. JOHNS","X":-81.278951680000006,"Y":29.85358677,"LONGLAT":"-81.27895168,29.85358677","USNG":"17R MP 73056 02594","OWNERSHIP":"MUNICIPAL","PARCELID":"1629290100","FACILITY_TYPE":"CALL CENTER"}},{"type":"Feature","id":178,"geometry":{"type":"Point","coordinates":[-80.482323450817645,27.373342607576042]},"properties":{"OBJECTID":178,"Name":"SAINT LUCIE COUNTY EMERGENCY OPERATIONS CENTER","Address":"15305 W MIDWAY ROAD","City":"PORT SAINT LUCIE","Zip":"34987","COUNTY":"ST. LUCIE","X":-80.482323449999996,"Y":27.373342610000002,"LONGLAT":"-80.48232345,27.37334261","USNG":"17R NL 51191 27893","OWNERSHIP":"COUNTY","PARCELID":"3201-133-0005-000-0","FACILITY_TYPE":"CALL CENTER"}},{"type":"Feature","id":179,"geometry":{"type":"Point","coordinates":[-87.069735280583004,30.598233100887526]},"properties":{"OBJECTID":179,"Name":"SRC EMERGENCY MGMT COMMUNICATION CENTER","Address":"4499 PINE FOREST RD","City":"MILTON","Zip":"32583","COUNTY":"SANTA ROSA","X":-87.069735280000003,"Y":30.598233100000002,"LONGLAT":"-87.06973528,30.59823310","USNG":"16R DU 93314 85079","OWNERSHIP":"COUNTY","PARCELID":"17-1N-28-0000-03500-0000","FACILITY_TYPE":"CALL CENTER"}},{"type":"Feature","id":180,"geometry":{"type":"Point","coordinates":[-87.181981434085486,30.360348254224977]},"properties":{"OBJECTID":180,"Name":"GULF BREEZE POLICE DEPARTMENT","Address":"311 FAIRPOINT DR","City":"GULF BREEZE","Zip":"32561","COUNTY":"SANTA ROSA","X":-87.181981429999993,"Y":30.360348259999999,"LONGLAT":"-87.18198143,30.36034826","USNG":"16R DU 82512 58729","OWNERSHIP":"MUNICIPAL","PARCELID":"06-3S-29-0540-06300-0050","FACILITY_TYPE":"CALL CENTER"}},{"type":"Feature","id":181,"geometry":{"type":"Point","coordinates":[-86.974268522390886,30.643460224595984]},"properties":{"OBJECTID":181,"Name":"SANTA ROSA CO SHERIFF'S OFFICE - DISTRICT 4 OFFICE/HQ","Address":"5755 E MILTON RD","City":"MILTON","Zip":"32583","COUNTY":"SANTA ROSA","X":-86.974268519999995,"Y":30.643460229999999,"LONGLAT":"-86.97426852,30.64346023","USNG":"16R EU 02465 90089","OWNERSHIP":"COUNTY","PARCELID":"32-2N-27-0000-00100-0000","FACILITY_TYPE":"CALL CENTER"}},{"type":"Feature","id":182,"geometry":{"type":"Point","coordinates":[-87.040402355799998,30.632755651624798]},"properties":{"OBJECTID":182,"Name":"MILTON POLICE DEPARTMENT","Address":"5451 ALABAMA ST","City":"MILTON","Zip":"32570","COUNTY":"SANTA ROSA","X":-87.040402360000002,"Y":30.63275565,"LONGLAT":"-87.04040236,30.63275565","USNG":"16R DU 96128 88903","OWNERSHIP":"MUNICIPAL","PARCELID":"34-2N-28-0000-22800-0000","FACILITY_TYPE":"CALL CENTER"}},{"type":"Feature","id":183,"geometry":{"type":"Point","coordinates":[-81.304651610135593,28.703974882580905]},"properties":{"OBJECTID":183,"Name":"WINTER SPRINGS POLICE DEPT HEADQUARTERS","Address":"300 N MOSS RD","City":"WINTER SPRINGS","Zip":"32708","COUNTY":"SEMINOLE","X":-81.304651609999993,"Y":28.703974880000001,"LONGLAT":"-81.30465161,28.70397488","USNG":"17R MM 70242 75227","OWNERSHIP":"MUNICIPAL","PARCELID":"2620305AR0C00013B","FACILITY_TYPE":"CALL CENTER"}},{"type":"Feature","id":184,"geometry":{"type":"Point","coordinates":[-81.319394466547266,28.758730784263548]},"properties":{"OBJECTID":184,"Name":"LAKE MARY POLICE DEPT HEADQUARTERS","Address":"165 E CRYSTAL LAKE AVE","City":"LAKE MARY","Zip":"32746","COUNTY":"SEMINOLE","X":-81.319394470000006,"Y":28.758730790000001,"LONGLAT":"-81.31939447,28.75873079","USNG":"17R MM 68818 81297","OWNERSHIP":"MUNICIPAL","PARCELID":"0820305AL38000150","FACILITY_TYPE":"CALL CENTER"}},{"type":"Feature","id":185,"geometry":{"type":"Point","coordinates":[-81.337186847977904,28.67266067966883]},"properties":{"OBJECTID":185,"Name":"CASSELBERRY POLICE DEPT HEADQUARTERS","Address":"4195 S US HWY 17-92","City":"CASSELBERRY","Zip":"32707","COUNTY":"SEMINOLE","X":-81.337186849999995,"Y":28.67266068,"LONGLAT":"-81.33718685,28.67266068","USNG":"17R MM 67054 71766","OWNERSHIP":"MUNICIPAL","PARCELID":"0821305130B000020","FACILITY_TYPE":"CALL CENTER"}},{"type":"Feature","id":186,"geometry":{"type":"Point","coordinates":[-81.359154913753542,28.664171151582693]},"properties":{"OBJECTID":186,"Name":"ALTAMONTE SPRINGS POLICE DEPT HEADQUARTERS","Address":"175 NEWBURYPORT AVE","City":"ALTAMONTE SPRINGS","Zip":"32701","COUNTY":"SEMINOLE","X":-81.359154910000001,"Y":28.664171150000001,"LONGLAT":"-81.35915491,28.66417115","USNG":"17R MM 64905 70832","OWNERSHIP":"MUNICIPAL","PARCELID":"1221295BE00004030","FACILITY_TYPE":"CALL CENTER"}},{"type":"Feature","id":187,"geometry":{"type":"Point","coordinates":[-81.201954394339694,28.653042122037125]},"properties":{"OBJECTID":187,"Name":"OVIEDO CITY POLICE DEPT HEADQUARTERS","Address":"400 ALEXANDRIA BLVD","City":"OVIEDO","Zip":"32765","COUNTY":"SEMINOLE","X":-81.201954389999997,"Y":28.653042119999999,"LONGLAT":"-81.20195439,28.65304212","USNG":"17R MM 80264 69563","OWNERSHIP":"MUNICIPAL","PARCELID":"222131300002A0000","FACILITY_TYPE":"CALL CENTER"}},{"type":"Feature","id":188,"geometry":{"type":"Point","coordinates":[-81.300144663298227,28.74221489516426]},"properties":{"OBJECTID":188,"Name":"SEMINOLE COUNTY DEPARTMENT OF PUBLIC SAFETY","Address":"150 BUSH BLVD","City":"SANFORD","Zip":"32773","COUNTY":"SEMINOLE","X":-81.300144660000001,"Y":28.7422149,"LONGLAT":"-81.30014466,28.74221490","USNG":"17R MM 70693 79462","OWNERSHIP":"COUNTY","PARCELID":"15203030004400000","FACILITY_TYPE":"CALL CENTER"}},{"type":"Feature","id":189,"geometry":{"type":"Point","coordinates":[-81.294701557971521,28.74805059421465]},"properties":{"OBJECTID":189,"Name":"SEMINOLE COUNTY SHERIFF HEADQUARTERS","Address":"100 BUSH BLVD","City":"SANFORD","Zip":"32773","COUNTY":"SEMINOLE","X":-81.294701559999993,"Y":28.748050599999999,"LONGLAT":"-81.29470156,28.74805060","USNG":"17R MM 71226 80107","OWNERSHIP":"COUNTY","PARCELID":"14203030001200000","FACILITY_TYPE":"CALL CENTER"}},{"type":"Feature","id":190,"geometry":{"type":"Point","coordinates":[-82.042093681572908,28.857978484048967]},"properties":{"OBJECTID":190,"Name":"WILDWOOD POLICE DEPT HEADQUARTERS","Address":"100 EAST HUEY ST","City":"WILDWOOD","Zip":"34785","COUNTY":"SUMTER","X":-82.042093679999994,"Y":28.85797848,"LONGLAT":"-82.04209368,28.85797848","USNG":"17R LM 98358 92697","OWNERSHIP":"MUNICIPAL","PARCELID":"G07=003","FACILITY_TYPE":"CALL CENTER"}},{"type":"Feature","id":191,"geometry":{"type":"Point","coordinates":[-83.581712870365692,30.11754796455639]},"properties":{"OBJECTID":191,"Name":"TAYLOR COUNTY SHERIFF HEADQUARTERS","Address":"108 N JEFFERSON ST","City":"PERRY","Zip":"32347","COUNTY":"TAYLOR","X":-83.581712870000004,"Y":30.11754797,"LONGLAT":"-83.58171287,30.11754797","USNG":"17R KP 51251 34624","OWNERSHIP":"COUNTY","PARCELID":"24040703813000","FACILITY_TYPE":"CALL CENTER"}},{"type":"Feature","id":192,"geometry":{"type":"Point","coordinates":[-83.573721037329065,30.110234337858738]},"properties":{"OBJECTID":192,"Name":"TAYLOR COUNTY SHERIFF'S OFFICE","Address":"591 E US HWY 27","City":"PERRY","Zip":"32348","COUNTY":"TAYLOR","X":-83.573721039999995,"Y":30.110234340000002,"LONGLAT":"-83.57372104,30.11023434","USNG":"17R KP 52003 33795","OWNERSHIP":"COUNTY","PARCELID":"25040704834000","FACILITY_TYPE":"CALL CENTER"}},{"type":"Feature","id":193,"geometry":{"type":"Point","coordinates":[-83.581712870365692,30.11754796455639]},"properties":{"OBJECTID":193,"Name":"TAYLOR COUNTY SHERIFF HEADQUARTERS","Address":"108 N JEFFERSON ST","City":"PERRY","Zip":"32347","COUNTY":"TAYLOR","X":-83.581712870000004,"Y":30.11754797,"LONGLAT":"-83.58171287,30.11754797","USNG":"17R KP 51251 34624","OWNERSHIP":"COUNTY","PARCELID":"24040703813000","FACILITY_TYPE":"CALL CENTER"}},{"type":"Feature","id":194,"geometry":{"type":"Point","coordinates":[-83.581712870365692,30.11754796455639]},"properties":{"OBJECTID":194,"Name":"TAYLOR COUNTY SHERIFF HEADQUARTERS","Address":"108 N JEFFERSON ST","City":"PERRY","Zip":"32347","COUNTY":"TAYLOR","X":-83.581712870000004,"Y":30.11754797,"LONGLAT":"-83.58171287,30.11754797","USNG":"17R KP 51251 34624","OWNERSHIP":"COUNTY","PARCELID":"24040703813000","FACILITY_TYPE":"CALL CENTER"}},{"type":"Feature","id":195,"geometry":{"type":"Point","coordinates":[-82.338554906084724,30.023680733105717]},"properties":{"OBJECTID":195,"Name":"UNION COUNTY SHERIFF HEADQUARTERS CALL CENTER","Address":"55 W MAIN ST","City":"LAKE BUTLER","Zip":"32054","COUNTY":"UNION","X":-82.338554909999999,"Y":30.023680729999999,"LONGLAT":"-82.33855491,30.02368073","USNG":"17R LP 70924 22163","OWNERSHIP":"COUNTY","PARCELID":"30-05-20-13-000-0010-0","FACILITY_TYPE":"CALL CENTER"}},{"type":"Feature","id":196,"geometry":{"type":"Point","coordinates":[-81.305020794903797,29.029576837469413]},"properties":{"OBJECTID":196,"Name":"VOLUSIA COUNTY SHERIFF HEADQUARTERS","Address":"123 W INDIANA AVE","City":"DELAND","Zip":"32720","COUNTY":"VOLUSIA","X":-81.30502079,"Y":29.029576840000001,"LONGLAT":"-81.30502079,29.02957684","USNG":"17R MN 70299 11300","OWNERSHIP":"COUNTY","PARCELID":"30170903000110","FACILITY_TYPE":"CALL CENTER"}},{"type":"Feature","id":197,"geometry":{"type":"Point","coordinates":[-81.144528040590359,29.140860272114413]},"properties":{"OBJECTID":197,"Name":"VCSO - SHERIFF COMMUNICATIONS - DISPATCH CENTER","Address":"59 KEYTON DR","City":"DAYTONA BEACH","Zip":"32124","COUNTY":"VOLUSIA","X":-81.144528039999997,"Y":29.140860270000001,"LONGLAT":"-81.14452804,29.14086027","USNG":"17R MN 85942 23600","OWNERSHIP":null,"PARCELID":null,"FACILITY_TYPE":"CALL CENTER"}},{"type":"Feature","id":198,"geometry":{"type":"Point","coordinates":[-81.060905646042571,29.282946695351697]},"properties":{"OBJECTID":198,"Name":"ORMOND BEACH POLICE DEPT","Address":"170 W GRANADA BLVD","City":"ORMOND BEACH","Zip":"32174","COUNTY":"VOLUSIA","X":-81.060905649999995,"Y":29.2829467,"LONGLAT":"-81.06090565,29.28294670","USNG":"17R MN 94084 39335","OWNERSHIP":"MUNICIPAL","PARCELID":"32141511060040","FACILITY_TYPE":"CALL CENTER"}},{"type":"Feature","id":199,"geometry":{"type":"Point","coordinates":[-86.094132826719928,30.724194679642302]},"properties":{"OBJECTID":199,"Name":"WALTON COUNTY SHERIFF (EOC - BACK-UP)\r\nWALTON COUNTY SHERIFF (EOC - BACK-UP)\r\nWALTON COUNTY SHERIFF (EOC - BACK-UP)","Address":"75 S DAVIS LN","City":"DEFUNIAK SPRINGS","Zip":"32435","COUNTY":"WALTON","X":-86.094132830000007,"Y":30.72419468,"LONGLAT":"-86.09413283,30.72419468","USNG":"16R EU 86729 99386","OWNERSHIP":"COUNTY","PARCELID":"25-3N-19-19070-001-5460","FACILITY_TYPE":"CALL CENTER"}},{"type":"Feature","id":200,"geometry":{"type":"Point","coordinates":[-86.10432792220098,30.782652777391949]},"properties":{"OBJECTID":200,"Name":"WALTON COUNTY SHERIFF HEADQUARTERS (EOC)","Address":"752 TRIPLE G RD","City":"DEFUNIAK SPRINGS","Zip":"32433","COUNTY":"WALTON","X":-86.104327920000003,"Y":30.782652779999999,"LONGLAT":"-86.10432792,30.78265278","USNG":"16R EV 85701 05857","OWNERSHIP":"COUNTY","PARCELID":"01-3N-19-19000-008-0000","FACILITY_TYPE":"CALL CENTER"}},{"type":"Feature","id":201,"geometry":{"type":"Point","coordinates":[-86.229461261974507,30.387355619383104]},"properties":{"OBJECTID":201,"Name":"SOUTH WALTON FIRE DISTRICT","Address":"911 N COUNTY RD 393","City":"SANTA ROSA BEACH","Zip":"32459","COUNTY":"WALTON","X":-86.229461259999994,"Y":30.387355620000001,"LONGLAT":"-86.22946126,30.38735562","USNG":"16R EU 74027 61960","OWNERSHIP":"COUNTY","PARCELID":"27-2S-20-33210-000-0021","FACILITY_TYPE":"CALL CENTER"}},{"type":"Feature","id":202,"geometry":{"type":"Point","coordinates":[-85.541511657395034,30.778479664497372]},"properties":{"OBJECTID":202,"Name":"WASHINGTON COUNTY SHERIFF HEADQUARTERS","Address":"1293 JACKSON AVE","City":"CHIPLEY","Zip":"32428","COUNTY":"WASHINGTON","X":-85.541511659999998,"Y":30.778479669999999,"LONGLAT":"-85.54151166,30.77847967","USNG":"16R FV 39564 05961","OWNERSHIP":"COUNTY","PARCELID":"00000000-00-1651-0000","FACILITY_TYPE":"CALL CENTER"}}]}