{"type":"FeatureCollection","features":[{"type":"Feature","id":1,"geometry":{"type":"Point","coordinates":[-80.065376014217904,26.602586757979115]},"properties":{"OBJECTID":1,"Name":"PENIEL HAITIAN BAPTIST CHURCH","Address":"1110 S A ST","City":"LAKE WORTH","Zip":"33460","COUNTY":"PALM BEACH","X":-80.065376009999994,"Y":26.602586760000001,"LONGLAT":"-80.06537601,26.60258676","USNG":"17R NK 93055 42759","OWNERSHIP":null,"PARCELID":"38434421153010030","FACILITY_TYPE":"FAITH-BASED FACILITY"}},{"type":"Feature","id":2,"geometry":{"type":"Point","coordinates":[-87.268101592736969,30.417078343528416]},"properties":{"OBJECTID":2,"Name":"FIRST FREE WILL BAPTIST CHURCH","Address":"412 WIGGINS AVE","City":"PENSACOLA","Zip":"32505","COUNTY":"ESCAMBIA","X":-87.268101590000001,"Y":30.41707834,"LONGLAT":"-87.26810159,30.41707834","USNG":"16R DU 74250 65032","OWNERSHIP":null,"PARCELID":"342S300950000030","FACILITY_TYPE":"FAITH-BASED FACILITY"}},{"type":"Feature","id":3,"geometry":{"type":"Point","coordinates":[-80.281939484296743,26.269439461248393]},"properties":{"OBJECTID":3,"Name":"CYPRESS SPRINGS BAPTIST CHURCH","Address":" ","City":"POMPANO BEACH","Zip":"33065","COUNTY":"BROWARD","X":-80.281939480000005,"Y":26.269439460000001,"LONGLAT":"-80.28193948,26.26943946","USNG":"17R NK 71698 05721","OWNERSHIP":null,"PARCELID":"484120BJ0000","FACILITY_TYPE":"FAITH-BASED FACILITY"}},{"type":"Feature","id":4,"geometry":{"type":"Point","coordinates":[-81.466683729034358,29.237852995368485]},"properties":{"OBJECTID":4,"Name":"EBENEZER LUTHERAN CHURCH","Address":"139 S VOLUSIA AVE","City":"PIERSON","Zip":"32180","COUNTY":"VOLUSIA","X":-81.46668373,"Y":29.237853000000001,"LONGLAT":"-81.46668373,29.23785300","USNG":"17R MN 54649 34428","OWNERSHIP":null,"PARCELID":null,"FACILITY_TYPE":"FAITH-BASED FACILITY"}},{"type":"Feature","id":5,"geometry":{"type":"Point","coordinates":[-81.591900928746981,30.156648644065971]},"properties":{"OBJECTID":5,"Name":"FIRST SOUTHERN BAPTIST CHURCH","Address":"12021 OLD ST AUGUSTINE RD","City":"JACKSONVILLE","Zip":"32258","COUNTY":"DUVAL","X":-81.591900929999994,"Y":30.15664864,"LONGLAT":"-81.59190093,30.15664864","USNG":"17R MP 43001 36291","OWNERSHIP":null,"PARCELID":"1580690010R","FACILITY_TYPE":"FAITH-BASED FACILITY"}},{"type":"Feature","id":6,"geometry":{"type":"Point","coordinates":[-82.622331202260071,30.126376261889931]},"properties":{"OBJECTID":6,"Name":"BETHEL UNITED METHODIST CHURCH","Address":"4843 S US HWY 441 ","City":"LAKE CITY","Zip":"32025","COUNTY":"COLUMBIA","X":-82.622331200000005,"Y":30.126376260000001,"LONGLAT":"-82.62233120,30.12637626","USNG":"17R LP 43718 33899","OWNERSHIP":null,"PARCELID":"21-4S-17-08629-000","FACILITY_TYPE":"FAITH-BASED FACILITY"}},{"type":"Feature","id":7,"geometry":{"type":"Point","coordinates":[-80.062694342623061,26.79876779946964]},"properties":{"OBJECTID":7,"Name":"COMMUNITY UNITED CHURCH OF CHRIST","Address":"730 5TH STREET ","City":"LAKE PARK ","Zip":"33403","COUNTY":"PALM BEACH","X":-80.062694339999993,"Y":26.7987678,"LONGLAT":"-80.06269434,26.79876780","USNG":"17R NK 93162 64490","OWNERSHIP":null,"PARCELID":null,"FACILITY_TYPE":"FAITH-BASED FACILITY"}},{"type":"Feature","id":8,"geometry":{"type":"Point","coordinates":[-81.413342153168145,28.690800557020047]},"properties":{"OBJECTID":8,"Name":"SWEETWATER EPISCOPAL CHURCH","Address":"251 E LAKE BRANTLEY DR","City":"LONGWOOD","Zip":"32779","COUNTY":"SEMINOLE","X":-81.413342150000005,"Y":28.69080056,"LONGLAT":"-81.41334215,28.69080056","USNG":"17R MM 59621 73799","OWNERSHIP":null,"PARCELID":null,"FACILITY_TYPE":"FAITH-BASED FACILITY"}},{"type":"Feature","id":9,"geometry":{"type":"Point","coordinates":[-80.15977843137361,26.239467074719943]},"properties":{"OBJECTID":9,"Name":"MOUNT PISGAH BAPTIST CHURCH","Address":"891 NORTHWEST 27TH AVENUE ","City":"POMPANO BEACH","Zip":"33069","COUNTY":"BROWARD","X":-80.159778430000003,"Y":26.239467080000001,"LONGLAT":"-80.15977843,26.23946708","USNG":"17R NK 83918 02475","OWNERSHIP":null,"PARCELID":"484233051700","FACILITY_TYPE":"FAITH-BASED FACILITY"}},{"type":"Feature","id":10,"geometry":{"type":"Point","coordinates":[-80.067170637262947,26.534614973365585]},"properties":{"OBJECTID":10,"Name":"NEW MT ZION MISSIONARY","Address":"221 NW 8TH AVE","City":"BOYNTON BEACH","Zip":"33435","COUNTY":"PALM BEACH","X":-80.067170640000001,"Y":26.53461497,"LONGLAT":"-80.06717064,26.53461497","USNG":"17R NK 92931 35229","OWNERSHIP":null,"PARCELID":"08434521070041600","FACILITY_TYPE":"FAITH-BASED FACILITY"}},{"type":"Feature","id":11,"geometry":{"type":"Point","coordinates":[-81.310283082040996,28.250161124964769]},"properties":{"OBJECTID":11,"Name":"SAINT THOMAS AQUINAS CATHOLIC CHURCH","Address":"700 BROWN CHAPEL ROAD","City":"SAINT CLOUD","Zip":"34769","COUNTY":"OSCEOLA","X":-81.310283080000005,"Y":28.250161129999999,"LONGLAT":"-81.31028308,28.25016113","USNG":"17R MM 69562 24953","OWNERSHIP":null,"PARCELID":"04-26-30-00U0-0050-0000","FACILITY_TYPE":"FAITH-BASED FACILITY"}},{"type":"Feature","id":12,"geometry":{"type":"Point","coordinates":[-81.362499581102682,26.108329485263869]},"properties":{"OBJECTID":12,"Name":"HOLDEN PARK BRETHREN IN CHRIST CHURCH","Address":" ","City":"NAPLES","Zip":"34117","COUNTY":"COLLIER","X":-81.362499580000005,"Y":26.108329489999999,"LONGLAT":"-81.36249958,26.10832949","USNG":"17R MJ 63755 87731","OWNERSHIP":null,"PARCELID":"00500600007","FACILITY_TYPE":"FAITH-BASED FACILITY"}},{"type":"Feature","id":13,"geometry":{"type":"Point","coordinates":[-80.124078892351676,26.23357690252238]},"properties":{"OBJECTID":13,"Name":"ST SAVIOUR CHURCH","Address":"216 NE 1 AVENUE","City":"POMPANO BEACH","Zip":"33060","COUNTY":"BROWARD","X":-80.124078890000007,"Y":26.233576899999999,"LONGLAT":"-80.12407889,26.23357690","USNG":"17R NK 87488 01847","OWNERSHIP":null,"PARCELID":null,"FACILITY_TYPE":"FAITH-BASED FACILITY"}},{"type":"Feature","id":14,"geometry":{"type":"Point","coordinates":[-82.470194051923315,28.018397431398817]},"properties":{"OBJECTID":14,"Name":"FIRST ADVENT CHRISTIAN CHURCH","Address":"919 W KIRBY ST","City":"TAMPA","Zip":"33604","COUNTY":"HILLSBOROUGH","X":-82.470194050000003,"Y":28.01839743,"LONGLAT":"-82.47019405,28.01839743","USNG":"17R LM 55462 00111","OWNERSHIP":null,"PARCELID":null,"FACILITY_TYPE":"FAITH-BASED FACILITY"}},{"type":"Feature","id":15,"geometry":{"type":"Point","coordinates":[-82.284967874998159,27.906744502719153]},"properties":{"OBJECTID":15,"Name":"BRANDON FELLOWSHIP BAPTIST CHURCH","Address":"2700 JOHN MOORE RD","City":"BRANDON","Zip":"33511","COUNTY":"HILLSBOROUGH","X":-82.284967870000003,"Y":27.906744499999999,"LONGLAT":"-82.28496787,27.90674450","USNG":"17R LL 73544 87535","OWNERSHIP":null,"PARCELID":"203002ZZZ000002768100U","FACILITY_TYPE":"FAITH-BASED FACILITY"}},{"type":"Feature","id":16,"geometry":{"type":"Point","coordinates":[-82.330047771017576,29.654936089026755]},"properties":{"OBJECTID":16,"Name":"CHURCH OF GOD OF GAINESVILLE","Address":"512 NW 4TH AVE","City":"GAINESVILLE","Zip":"32601","COUNTY":"ALACHUA","X":-82.330047769999993,"Y":29.65493609,"LONGLAT":"-82.33004777,29.65493609","USNG":"17R LN 71272 81289","OWNERSHIP":null,"PARCELID":"14513 000 000","FACILITY_TYPE":"FAITH-BASED FACILITY"}},{"type":"Feature","id":17,"geometry":{"type":"Point","coordinates":[-82.649638730579156,28.279777124117818]},"properties":{"OBJECTID":17,"Name":"FAITH BAPTIST CHURCH","Address":"10005 RIDGE RD","City":"NEW PORT RICHEY","Zip":"34654","COUNTY":"PASCO","X":-82.649638730000007,"Y":28.279777119999999,"LONGLAT":"-82.64963873,28.27977712","USNG":"17R LM 38211 29299","OWNERSHIP":null,"PARCELID":"1725300000001000020","FACILITY_TYPE":"FAITH-BASED FACILITY"}},{"type":"Feature","id":18,"geometry":{"type":"Point","coordinates":[-82.032851781987276,28.562748235071457]},"properties":{"OBJECTID":18,"Name":"CHURCH OF GOD OF LINDEN","Address":"4319 COUNTY ROAD 772","City":"WEBSTER","Zip":"33597","COUNTY":"SUMTER","X":-82.032851780000001,"Y":28.562748240000001,"LONGLAT":"-82.03285178,28.56274824","USNG":"17R LM 98976 59978","OWNERSHIP":null,"PARCELID":"T20A040","FACILITY_TYPE":"FAITH-BASED FACILITY"}},{"type":"Feature","id":19,"geometry":{"type":"Point","coordinates":[-82.683593013837452,28.330769081489315]},"properties":{"OBJECTID":19,"Name":"ST. MARKS PRESBYTERIAN CHURCH","Address":"7922 STATE ROAD 52","City":"PORT RICHEY","Zip":"34668","COUNTY":"PASCO","X":-82.683593009999996,"Y":28.33076908,"LONGLAT":"-82.68359301,28.33076908","USNG":"17R LM 34959 34995","OWNERSHIP":null,"PARCELID":"1625100050001000000","FACILITY_TYPE":"FAITH-BASED FACILITY"}},{"type":"Feature","id":20,"geometry":{"type":"Point","coordinates":[-81.732727590579529,30.411412818644624]},"properties":{"OBJECTID":20,"Name":"GRANT MEMORIAL AME CHURCH","Address":"5533 GILCHRIST RD","City":"JACKSONVILLE","Zip":"32219","COUNTY":"DUVAL","X":-81.732727589999996,"Y":30.411412819999999,"LONGLAT":"-81.73272759,30.41141282","USNG":"17R MP 29622 64602","OWNERSHIP":null,"PARCELID":"0399600010R","FACILITY_TYPE":"FAITH-BASED FACILITY"}},{"type":"Feature","id":21,"geometry":{"type":"Point","coordinates":[-80.330355912322304,27.450839730074694]},"properties":{"OBJECTID":21,"Name":"MT MORIAH PRIMITIVE BAPTIST CH","Address":"418 N 8th St","City":"FORT PIERCE","Zip":"34950","COUNTY":"ST. LUCIE","X":-80.330355909999994,"Y":27.450839729999998,"LONGLAT":"-80.33035591,27.45083973","USNG":"17R NL 66172 36549","OWNERSHIP":null,"PARCELID":"2410-601-0206-000-4","FACILITY_TYPE":"FAITH-BASED FACILITY"}},{"type":"Feature","id":22,"geometry":{"type":"Point","coordinates":[-82.337259994953939,27.780672520614626]},"properties":{"OBJECTID":22,"Name":"SIMMONS LOOP BAPTIST CHURCH","Address":"6610 SIMMONS LOOP","City":"RIVERVIEW","Zip":" ","COUNTY":"HILLSBOROUGH","X":-82.337259990000007,"Y":27.78067252,"LONGLAT":"-82.33725999,27.78067252","USNG":"17R LL 68245 73623","OWNERSHIP":null,"PARCELID":null,"FACILITY_TYPE":"FAITH-BASED FACILITY"}},{"type":"Feature","id":23,"geometry":{"type":"Point","coordinates":[-81.063371966897961,29.210499021941875]},"properties":{"OBJECTID":23,"Name":"CHURCH OF GOD GENERAL ASSEMBLY","Address":"753 TENNESSEE ST","City":"DAYTONA BEACH","Zip":"32114","COUNTY":"VOLUSIA","X":-81.063371970000006,"Y":29.21049902,"LONGLAT":"-81.06337197,29.21049902","USNG":"17R MN 93840 31309","OWNERSHIP":null,"PARCELID":null,"FACILITY_TYPE":"FAITH-BASED FACILITY"}},{"type":"Feature","id":24,"geometry":{"type":"Point","coordinates":[-81.798115059580297,30.248080928551964]},"properties":{"OBJECTID":24,"Name":"ONE HUNDRED THIRD STREET BAPTIST CHURCH","Address":"8819 103RD ST","City":"JACKSONVILLE","Zip":"32210","COUNTY":"DUVAL","X":-81.798115060000001,"Y":30.24808093,"LONGLAT":"-81.79811506,30.24808093","USNG":"17R MP 23214 46544","OWNERSHIP":null,"PARCELID":"0130700000R","FACILITY_TYPE":"FAITH-BASED FACILITY"}},{"type":"Feature","id":25,"geometry":{"type":"Point","coordinates":[-84.28239393530022,30.442357997230552]},"properties":{"OBJECTID":25,"Name":"FIRST PRESBYTERIAN CHURCH OF TALLAHASSEE","Address":"110 N ADAMS ST","City":"TALLAHASSEE","Zip":"32301","COUNTY":"LEON","X":-84.282393940000006,"Y":30.442357999999999,"LONGLAT":"-84.28239394,30.44235800","USNG":"16R GU 60984 70941","OWNERSHIP":null,"PARCELID":null,"FACILITY_TYPE":"FAITH-BASED FACILITY"}},{"type":"Feature","id":26,"geometry":{"type":"Point","coordinates":[-85.618533786871382,30.985698939938629]},"properties":{"OBJECTID":26,"Name":"NOMA ASSEMBLY OF GOD","Address":"1062 TINDELL ST","City":"BONIFAY","Zip":"32425","COUNTY":"HOLMES","X":-85.618533790000001,"Y":30.985698939999999,"LONGLAT":"-85.61853379,30.98569894","USNG":"16R FV 31908 28835","OWNERSHIP":null,"PARCELID":"0327.01-001-00V-003.000","FACILITY_TYPE":"FAITH-BASED FACILITY"}},{"type":"Feature","id":27,"geometry":{"type":"Point","coordinates":[-82.696578790502059,27.846057486417166]},"properties":{"OBJECTID":27,"Name":"CATHOLIC CHURCH OF PINELLAS PARK","Address":"4661 N 80TH AVE ","City":"PINELLAS PARK ","Zip":"33781","COUNTY":"PINELLAS","X":-82.696578790000004,"Y":27.84605749,"LONGLAT":"-82.69657879,27.84605749","USNG":"17R LL 32937 81305","OWNERSHIP":null,"PARCELID":null,"FACILITY_TYPE":"FAITH-BASED FACILITY"}},{"type":"Feature","id":28,"geometry":{"type":"Point","coordinates":[-81.29886070422485,28.247498169208541]},"properties":{"OBJECTID":28,"Name":"GRACE LUTHERAN CHURCH","Address":"1123 LOUISIANA AVE","City":"ST CLOUD","Zip":"34769","COUNTY":"OSCEOLA","X":-81.298860700000006,"Y":28.24749817,"LONGLAT":"-81.29886070,28.24749817","USNG":"17R MM 70682 24655","OWNERSHIP":null,"PARCELID":null,"FACILITY_TYPE":"FAITH-BASED FACILITY"}},{"type":"Feature","id":29,"geometry":{"type":"Point","coordinates":[-82.827673319511334,27.879143229460954]},"properties":{"OBJECTID":29,"Name":"LARGO WESTSIDE CHURCH OF THE NAZARENE","Address":"11633 137TH ST ","City":"LARGO ","Zip":"33774","COUNTY":"PINELLAS","X":-82.827673320000002,"Y":27.87914323,"LONGLAT":"-82.82767332,27.87914323","USNG":"17R LL 20081 85156","OWNERSHIP":null,"PARCELID":null,"FACILITY_TYPE":"FAITH-BASED FACILITY"}},{"type":"Feature","id":30,"geometry":{"type":"Point","coordinates":[-84.278318628177743,30.396337424248756]},"properties":{"OBJECTID":30,"Name":"HAYWARD CATES BAPTIST CHURCH","Address":"3625 WOODVILLE HWY","City":"TALLAHASSEE","Zip":"32305","COUNTY":"LEON","X":-84.278318630000001,"Y":30.396337429999999,"LONGLAT":"-84.27831863,30.39633743","USNG":"16R GU 61498 65848","OWNERSHIP":null,"PARCELID":null,"FACILITY_TYPE":"FAITH-BASED FACILITY"}},{"type":"Feature","id":31,"geometry":{"type":"Point","coordinates":[-86.021024086937842,30.765223856594886]},"properties":{"OBJECTID":31,"Name":"BRIDGE CREEK BAPTIST CHURCH","Address":"2560 HIGHWAY 183A","City":"PONCE DE LEON","Zip":"32455","COUNTY":"HOLMES","X":-86.021024089999997,"Y":30.765223859999999,"LONGLAT":"-86.02102409,30.76522386","USNG":"16R EV 93689 03992","OWNERSHIP":null,"PARCELID":"2210.00-000-000-013.000","FACILITY_TYPE":"FAITH-BASED FACILITY"}},{"type":"Feature","id":32,"geometry":{"type":"Point","coordinates":[-81.943609607925012,28.61805944251001]},"properties":{"OBJECTID":32,"Name":"TUSCANOOGA CHURCH","Address":" ","City":"GROVELAND","Zip":"34736","COUNTY":"LAKE","X":-81.943609609999996,"Y":28.61805944,"LONGLAT":"-81.94360961,28.61805944","USNG":"17R MM 07754 66034","OWNERSHIP":null,"PARCELID":"312124000100003300","FACILITY_TYPE":"FAITH-BASED FACILITY"}},{"type":"Feature","id":33,"geometry":{"type":"Point","coordinates":[-87.222748065224607,30.430460861742553]},"properties":{"OBJECTID":33,"Name":"JESUS ONLY APOSTOLIC","Address":"211 W LAKEVIEW AVE","City":"PENSACOLA","Zip":"32501","COUNTY":"ESCAMBIA","X":-87.222748069999994,"Y":30.43046086,"LONGLAT":"-87.22274807,30.43046086","USNG":"16R DU 78609 66506","OWNERSHIP":null,"PARCELID":"000S009010011109","FACILITY_TYPE":"FAITH-BASED FACILITY"}},{"type":"Feature","id":34,"geometry":{"type":"Point","coordinates":[-81.859812065838767,27.223921465637208]},"properties":{"OBJECTID":34,"Name":"CHURCH OF THE NAZARENE","Address":"132 WEST GIBSON ST","City":"ARCADIA","Zip":" ","COUNTY":"DESOTO","X":-81.859812070000004,"Y":27.223921470000001,"LONGLAT":"-81.85981207,27.22392147","USNG":"17R ML 14861 11529","OWNERSHIP":null,"PARCELID":null,"FACILITY_TYPE":"FAITH-BASED FACILITY"}},{"type":"Feature","id":35,"geometry":{"type":"Point","coordinates":[-80.223661701206382,25.847338179467712]},"properties":{"OBJECTID":35,"Name":"S FL DIST CH OF THE NAZARENE","Address":"7940 NW 15 AVE","City":"MIAMI","Zip":"33147","COUNTY":"MIAMI-DADE","X":-80.223661699999994,"Y":25.847338180000001,"LONGLAT":"-80.22366170,25.84733818","USNG":"17R NJ 77795 59007","OWNERSHIP":null,"PARCELID":"3031110170230","FACILITY_TYPE":"FAITH-BASED FACILITY"}},{"type":"Feature","id":36,"geometry":{"type":"Point","coordinates":[-81.858916113971205,27.205845907258777]},"properties":{"OBJECTID":36,"Name":"IGLESIA CRISTIANA PACTO DE FE","Address":"1226 SW HILLSBOROUGH AVE","City":"ARCADIA","Zip":" ","COUNTY":"DESOTO","X":-81.858916109999996,"Y":27.205845910000001,"LONGLAT":"-81.85891611,27.20584591","USNG":"17R ML 14936 09526","OWNERSHIP":null,"PARCELID":null,"FACILITY_TYPE":"FAITH-BASED FACILITY"}},{"type":"Feature","id":37,"geometry":{"type":"Point","coordinates":[-81.027002387216541,24.729261479783549]},"properties":{"OBJECTID":37,"Name":"SAN PABLO CATHOLIC CHURCH","Address":"550 122ND ST OCEAN","City":"MARATHON","Zip":"33050","COUNTY":"MONROE","X":-81.027002390000007,"Y":24.729261480000002,"LONGLAT":"-81.02700239,24.72926148","USNG":"17R MH 97269 34970","OWNERSHIP":null,"PARCELID":"0566 33 00100450000000","FACILITY_TYPE":"FAITH-BASED FACILITY"}},{"type":"Feature","id":38,"geometry":{"type":"Point","coordinates":[-81.494093132694346,29.962262664118526]},"properties":{"OBJECTID":38,"Name":"GOLF VILLAGE CHURCH","Address":"4229 PACETTI ROAD","City":"SAINT AUGUSTINE","Zip":"32092","COUNTY":"ST. JOHNS","X":-81.494093129999996,"Y":29.96226266,"LONGLAT":"-81.49409313,29.96226266","USNG":"17R MP 52327 14706","OWNERSHIP":null,"PARCELID":null,"FACILITY_TYPE":"FAITH-BASED FACILITY"}},{"type":"Feature","id":39,"geometry":{"type":"Point","coordinates":[-82.800277547642835,27.964321128055229]},"properties":{"OBJECTID":39,"Name":"PEACE MEMORIAL PRESBYTERIAN CHURCH","Address":"110 S FORT HARRISON AVE","City":"CLEARWATER","Zip":"33756","COUNTY":"PINELLAS","X":-82.800277550000004,"Y":27.964321129999998,"LONGLAT":"-82.80027755,27.96432113","USNG":"17R LL 22917 94554","OWNERSHIP":null,"PARCELID":"15 29 16 20358 002 0160","FACILITY_TYPE":"FAITH-BASED FACILITY"}},{"type":"Feature","id":40,"geometry":{"type":"Point","coordinates":[-81.676779343124096,28.853261639706457]},"properties":{"OBJECTID":40,"Name":"FAMILY BIBLE CHURCH INC","Address":" ","City":"EUSTIS","Zip":"32726","COUNTY":"LAKE","X":-81.676779339999996,"Y":28.853261639999999,"LONGLAT":"-81.67677934,28.85326164","USNG":"17R MM 33988 91916","OWNERSHIP":null,"PARCELID":"111926010004700000","FACILITY_TYPE":"FAITH-BASED FACILITY"}},{"type":"Feature","id":41,"geometry":{"type":"Point","coordinates":[-80.844572615423843,28.571895673375781]},"properties":{"OBJECTID":41,"Name":"ST SIMEON ORTHODOX CATHOLIC","Address":"3175 SATTERFIELD RD","City":"TITUSVILLE","Zip":"32780","COUNTY":"BREVARD","X":-80.844572619999994,"Y":28.57189567,"LONGLAT":"-80.84457262,28.57189567","USNG":"17R NM 15200 60566","OWNERSHIP":"OTHER PUBLIC","PARCELID":"22 3520AV        14","FACILITY_TYPE":"FAITH-BASED FACILITY"}},{"type":"Feature","id":42,"geometry":{"type":"Point","coordinates":[-80.193059502198494,25.84027942765465]},"properties":{"OBJECTID":42,"Name":"CHURCH OF THE ASCENSION","Address":" ","City":"MIAMI","Zip":"33138","COUNTY":"MIAMI-DADE","X":-80.193059500000004,"Y":25.840279429999999,"LONGLAT":"-80.19305950,25.84027943","USNG":"17R NJ 80867 58244","OWNERSHIP":"COUNTY","PARCELID":"0131120970010","FACILITY_TYPE":"FAITH-BASED FACILITY"}},{"type":"Feature","id":43,"geometry":{"type":"Point","coordinates":[-82.722219560761829,27.761109474221044]},"properties":{"OBJECTID":43,"Name":"BETHEL LUTHERAN CHURCH","Address":" ","City":"SAINT PETERSBURG","Zip":"33707","COUNTY":"PINELLAS","X":-82.722219559999999,"Y":27.761109470000001,"LONGLAT":"-82.72221956,27.76110947","USNG":"17R LL 30280 71928","OWNERSHIP":null,"PARCELID":"16 31 29 67050 029 0200","FACILITY_TYPE":"FAITH-BASED FACILITY"}},{"type":"Feature","id":44,"geometry":{"type":"Point","coordinates":[-80.325271176122712,25.893430543318832]},"properties":{"OBJECTID":44,"Name":"HIALEAH CHURCH OF CHRIST","Address":"7700 W 20 AVE","City":"HIALEAH","Zip":"33016","COUNTY":"MIAMI-DADE","X":-80.325271180000001,"Y":25.893430540000001,"LONGLAT":"-80.32527118,25.89343054","USNG":"17R NJ 67587 64055","OWNERSHIP":null,"PARCELID":null,"FACILITY_TYPE":"FAITH-BASED FACILITY"}},{"type":"Feature","id":45,"geometry":{"type":"Point","coordinates":[-81.324492272633307,29.066222338125641]},"properties":{"OBJECTID":45,"Name":"DELAND OPEN BIBLE CHURCH INC","Address":"2179 N SPRING GARDEN AV","City":"DELAND","Zip":"32720","COUNTY":"VOLUSIA","X":-81.324492269999993,"Y":29.066222339999999,"LONGLAT":"-81.32449227,29.06622234","USNG":"17R MN 68414 15365","OWNERSHIP":null,"PARCELID":"30163200000500","FACILITY_TYPE":"FAITH-BASED FACILITY"}},{"type":"Feature","id":46,"geometry":{"type":"Point","coordinates":[-82.332946702317173,29.68873366404776]},"properties":{"OBJECTID":46,"Name":"JESUS PEOPLE LIFE CHANGING MISSION","Address":"808 NW 39TH AVE","City":"GAINESVILLE","Zip":"32609","COUNTY":"ALACHUA","X":-82.332946699999994,"Y":29.68873366,"LONGLAT":"-82.33294670,29.68873366","USNG":"17R LN 71035 85038","OWNERSHIP":null,"PARCELID":"08055 058 000","FACILITY_TYPE":"FAITH-BASED FACILITY"}},{"type":"Feature","id":47,"geometry":{"type":"Point","coordinates":[-80.72800238808793,28.231292220633101]},"properties":{"OBJECTID":47,"Name":"TEMPLE ISRAEL OF BREVARD COUNT","Address":"7350 LAKE ANDREW DR","City":"ROCKLEDGE","Zip":"32955","COUNTY":"BREVARD","X":-80.72800239,"Y":28.23129222,"LONGLAT":"-80.72800239,28.23129222","USNG":"17R NM 26686 22854","OWNERSHIP":"OTHER PUBLIC","PARCELID":"26 360900  754","FACILITY_TYPE":"FAITH-BASED FACILITY"}},{"type":"Feature","id":48,"geometry":{"type":"Point","coordinates":[-82.151512942661157,28.261845859756146]},"properties":{"OBJECTID":48,"Name":"TRUE REVIVAL MINISTRIES","Address":"7124 FORBES RD","City":"ZEPHYRHILLS","Zip":"33540","COUNTY":"PASCO","X":-82.151512940000003,"Y":28.261845860000001,"LONGLAT":"-82.15151294,28.26184586","USNG":"17R LM 87050 26746","OWNERSHIP":null,"PARCELID":"2225310000016000000","FACILITY_TYPE":"FAITH-BASED FACILITY"}},{"type":"Feature","id":49,"geometry":{"type":"Point","coordinates":[-82.356904368508779,26.954593446574162]},"properties":{"OBJECTID":49,"Name":"COMMUNITY PRESBYTERIAN CHURCH","Address":"405 SOUTH MCCALL RD","City":"ENGLEWOOD","Zip":"34223","COUNTY":"SARASOTA","X":-82.356904369999995,"Y":26.954593450000001,"LONGLAT":"-82.35690437,26.95459345","USNG":"17R LK 65312 82129","OWNERSHIP":null,"PARCELID":"0504-01-0061","FACILITY_TYPE":"FAITH-BASED FACILITY"}},{"type":"Feature","id":50,"geometry":{"type":"Point","coordinates":[-84.273068987251847,30.449294527447293]},"properties":{"OBJECTID":50,"Name":"BLESSED SACRAMENT CATHOLIC CHURCH","Address":"653 MICCOSUKEE RD","City":"TALLAHASSEE","Zip":"32308","COUNTY":"LEON","X":-84.273068989999999,"Y":30.44929453,"LONGLAT":"-84.27306899,30.44929453","USNG":"16R GU 61861 71732","OWNERSHIP":null,"PARCELID":"1129209040000","FACILITY_TYPE":"FAITH-BASED FACILITY"}},{"type":"Feature","id":51,"geometry":{"type":"Point","coordinates":[-82.424715953220087,27.977439448015467]},"properties":{"OBJECTID":51,"Name":"NEW FRIENDSHIP MISSIONARY BAPT","Address":"3107 E LAKE AV","City":"TAMPA","Zip":"33605","COUNTY":"HILLSBOROUGH","X":-82.424715950000007,"Y":27.977439449999999,"LONGLAT":"-82.42471595,27.97743945","USNG":"17R LL 59881 95520","OWNERSHIP":null,"PARCELID":"1929084N6000007000010A","FACILITY_TYPE":"FAITH-BASED FACILITY"}},{"type":"Feature","id":52,"geometry":{"type":"Point","coordinates":[-81.047530973842072,29.265019953624918]},"properties":{"OBJECTID":52,"Name":"ORMOND BEACH FIRST CHRISTIAN CHURCH","Address":"50 SEVILLE ST","City":"ORMOND BEACH","Zip":"32174","COUNTY":"VOLUSIA","X":-81.047530969999997,"Y":29.265019949999999,"LONGLAT":"-81.04753097,29.26501995","USNG":"17R MN 95382 37349","OWNERSHIP":null,"PARCELID":"32144220220010","FACILITY_TYPE":"FAITH-BASED FACILITY"}},{"type":"Feature","id":53,"geometry":{"type":"Point","coordinates":[-82.450825364623313,28.011328074984348]},"properties":{"OBJECTID":53,"Name":"SAINT FRANCIS EPISCOPAL CHURCH","Address":"6907 N NEBRASKA AVE","City":"TAMPA","Zip":"33604","COUNTY":"HILLSBOROUGH","X":-82.450825359999996,"Y":28.011328079999998,"LONGLAT":"-82.45082536,28.01132808","USNG":"17R LL 57357 99305","OWNERSHIP":null,"PARCELID":"192830ZZZ000005866500A","FACILITY_TYPE":"FAITH-BASED FACILITY"}},{"type":"Feature","id":54,"geometry":{"type":"Point","coordinates":[-84.268889581105881,30.467219548308424]},"properties":{"OBJECTID":54,"Name":"THOMASVILLE ROAD CHURCH","Address":" ","City":"TALLAHASSEE","Zip":"32303","COUNTY":"LEON","X":-84.268889580000007,"Y":30.467219549999999,"LONGLAT":"-84.26888958,30.46721955","USNG":"16R GU 62215 73729","OWNERSHIP":null,"PARCELID":"1119206150000","FACILITY_TYPE":"FAITH-BASED FACILITY"}},{"type":"Feature","id":55,"geometry":{"type":"Point","coordinates":[-81.502405413487807,28.669706117116768]},"properties":{"OBJECTID":55,"Name":"APOPKA CHURCH OF CHRIST","Address":"650 ALABAMA AVE","City":"APOPKA","Zip":"32703","COUNTY":"ORANGE","X":-81.502405409999994,"Y":28.669706120000001,"LONGLAT":"-81.50240541,28.66970612","USNG":"17R MM 50910 71496","OWNERSHIP":null,"PARCELID":"282110000000053","FACILITY_TYPE":"FAITH-BASED FACILITY"}},{"type":"Feature","id":56,"geometry":{"type":"Point","coordinates":[-83.785735776372903,30.332694264047017]},"properties":{"OBJECTID":56,"Name":"MOUNT OLIVE BAPTIST CHURCH","Address":"694 SW MT OLIVE CHURCH RD","City":"GREENVILLE","Zip":"32331","COUNTY":"MADISON","X":-83.785735779999996,"Y":30.33269426,"LONGLAT":"-83.78573578,30.33269426","USNG":"17R KP 32170 58941","OWNERSHIP":null,"PARCELID":"12-2S-05-0050-001-000","FACILITY_TYPE":"FAITH-BASED FACILITY"}},{"type":"Feature","id":57,"geometry":{"type":"Point","coordinates":[-80.073868649936927,26.484933608807804]},"properties":{"OBJECTID":57,"Name":"CHURCH OF THE PALMS","Address":"1960 N SWINTON AVE","City":"DELRAY BEACH","Zip":"33444","COUNTY":"PALM BEACH","X":-80.073868649999994,"Y":26.484933609999999,"LONGLAT":"-80.07386865,26.48493361","USNG":"17R NK 92303 29721","OWNERSHIP":null,"PARCELID":"12434605020000510","FACILITY_TYPE":"FAITH-BASED FACILITY"}},{"type":"Feature","id":58,"geometry":{"type":"Point","coordinates":[-82.392592972795256,29.660057523023372]},"properties":{"OBJECTID":58,"Name":"UNIVERSITY AVENUE CHURCH OF CHRIST","Address":"4626 NW 8TH AVE","City":"GAINESVILLE","Zip":"32605","COUNTY":"ALACHUA","X":-82.392592969999995,"Y":29.660057519999999,"LONGLAT":"-82.39259297,29.66005752","USNG":"17R LN 65225 81928","OWNERSHIP":null,"PARCELID":"06375 010 000","FACILITY_TYPE":"FAITH-BASED FACILITY"}},{"type":"Feature","id":59,"geometry":{"type":"Point","coordinates":[-82.097798374494374,29.169675296193294]},"properties":{"OBJECTID":59,"Name":"FIRST BAPTIST CHURCH OF OCALA","Address":"2801 SE MARICAMP RD","City":"OCALA","Zip":"34471","COUNTY":"MARION","X":-82.097798370000007,"Y":29.169675300000002,"LONGLAT":"-82.09779837,29.16967530","USNG":"17R LN 93246 27282","OWNERSHIP":null,"PARCELID":"29505-011-00","FACILITY_TYPE":"FAITH-BASED FACILITY"}},{"type":"Feature","id":60,"geometry":{"type":"Point","coordinates":[-81.365446394201783,27.301759578478091]},"properties":{"OBJECTID":60,"Name":"TRINITY LUTHERAN CHURCH","Address":"25 LAKEVIEW STREET","City":"LAKE PLACID","Zip":"33852","COUNTY":"HIGHLANDS","X":-81.365446390000002,"Y":27.301759579999999,"LONGLAT":"-81.36544639,27.30175958","USNG":"17R ML 63839 19911","OWNERSHIP":null,"PARCELID":null,"FACILITY_TYPE":"FAITH-BASED FACILITY"}},{"type":"Feature","id":61,"geometry":{"type":"Point","coordinates":[-81.438890053750939,28.202671707275289]},"properties":{"OBJECTID":61,"Name":"POINCIANA CHRISTIAN CHURCH","Address":"3181 PLEASANT HILL RD","City":"KISSIMMEE","Zip":"34746","COUNTY":"OSCEOLA","X":-81.438890049999998,"Y":28.202671710000001,"LONGLAT":"-81.43889005,28.20267171","USNG":"17R MM 56927 19731","OWNERSHIP":null,"PARCELID":"20-26-29-0000-0025-0000","FACILITY_TYPE":"FAITH-BASED FACILITY"}},{"type":"Feature","id":62,"geometry":{"type":"Point","coordinates":[-80.180174515224564,25.965220368890723]},"properties":{"OBJECTID":62,"Name":"IVES DAIRY ROAD BAPTIST CHURCH","Address":"1121 NE 205TH TER","City":"MIAMI","Zip":"33179","COUNTY":"MIAMI-DADE","X":-80.180174519999994,"Y":25.965220370000001,"LONGLAT":"-80.18017452,25.96522037","USNG":"17R NJ 82072 72089","OWNERSHIP":null,"PARCELID":"3012320000100","FACILITY_TYPE":"FAITH-BASED FACILITY"}},{"type":"Feature","id":63,"geometry":{"type":"Point","coordinates":[-81.387646971962795,28.696945622518825]},"properties":{"OBJECTID":63,"Name":"CHURCH NEIGHBORHOOD ALNC OF CH","Address":" ","City":"LONGWOOD","Zip":"32779","COUNTY":"SEMINOLE","X":-81.387646970000006,"Y":28.696945620000001,"LONGLAT":"-81.38764697,28.69694562","USNG":"17R MM 62133 74472","OWNERSHIP":null,"PARCELID":"02212930000800000","FACILITY_TYPE":"FAITH-BASED FACILITY"}},{"type":"Feature","id":64,"geometry":{"type":"Point","coordinates":[-82.451267943595184,29.89370257914932]},"properties":{"OBJECTID":64,"Name":"ST JOHNS UNITED METHODIST CHURCH","Address":"26000 NW COUNTY ROAD 239","City":"ALACHUA","Zip":"32615","COUNTY":"ALACHUA","X":-82.451267939999994,"Y":29.893702579999999,"LONGLAT":"-82.45126794,29.89370258","USNG":"17R LP 59872 07891","OWNERSHIP":null,"PARCELID":"05334 005 000","FACILITY_TYPE":"FAITH-BASED FACILITY"}},{"type":"Feature","id":65,"geometry":{"type":"Point","coordinates":[-84.700816415009697,30.368147605106909]},"properties":{"OBJECTID":65,"Name":"BLUE CREEK METHODIST CHURCH","Address":"27136 BOB DUGGAR RD NE","City":"HOSFORD","Zip":"32334","COUNTY":"LIBERTY","X":-84.700816419999995,"Y":30.368147610000001,"LONGLAT":"-84.70081642,30.36814761","USNG":"16R GU 20957 61822","OWNERSHIP":null,"PARCELID":"026-1S-5W-00150 000","FACILITY_TYPE":"FAITH-BASED FACILITY"}},{"type":"Feature","id":66,"geometry":{"type":"Point","coordinates":[-81.437450473934447,26.558711235837908]},"properties":{"OBJECTID":66,"Name":"MOUNT ZION BAPTIST CHURCH","Address":"101 CHURCH RD","City":"LABELLE","Zip":"33935","COUNTY":"HENDRY","X":-81.437450470000002,"Y":26.558711240000001,"LONGLAT":"-81.43745047,26.55871124","USNG":"17R MK 56429 37634","OWNERSHIP":null,"PARCELID":"1 29 45 20 A00 0001.0000","FACILITY_TYPE":"FAITH-BASED FACILITY"}},{"type":"Feature","id":67,"geometry":{"type":"Point","coordinates":[-82.365333461032549,28.881100193261005]},"properties":{"OBJECTID":67,"Name":"ST RAPHAEL ORTHODOX CHURCH","Address":"1277 N PAUL DR","City":"INVERNESS","Zip":"34453","COUNTY":"CITRUS","X":-82.365333460000002,"Y":28.881100190000002,"LONGLAT":"-82.36533346,28.88110019","USNG":"17R LM 66857 95578","OWNERSHIP":null,"PARCELID":"19E18S360040  000A0 0600","FACILITY_TYPE":"FAITH-BASED FACILITY"}},{"type":"Feature","id":68,"geometry":{"type":"Point","coordinates":[-82.522265817721106,29.521820279248086]},"properties":{"OBJECTID":68,"Name":"CHURCH OF GOD BY FAITH","Address":"14411 SW 170TH ST","City":"ARCHER","Zip":"32618","COUNTY":"ALACHUA","X":-82.522265820000001,"Y":29.52182028,"LONGLAT":"-82.52226582,29.52182028","USNG":"17R LN 52473 66766","OWNERSHIP":null,"PARCELID":"05169 000 000","FACILITY_TYPE":"FAITH-BASED FACILITY"}},{"type":"Feature","id":69,"geometry":{"type":"Point","coordinates":[-80.338325910297911,25.613217840493515]},"properties":{"OBJECTID":69,"Name":"CHRIST FELLOWSHIP ","Address":"8900 SW 168TH ST","City":"MIAMI","Zip":"33157","COUNTY":"MIAMI-DADE","X":-80.338325909999995,"Y":25.613217840000001,"LONGLAT":"-80.33832591,25.61321784","USNG":"17R NJ 66435 33017","OWNERSHIP":null,"PARCELID":"3350330000060","FACILITY_TYPE":"FAITH-BASED FACILITY"}},{"type":"Feature","id":70,"geometry":{"type":"Point","coordinates":[-82.302530655179737,27.981094827240813]},"properties":{"OBJECTID":70,"Name":"FIRST BAPTIST CHURCH OF MANGO","Address":"11619 E DR MARTIN LUTHER KING JR BLVD","City":"SEFFNER","Zip":"33584","COUNTY":"HILLSBOROUGH","X":-82.302530660000002,"Y":27.98109483,"LONGLAT":"-82.30253066,27.98109483","USNG":"17R LL 71903 95791","OWNERSHIP":null,"PARCELID":"20290928W000000000150U","FACILITY_TYPE":"FAITH-BASED FACILITY"}},{"type":"Feature","id":71,"geometry":{"type":"Point","coordinates":[-81.675433172667226,30.353077276430021]},"properties":{"OBJECTID":71,"Name":"MT ARARAT MISSIONARY BAPTIST CHURCH","Address":"2503 N MYRTLE AVE","City":"JACKSONVILLE","Zip":"32209","COUNTY":"DUVAL","X":-81.675433170000005,"Y":30.353077280000001,"LONGLAT":"-81.67543317,30.35307728","USNG":"17R MP 35087 58103","OWNERSHIP":null,"PARCELID":"0456920000R","FACILITY_TYPE":"FAITH-BASED FACILITY"}},{"type":"Feature","id":72,"geometry":{"type":"Point","coordinates":[-80.844806747621035,28.674066758815609]},"properties":{"OBJECTID":72,"Name":"SAINT MARY BAPTIST CHURCH","Address":"3102 WILEY AVE ","City":"MIMS","Zip":"32754","COUNTY":"BREVARD","X":-80.844806750000004,"Y":28.674066759999999,"LONGLAT":"-80.84480675,28.67406676","USNG":"17R NM 15162 71885","OWNERSHIP":"OTHER PUBLIC","PARCELID":"21 350800  511","FACILITY_TYPE":"FAITH-BASED FACILITY"}},{"type":"Feature","id":73,"geometry":{"type":"Point","coordinates":[-81.655821930077224,30.337205495234347]},"properties":{"OBJECTID":73,"Name":"BETHEL BAPTIST INSTITUTIONAL C","Address":"33 W 1ST ST","City":"JACKSONVILLE","Zip":"32206","COUNTY":"DUVAL","X":-81.655821930000002,"Y":30.3372055,"LONGLAT":"-81.65582193,30.33720550","USNG":"17R MP 36961 56333","OWNERSHIP":null,"PARCELID":"0707910000R","FACILITY_TYPE":"FAITH-BASED FACILITY"}},{"type":"Feature","id":74,"geometry":{"type":"Point","coordinates":[-85.28911178083635,30.748771675371469]},"properties":{"OBJECTID":74,"Name":"DAMASCUS FREEWILL BAPTIST CHURCH","Address":"3700 KYNESVILLE RD","City":"MARIANNA","Zip":"32448","COUNTY":"JACKSON","X":-85.289111779999999,"Y":30.748771680000001,"LONGLAT":"-85.28911178,30.74877168","USNG":"16R FV 63770 03010","OWNERSHIP":null,"PARCELID":"13-4N-11-0000-0070-0000","FACILITY_TYPE":"FAITH-BASED FACILITY"}},{"type":"Feature","id":75,"geometry":{"type":"Point","coordinates":[-82.435234580257756,29.389423316188672]},"properties":{"OBJECTID":75,"Name":"GREATER ROCK HILL MISSIONARY BAPTIST CHURCH","Address":"48 NE 10TH ST","City":"WILLISTON","Zip":"32696","COUNTY":"LEVY","X":-82.435234579999999,"Y":29.389423319999999,"LONGLAT":"-82.43523458,29.38942332","USNG":"17R LN 60727 51987","OWNERSHIP":null,"PARCELID":"0596700000","FACILITY_TYPE":"FAITH-BASED FACILITY"}},{"type":"Feature","id":76,"geometry":{"type":"Point","coordinates":[-82.410347843545267,27.297102724933179]},"properties":{"OBJECTID":76,"Name":"SAINT PATRICK'S CATHOLIC CHURCH","Address":"7900 BEE RIDGE RD","City":"SARASOTA","Zip":"34241","COUNTY":"SARASOTA","X":-82.41034784,"Y":27.297102729999999,"LONGLAT":"-82.41034784,27.29710273","USNG":"17R LL 60433 20130","OWNERSHIP":null,"PARCELID":"0257-03-0001","FACILITY_TYPE":"FAITH-BASED FACILITY"}},{"type":"Feature","id":77,"geometry":{"type":"Point","coordinates":[-81.339566943250347,29.067320433463482]},"properties":{"OBJECTID":77,"Name":"AUGUSTINIAN MONKS","Address":"2075 MERCERS FERNERY RD","City":"DELAND","Zip":"32720","COUNTY":"VOLUSIA","X":-81.339566939999997,"Y":29.067320429999999,"LONGLAT":"-81.33956694,29.06732043","USNG":"17R MN 66947 15491","OWNERSHIP":null,"PARCELID":null,"FACILITY_TYPE":"FAITH-BASED FACILITY"}},{"type":"Feature","id":78,"geometry":{"type":"Point","coordinates":[-82.987238911160503,30.266916663036081]},"properties":{"OBJECTID":78,"Name":"MELODY CHRISTIAN LIFE CENTER","Address":"10046 US HWY 129 S","City":"LIVE OAK","Zip":"32060","COUNTY":"SUWANNEE","X":-82.987238910000002,"Y":30.26691666,"LONGLAT":"-82.98723891,30.26691666","USNG":"17R LP 08831 50033","OWNERSHIP":null,"PARCELID":"3502S13E08371001000","FACILITY_TYPE":"FAITH-BASED FACILITY"}},{"type":"Feature","id":79,"geometry":{"type":"Point","coordinates":[-84.012219608958773,30.624169499568705]},"properties":{"OBJECTID":79,"Name":"SAINT PAUL PRIMITIVE BAPTIST CHURCH","Address":"10917 T S GREEN RD","City":"TALLAHASSEE","Zip":"32309","COUNTY":"LEON","X":-84.012219610000002,"Y":30.624169500000001,"LONGLAT":"-84.01221961,30.62416950","USNG":"16R GU 86407 91757","OWNERSHIP":null,"PARCELID":"1927204080000","FACILITY_TYPE":"FAITH-BASED FACILITY"}},{"type":"Feature","id":80,"geometry":{"type":"Point","coordinates":[-85.593772713253614,30.120950988780699]},"properties":{"OBJECTID":80,"Name":"PRESBYTERY OF FLORIDA INC","Address":"5730 HWY 98 E","City":"PANAMA CITY","Zip":"32404","COUNTY":"BAY","X":-85.593772709999996,"Y":30.120950990000001,"LONGLAT":"-85.59377271,30.12095099","USNG":"16R FU 35469 33022","OWNERSHIP":null,"PARCELID":"25808-000-000","FACILITY_TYPE":"FAITH-BASED FACILITY"}},{"type":"Feature","id":81,"geometry":{"type":"Point","coordinates":[-80.848059514222385,28.649999535464886]},"properties":{"OBJECTID":81,"Name":"WAY OF LIFE BAPTIST CHURCH","Address":" ","City":"TITUSVILLE","Zip":"32796","COUNTY":"BREVARD","X":-80.848059509999999,"Y":28.64999954,"LONGLAT":"-80.84805951,28.64999954","USNG":"17R NM 14848 69219","OWNERSHIP":null,"PARCELID":"21 352000  534","FACILITY_TYPE":"FAITH-BASED FACILITY"}},{"type":"Feature","id":82,"geometry":{"type":"Point","coordinates":[-81.962499534363388,26.570829508826407]},"properties":{"OBJECTID":82,"Name":"CORAL RIDGE BAPTIST CHURCH OF CAPE CORAL","Address":" ","City":"CAPE CORAL","Zip":"33904","COUNTY":"LEE","X":-81.962499530000002,"Y":26.570829509999999,"LONGLAT":"-81.96249953,26.57082951","USNG":"17R MK 04142 39262","OWNERSHIP":null,"PARCELID":"124523C20390000CE","FACILITY_TYPE":"FAITH-BASED FACILITY"}},{"type":"Feature","id":83,"geometry":{"type":"Point","coordinates":[-87.164559239174636,30.918180822317236]},"properties":{"OBJECTID":83,"Name":"CONCORD CHURCH","Address":"13200 HWY 89","City":"JAY","Zip":"32565","COUNTY":"SANTA ROSA","X":-87.164559240000003,"Y":30.91818082,"LONGLAT":"-87.16455924,30.91818082","USNG":"16R DV 84276 20545","OWNERSHIP":null,"PARCELID":"31-5N-29-0000-02202-0000","FACILITY_TYPE":"FAITH-BASED FACILITY"}},{"type":"Feature","id":84,"geometry":{"type":"Point","coordinates":[-87.226848814356288,30.439590318806303]},"properties":{"OBJECTID":84,"Name":"OF PENSACOLA INC","Address":"201 W LEONARD ST","City":"PENSACOLA","Zip":"32501","COUNTY":"ESCAMBIA","X":-87.226848810000007,"Y":30.439590320000001,"LONGLAT":"-87.22684881,30.43959032","USNG":"16R DU 78218 67519","OWNERSHIP":null,"PARCELID":null,"FACILITY_TYPE":"FAITH-BASED FACILITY"}},{"type":"Feature","id":85,"geometry":{"type":"Point","coordinates":[-81.728452390766876,30.278594415787207]},"properties":{"OBJECTID":85,"Name":"LAKE SHORE UNITED METHODIST CHURCH","Address":"2246 BLANDING BLVD","City":"JACKSONVILLE","Zip":"32210","COUNTY":"DUVAL","X":-81.728452390000001,"Y":30.278594420000001,"LONGLAT":"-81.72845239,30.27859442","USNG":"17R MP 29938 49881","OWNERSHIP":null,"PARCELID":"0933450000R","FACILITY_TYPE":"FAITH-BASED FACILITY"}},{"type":"Feature","id":86,"geometry":{"type":"Point","coordinates":[-80.365373320620577,27.43195061981848]},"properties":{"OBJECTID":86,"Name":"INDIAN RIVER PRESBYTERIAN CHUR","Address":"1780  Hartman Rd","City":"FORT PIERCE","Zip":"34947","COUNTY":"ST. LUCIE","X":-80.365373320000003,"Y":27.431950619999999,"LONGLAT":"-80.36537332,27.43195062","USNG":"17R NL 62722 34439","OWNERSHIP":null,"PARCELID":"2417-322-0001-000-2","FACILITY_TYPE":"FAITH-BASED FACILITY"}},{"type":"Feature","id":87,"geometry":{"type":"Point","coordinates":[-82.546221097511264,28.082047071725668]},"properties":{"OBJECTID":87,"Name":"FIRST BAPTIST CHURCH OF CARROL","Address":"5395 EHRLICH RD","City":"TAMPA","Zip":"33625","COUNTY":"HILLSBOROUGH","X":-82.546221099999997,"Y":28.082047070000002,"LONGLAT":"-82.54622110,28.08204707","USNG":"17R LM 48076 07256","OWNERSHIP":null,"PARCELID":"182806ZZZ000000809000U","FACILITY_TYPE":"FAITH-BASED FACILITY"}},{"type":"Feature","id":88,"geometry":{"type":"Point","coordinates":[-82.704590987393857,28.230637648373133]},"properties":{"OBJECTID":88,"Name":"BIBLE BAPTIST CHURCH","Address":"6628 CECELIA DR","City":"NEW PORT RICHEY","Zip":"34653","COUNTY":"PASCO","X":-82.70459099,"Y":28.230637649999998,"LONGLAT":"-82.70459099,28.23063765","USNG":"17R LM 32744 23928","OWNERSHIP":null,"PARCELID":"1626160010006000000","FACILITY_TYPE":"FAITH-BASED FACILITY"}},{"type":"Feature","id":89,"geometry":{"type":"Point","coordinates":[-80.330559602737992,25.582219350404756]},"properties":{"OBJECTID":89,"Name":"SAINT TIMOTHY CHURCH","Address":" ","City":"MIAMI","Zip":"33189","COUNTY":"MIAMI-DADE","X":-80.330559600000001,"Y":25.582219349999999,"LONGLAT":"-80.33055960,25.58221935","USNG":"17R NJ 67232 29588","OWNERSHIP":null,"PARCELID":"3660030190080","FACILITY_TYPE":"FAITH-BASED FACILITY"}},{"type":"Feature","id":90,"geometry":{"type":"Point","coordinates":[-80.23782427865099,25.864146472973978]},"properties":{"OBJECTID":90,"Name":"BIBLE MISSIONARY BAPTIST CHURCH","Address":"9801 N W 24TH AVENUE","City":"MIAMI","Zip":"33147","COUNTY":"MIAMI-DADE","X":-80.237824279999998,"Y":25.864146470000001,"LONGLAT":"-80.23782428,25.86414647","USNG":"17R NJ 76365 60860","OWNERSHIP":null,"PARCELID":null,"FACILITY_TYPE":"FAITH-BASED FACILITY"}},{"type":"Feature","id":91,"geometry":{"type":"Point","coordinates":[-81.415579103228112,28.532394421173777]},"properties":{"OBJECTID":91,"Name":"GREATER NEW HOPE MISSIONARY BAPTIST CHURCH","Address":"3099 ORANGE CENTER BLVD","City":"ORLANDO","Zip":"32805","COUNTY":"ORANGE","X":-81.415579100000002,"Y":28.532394419999999,"LONGLAT":"-81.41557910,28.53239442","USNG":"17R MM 59341 56251","OWNERSHIP":null,"PARCELID":null,"FACILITY_TYPE":"FAITH-BASED FACILITY"}},{"type":"Feature","id":92,"geometry":{"type":"Point","coordinates":[-82.144524954896653,29.194659503483248]},"properties":{"OBJECTID":92,"Name":"EIGHTH STREET CHURCH OF GOD","Address":"605 NW 8TH ST","City":"OCALA","Zip":"34475","COUNTY":"MARION","X":-82.144524950000005,"Y":29.1946595,"LONGLAT":"-82.14452495,29.19465950","USNG":"17R LN 88728 30094","OWNERSHIP":null,"PARCELID":"2571-012-013","FACILITY_TYPE":"FAITH-BASED FACILITY"}},{"type":"Feature","id":93,"geometry":{"type":"Point","coordinates":[-81.32407773373896,29.013225796870667]},"properties":{"OBJECTID":93,"Name":"DAYSPRING COMMUNITY CHURCH","Address":"DAYSPRING COMMUNITY CHURCH ","City":"DELAND ","Zip":"32763","COUNTY":"VOLUSIA","X":-81.32427337,"Y":29.013058829999999,"LONGLAT":"-81.32427337,29.01305883","USNG":"17R MN 68419 09475","OWNERSHIP":null,"PARCELID":null,"FACILITY_TYPE":"FAITH-BASED FACILITY"}},{"type":"Feature","id":94,"geometry":{"type":"Point","coordinates":[-81.748152815037088,28.57882516428635]},"properties":{"OBJECTID":94,"Name":"FIRST BAPTIST CHURCH OF MINNEOLA","Address":"105 S GALENA AVE","City":"CLERMONT","Zip":"34715","COUNTY":"LAKE","X":-81.748152820000001,"Y":28.578825170000002,"LONGLAT":"-81.74815282,28.57882517","USNG":"17R MM 26835 61553","OWNERSHIP":null,"PARCELID":null,"FACILITY_TYPE":"FAITH-BASED FACILITY"}},{"type":"Feature","id":95,"geometry":{"type":"Point","coordinates":[-82.243365032968029,27.730963262208128]},"properties":{"OBJECTID":95,"Name":"NEW BEGINNING BAPTIST TEMPLE","Address":"15926 CARLTON LAKE RD","City":"WIMAUMA","Zip":"33598","COUNTY":"HILLSBOROUGH","X":-82.243365030000007,"Y":27.730963259999999,"LONGLAT":"-82.24336503,27.73096326","USNG":"17R LL 77441 68019","OWNERSHIP":null,"PARCELID":"2132065QD000000000150U","FACILITY_TYPE":"FAITH-BASED FACILITY"}},{"type":"Feature","id":96,"geometry":{"type":"Point","coordinates":[-82.689320145419245,27.824311405252534]},"properties":{"OBJECTID":96,"Name":"LEALMAN METHODIST CHURCH","Address":"4090 58TH AVE N","City":"SAINT PETERSBURG","Zip":"33714","COUNTY":"PINELLAS","X":-82.68932015,"Y":27.82431141,"LONGLAT":"-82.68932015,27.82431141","USNG":"17R LL 33619 78885","OWNERSHIP":null,"PARCELID":"16 30 34 54432 000 0060","FACILITY_TYPE":"FAITH-BASED FACILITY"}},{"type":"Feature","id":97,"geometry":{"type":"Point","coordinates":[-80.39166162597877,25.715748579673363]},"properties":{"OBJECTID":97,"Name":"IGLESIA EVANGELICA NUEVA","Address":"5400 SW 122ND AVE","City":"MIAMI","Zip":"33175","COUNTY":"MIAMI-DADE","X":-80.391661630000002,"Y":25.71574858,"LONGLAT":"-80.39166163,25.71574858","USNG":"17R NJ 61027 44345","OWNERSHIP":null,"PARCELID":"3049240012450","FACILITY_TYPE":"FAITH-BASED FACILITY"}},{"type":"Feature","id":98,"geometry":{"type":"Point","coordinates":[-82.723042767593782,28.190300063760457]},"properties":{"OBJECTID":98,"Name":"THE CHURCH OF JESUS CHRIST","Address":"5517 BERRY HILL RD","City":"HOLIDAY","Zip":"34690","COUNTY":"PASCO","X":-82.723042770000006,"Y":28.190300059999998,"LONGLAT":"-82.72304277,28.19030006","USNG":"17R LM 30870 19484","OWNERSHIP":null,"PARCELID":"1626290000005000040","FACILITY_TYPE":"FAITH-BASED FACILITY"}},{"type":"Feature","id":99,"geometry":{"type":"Point","coordinates":[-80.241548362804991,26.247868741848094]},"properties":{"OBJECTID":99,"Name":"SAINT MARY MAGDALENE EPISCOPAL CHURCH","Address":"1400 RIVERSIDE DR","City":"POMPANO BEACH","Zip":"33071","COUNTY":"BROWARD","X":-80.241548359999996,"Y":26.247868740000001,"LONGLAT":"-80.24154836,26.24786874","USNG":"17R NK 75745 03355","OWNERSHIP":null,"PARCELID":"484127036181","FACILITY_TYPE":"FAITH-BASED FACILITY"}},{"type":"Feature","id":100,"geometry":{"type":"Point","coordinates":[-85.646741703732147,30.150629971393663]},"properties":{"OBJECTID":100,"Name":"HOLY NATIVITY EPISCOPAL CHURCH","Address":"222 N BONITA AVE","City":"PANAMA CITY","Zip":"32401","COUNTY":"BAY","X":-85.646741700000007,"Y":30.150629970000001,"LONGLAT":"-85.64674170,30.15062997","USNG":"16R FU 30327 36249","OWNERSHIP":null,"PARCELID":"21966-000-000","FACILITY_TYPE":"FAITH-BASED FACILITY"}},{"type":"Feature","id":101,"geometry":{"type":"Point","coordinates":[-81.272340896085666,28.809194420791375]},"properties":{"OBJECTID":101,"Name":"COMMUNITY HOUSE OF PRAYER","Address":"500 W 4TH ST","City":"SANFORD","Zip":"32771","COUNTY":"SEMINOLE","X":-81.272340900000003,"Y":28.809194420000001,"LONGLAT":"-81.27234090,28.80919442","USNG":"17R MM 73425 86876","OWNERSHIP":null,"PARCELID":null,"FACILITY_TYPE":"FAITH-BASED FACILITY"}},{"type":"Feature","id":102,"geometry":{"type":"Point","coordinates":[-85.708299984677382,30.179310658767847]},"properties":{"OBJECTID":102,"Name":"FIRST CHURCH OF THE NAZARENE","Address":"3610 WEST 17TH STREET ","City":"PANAMA CITY","Zip":"32401","COUNTY":"BAY","X":-85.708299980000007,"Y":30.179310659999999,"LONGLAT":"-85.70829998,30.17931066","USNG":"16R FU 24362 39359","OWNERSHIP":null,"PARCELID":"29007-000-000","FACILITY_TYPE":"FAITH-BASED FACILITY"}},{"type":"Feature","id":103,"geometry":{"type":"Point","coordinates":[-85.731738806828702,30.792902738222342]},"properties":{"OBJECTID":103,"Name":"GULLY SPRINGS BAPTIST CHURCH","Address":"2826 HWY 90 W","City":"BONIFAY","Zip":"32425","COUNTY":"HOLMES","X":-85.731738809999996,"Y":30.792902739999999,"LONGLAT":"-85.73173881,30.79290274","USNG":"16R FV 21341 07338","OWNERSHIP":null,"PARCELID":"0934.00-000-000-005.000","FACILITY_TYPE":"FAITH-BASED FACILITY"}},{"type":"Feature","id":104,"geometry":{"type":"Point","coordinates":[-81.694182471697772,29.994826027546051]},"properties":{"OBJECTID":104,"Name":"MOUNT PLEASANT MISSIONARY BAPTIST CHURCH","Address":"1300 MARTIN LUTHER KING JR BLVD","City":"GREEN COVE SPRINGS","Zip":"32043","COUNTY":"CLAY","X":-81.694182470000001,"Y":29.994826029999999,"LONGLAT":"-81.69418247,29.99482603","USNG":"17R MP 33043 18414","OWNERSHIP":null,"PARCELID":"38-06-26-018369-000-00","FACILITY_TYPE":"FAITH-BASED FACILITY"}},{"type":"Feature","id":105,"geometry":{"type":"Point","coordinates":[-82.080583959303326,27.941882367655001]},"properties":{"OBJECTID":105,"Name":"ANTIOCH MISSIONARY BAPTIST CHURCH","Address":"5201 HORTON RD","City":"PLANT CITY","Zip":"33567","COUNTY":"HILLSBOROUGH","X":-82.080583959999998,"Y":27.941882369999998,"LONGLAT":"-82.08058396,27.94188237","USNG":"17R LL 93693 91234","OWNERSHIP":null,"PARCELID":"222923ZZZ000005057900U","FACILITY_TYPE":"FAITH-BASED FACILITY"}},{"type":"Feature","id":106,"geometry":{"type":"Point","coordinates":[-82.314325397627542,29.667528898689447]},"properties":{"OBJECTID":106,"Name":"CATHOLIC CHARITIES BUREAU","Address":"1701 NE 9TH ST","City":"GAINESVILLE","Zip":"32609","COUNTY":"ALACHUA","X":-82.314325400000001,"Y":29.667528900000001,"LONGLAT":"-82.31432540,29.66752890","USNG":"17R LN 72810 82667","OWNERSHIP":null,"PARCELID":"10615 001 002","FACILITY_TYPE":"FAITH-BASED FACILITY"}},{"type":"Feature","id":107,"geometry":{"type":"Point","coordinates":[-81.642010529857032,30.339355144457858]},"properties":{"OBJECTID":107,"Name":"REVELATION DELIVERANCE TEMPLE","Address":"1343 N FLORIDA AVE","City":"JACKSONVILLE","Zip":"32206","COUNTY":"DUVAL","X":-81.642010529999993,"Y":30.339355149999999,"LONGLAT":"-81.64201053,30.33935515","USNG":"17R MP 38290 56564","OWNERSHIP":null,"PARCELID":"1144550000R","FACILITY_TYPE":"FAITH-BASED FACILITY"}},{"type":"Feature","id":108,"geometry":{"type":"Point","coordinates":[-80.057142355245006,26.723439031726329]},"properties":{"OBJECTID":108,"Name":"MT ZION BAPTIST CHURCH INC","Address":"1120 HENRIETTA AVE","City":"WEST PALM BEACH","Zip":"33401","COUNTY":"PALM BEACH","X":-80.05714236,"Y":26.723439030000002,"LONGLAT":"-80.05714236,26.72343903","USNG":"17R NK 93776 56151","OWNERSHIP":null,"PARCELID":"74434316010210120","FACILITY_TYPE":"FAITH-BASED FACILITY"}},{"type":"Feature","id":109,"geometry":{"type":"Point","coordinates":[-80.354881695361186,25.709375054478791]},"properties":{"OBJECTID":109,"Name":"BIBLE TRUTH CHAPEL INC","Address":"6300 SW 99 AVE","City":"MIAMI","Zip":"33173","COUNTY":"MIAMI-DADE","X":-80.354881700000007,"Y":25.709375059999999,"LONGLAT":"-80.35488170,25.70937506","USNG":"17R NJ 64720 43657","OWNERSHIP":null,"PARCELID":"3040290030570","FACILITY_TYPE":"FAITH-BASED FACILITY"}},{"type":"Feature","id":110,"geometry":{"type":"Point","coordinates":[-80.33698384130382,25.75563381265238]},"properties":{"OBJECTID":110,"Name":"IGLESIA BAUTISTA DE CORAL PARK","Address":"8755 SW 16TH ST","City":"MIAMI","Zip":"33165","COUNTY":"MIAMI-DADE","X":-80.336983840000002,"Y":25.755633809999999,"LONGLAT":"-80.33698384,25.75563381","USNG":"17R NJ 66490 48789","OWNERSHIP":null,"PARCELID":null,"FACILITY_TYPE":"FAITH-BASED FACILITY"}},{"type":"Feature","id":111,"geometry":{"type":"Point","coordinates":[-84.157152263654226,30.551785310031953]},"properties":{"OBJECTID":111,"Name":"PISGAH METHODIST CHURCH","Address":"7000 PISGAH CHURCH RD","City":"TALLAHASSEE","Zip":"32309","COUNTY":"LEON","X":-84.157152260000004,"Y":30.55178531,"LONGLAT":"-84.15715226,30.55178531","USNG":"16R GU 72711 83371","OWNERSHIP":null,"PARCELID":"1519206340000","FACILITY_TYPE":"FAITH-BASED FACILITY"}},{"type":"Feature","id":112,"geometry":{"type":"Point","coordinates":[-82.398605812958507,28.899345251815394]},"properties":{"OBJECTID":112,"Name":"HERNANDO UNITED METHODIST CHURCH","Address":"2125 E NORVELL BRYANT HWY ","City":"HERNANDO","Zip":" ","COUNTY":"CITRUS","X":-82.398605810000006,"Y":28.89934525,"LONGLAT":"-82.39860581,28.89934525","USNG":"17R LM 63636 97638","OWNERSHIP":null,"PARCELID":null,"FACILITY_TYPE":"FAITH-BASED FACILITY"}},{"type":"Feature","id":113,"geometry":{"type":"Point","coordinates":[-82.331632735815418,29.657299156250517]},"properties":{"OBJECTID":113,"Name":"GREATER BETHEL AME CHURCH","Address":"623 NW 7TH AVE","City":"GAINESVILLE","Zip":"32601","COUNTY":"ALACHUA","X":-82.331632740000003,"Y":29.657299160000001,"LONGLAT":"-82.33163274,29.65729916","USNG":"17R LN 71122 81553","OWNERSHIP":null,"PARCELID":"13550 000 000","FACILITY_TYPE":"FAITH-BASED FACILITY"}},{"type":"Feature","id":114,"geometry":{"type":"Point","coordinates":[-82.299923110770294,28.330447882514452]},"properties":{"OBJECTID":114,"Name":"SAN ANTONIO COMMUNITY CHURCH","Address":"31251 STATE ROAD 52","City":"SAN ANTONIO","Zip":"33576","COUNTY":"PASCO","X":-82.299923109999995,"Y":28.330447880000001,"LONGLAT":"-82.29992311,28.33044788","USNG":"17R LM 72574 34494","OWNERSHIP":null,"PARCELID":"2025100000009000000","FACILITY_TYPE":"FAITH-BASED FACILITY"}},{"type":"Feature","id":115,"geometry":{"type":"Point","coordinates":[-82.08171338065074,29.932912707815877]},"properties":{"OBJECTID":115,"Name":"BETHEL BAPTIST CHURCH","Address":"14884 SE COUNTY ROAD 230A","City":"STARKE","Zip":"32091","COUNTY":"BRADFORD","X":-82.081713379999997,"Y":29.93291271,"LONGLAT":"-82.08171338,29.93291271","USNG":"17R LP 95598 11843","OWNERSHIP":null,"PARCELID":"04473-0-00000","FACILITY_TYPE":"FAITH-BASED FACILITY"}},{"type":"Feature","id":116,"geometry":{"type":"Point","coordinates":[-81.42062006614357,28.595643685801811]},"properties":{"OBJECTID":116,"Name":"CHURCH IN THE SON","Address":"4484 N JOHN YOUNG PARKWAY ","City":"ORLANDO ","Zip":"32808","COUNTY":"ORANGE","X":-81.420620069999998,"Y":28.595643689999999,"LONGLAT":"-81.42062007,28.59564369","USNG":"17R MM 58873 63260","OWNERSHIP":null,"PARCELID":null,"FACILITY_TYPE":"FAITH-BASED FACILITY"}},{"type":"Feature","id":117,"geometry":{"type":"Point","coordinates":[-80.059938751459214,26.573416476129019]},"properties":{"OBJECTID":117,"Name":"HOLY SPIRIT ANGLICAN CHURCH IN","Address":"1325 CARDINAL LN","City":"LAKE WORTH","Zip":"33462","COUNTY":"PALM BEACH","X":-80.059938750000001,"Y":26.573416479999999,"LONGLAT":"-80.05993875,26.57341648","USNG":"17R NK 93620 39532","OWNERSHIP":null,"PARCELID":"40434504000005060","FACILITY_TYPE":"FAITH-BASED FACILITY"}},{"type":"Feature","id":118,"geometry":{"type":"Point","coordinates":[-80.47355289777849,25.484785716386806]},"properties":{"OBJECTID":118,"Name":"LOVE & GRACE FELLOWSHIP OF","Address":"155 NE 15 ST","City":"HOMESTEAD","Zip":"33030","COUNTY":"MIAMI-DADE","X":-80.473552900000001,"Y":25.484785720000001,"LONGLAT":"-80.47355290,25.48478572","USNG":"17R NJ 52913 18733","OWNERSHIP":null,"PARCELID":"1079070210480","FACILITY_TYPE":"FAITH-BASED FACILITY"}},{"type":"Feature","id":119,"geometry":{"type":"Point","coordinates":[-80.22221948406515,25.802779586183561]},"properties":{"OBJECTID":119,"Name":"SANTA MARTHA CATHOLIC CHURCH","Address":" ","City":"MIAMI","Zip":"33142","COUNTY":"MIAMI-DADE","X":-80.222219480000007,"Y":25.80277959,"LONGLAT":"-80.22221948,25.80277959","USNG":"17R NJ 77969 54073","OWNERSHIP":null,"PARCELID":"0131260240220","FACILITY_TYPE":"FAITH-BASED FACILITY"}},{"type":"Feature","id":120,"geometry":{"type":"Point","coordinates":[-82.146908403860735,29.184155815765823]},"properties":{"OBJECTID":120,"Name":"GREATER APOSTOLIC OUTREACH CHURCH","Address":"921 SW 3RD ST","City":"OCALA","Zip":"34474","COUNTY":"MARION","X":-82.146908400000001,"Y":29.184155820000001,"LONGLAT":"-82.14690840,29.18415582","USNG":"17R LN 88485 28933","OWNERSHIP":null,"PARCELID":"2846-073-000","FACILITY_TYPE":"FAITH-BASED FACILITY"}},{"type":"Feature","id":121,"geometry":{"type":"Point","coordinates":[-82.672934434700636,28.386771095716817]},"properties":{"OBJECTID":121,"Name":"ST MARTINS EPISCOPAL CHURCH","Address":"15801 US HIGHWAY 19","City":"HUDSON","Zip":"34667","COUNTY":"PASCO","X":-82.672934429999998,"Y":28.386771100000001,"LONGLAT":"-82.67293443,28.38677110","USNG":"17R LM 36091 41186","OWNERSHIP":null,"PARCELID":"1624230000002000000","FACILITY_TYPE":"FAITH-BASED FACILITY"}},{"type":"Feature","id":122,"geometry":{"type":"Point","coordinates":[-84.471490985139013,30.055193221466922]},"properties":{"OBJECTID":122,"Name":"SKIPPER TEMPLE CHURCH","Address":"165 SURF RD","City":"SOPCHOPPY","Zip":"32358","COUNTY":"WAKULLA","X":-84.471490990000007,"Y":30.05519322,"LONGLAT":"-84.47149099,30.05519322","USNG":"16R GU 43773 27596","OWNERSHIP":null,"PARCELID":"07-5S-02W-000-02698-007","FACILITY_TYPE":"FAITH-BASED FACILITY"}},{"type":"Feature","id":123,"geometry":{"type":"Point","coordinates":[-82.317623549664191,28.825754897542662]},"properties":{"OBJECTID":123,"Name":"REDEEMER PRESBYTERIAN CHURCH OF INVERNESS","Address":"1005 HILLSIDE CT","City":"INVERNESS","Zip":"34450","COUNTY":"CITRUS","X":-82.317623549999993,"Y":28.8257549,"LONGLAT":"-82.31762355,28.82575490","USNG":"17R LM 71442 89393","OWNERSHIP":null,"PARCELID":null,"FACILITY_TYPE":"FAITH-BASED FACILITY"}},{"type":"Feature","id":124,"geometry":{"type":"Point","coordinates":[-86.136807932222069,30.322157097413395]},"properties":{"OBJECTID":124,"Name":"SEASIDE INTERFAITH CHAPEL INC","Address":"582 FOREST ST","City":"SANTA ROSA BEACH","Zip":"32459","COUNTY":"WALTON","X":-86.136807930000003,"Y":30.322157099999998,"LONGLAT":"-86.13680793,30.32215710","USNG":"16R EU 82984 54799","OWNERSHIP":null,"PARCELID":"15-3S-19-25000-002-0130","FACILITY_TYPE":"FAITH-BASED FACILITY"}},{"type":"Feature","id":125,"geometry":{"type":"Point","coordinates":[-87.211664351109363,30.507130879406255]},"properties":{"OBJECTID":125,"Name":"LAWTON ROAD CHURCH","Address":"7845 LAWTON STREET","City":"PENSACOLA","Zip":"32514","COUNTY":"ESCAMBIA","X":-87.211664350000007,"Y":30.507130879999998,"LONGLAT":"-87.21166435,30.50713088","USNG":"16R DU 79690 75000","OWNERSHIP":null,"PARCELID":"171S303000000057","FACILITY_TYPE":"FAITH-BASED FACILITY"}},{"type":"Feature","id":126,"geometry":{"type":"Point","coordinates":[-81.629645302197545,28.10492963501336]},"properties":{"OBJECTID":126,"Name":"FIRST UNITED METHODIST CHURCH OF HAINES CITY","Address":"21 S 2ND ST","City":"HAINES CITY","Zip":" ","COUNTY":"POLK","X":-81.629645300000007,"Y":28.104929640000002,"LONGLAT":"-81.62964530,28.10492964","USNG":"17R MM 38151 08986","OWNERSHIP":null,"PARCELID":null,"FACILITY_TYPE":"FAITH-BASED FACILITY"}},{"type":"Feature","id":127,"geometry":{"type":"Point","coordinates":[-80.178969265610078,26.108561420364154]},"properties":{"OBJECTID":127,"Name":"OUR LADY QUEEN OF MARTYRS","Address":"2785 SW 11 COURT","City":"FT. LAUDERDALE","Zip":"33312","COUNTY":"BROWARD","X":-80.178969269999996,"Y":26.108561420000001,"LONGLAT":"-80.17896927,26.10856142","USNG":"17R NJ 82092 87965","OWNERSHIP":null,"PARCELID":null,"FACILITY_TYPE":"FAITH-BASED FACILITY"}},{"type":"Feature","id":128,"geometry":{"type":"Point","coordinates":[-82.030559499356769,27.918059576710736]},"properties":{"OBJECTID":128,"Name":"CENTRAL CHRISTIAN CHURCH DISCIPLES OF CHRIST","Address":" ","City":"MULBERRY","Zip":"33860","COUNTY":"POLK","X":-82.030559499999995,"Y":27.918059580000001,"LONGLAT":"-82.03055950,27.91805958","USNG":"17R LL 98593 88552","OWNERSHIP":null,"PARCELID":"232932000000014100","FACILITY_TYPE":"FAITH-BASED FACILITY"}},{"type":"Feature","id":129,"geometry":{"type":"Point","coordinates":[-80.817859697284604,28.556163975700105]},"properties":{"OBJECTID":129,"Name":"INDIAN RIVER CITY UNITED METHODIST CHURCH","Address":"1355 CHENEY HWY","City":"TITUSVILLE","Zip":"32780","COUNTY":"BREVARD","X":-80.8178597,"Y":28.556163980000001,"LONGLAT":"-80.81785970,28.55616398","USNG":"17R NM 17815 58827","OWNERSHIP":"OTHER PUBLIC","PARCELID":"22 3528BC    1   31","FACILITY_TYPE":"FAITH-BASED FACILITY"}},{"type":"Feature","id":130,"geometry":{"type":"Point","coordinates":[-80.929621978308873,29.033973984246881]},"properties":{"OBJECTID":130,"Name":"FIRST CHURCH OF CHRIST SCIENTIST","Address":"640 BALL ST","City":"NEW SMYRNA BEACH","Zip":"32168","COUNTY":"VOLUSIA","X":-80.929621979999993,"Y":29.03397399,"LONGLAT":"-80.92962198,29.03397399","USNG":"17R NN 06852 11751","OWNERSHIP":null,"PARCELID":null,"FACILITY_TYPE":"FAITH-BASED FACILITY"}},{"type":"Feature","id":131,"geometry":{"type":"Point","coordinates":[-87.244463414264573,30.436905469079047]},"properties":{"OBJECTID":131,"Name":"EL BETHEL WORD OF","Address":"2310 N S ST","City":"PENSACOLA","Zip":"32505","COUNTY":"ESCAMBIA","X":-87.244463409999994,"Y":30.436905469999999,"LONGLAT":"-87.24446341,30.43690547","USNG":"16R DU 76526 67225","OWNERSHIP":null,"PARCELID":null,"FACILITY_TYPE":"FAITH-BASED FACILITY"}},{"type":"Feature","id":132,"geometry":{"type":"Point","coordinates":[-86.939439526204637,30.993329544600286]},"properties":{"OBJECTID":132,"Name":"SELLERSVILLE CHURCH","Address":" ","City":"JAY","Zip":"32565","COUNTY":"SANTA ROSA","X":-86.939439530000001,"Y":30.993329549999999,"LONGLAT":"-86.93943953,30.99332955","USNG":"16R EV 05781 28864","OWNERSHIP":null,"PARCELID":"28-6N-27-0000-00100-0000","FACILITY_TYPE":"FAITH-BASED FACILITY"}},{"type":"Feature","id":133,"geometry":{"type":"Point","coordinates":[-81.008967716141925,29.222452567483664]},"properties":{"OBJECTID":133,"Name":"INTERNATIONAL MIRACLE CENTER","Address":"507 5TH AVE","City":"DAYTONA BEACH","Zip":"32118","COUNTY":"VOLUSIA","X":-81.008967720000001,"Y":29.222452570000002,"LONGLAT":"-81.00896772,29.22245257","USNG":"17R MN 99128 32631","OWNERSHIP":null,"PARCELID":null,"FACILITY_TYPE":"FAITH-BASED FACILITY"}},{"type":"Feature","id":134,"geometry":{"type":"Point","coordinates":[-80.189134168990137,25.866119914617599]},"properties":{"OBJECTID":134,"Name":"MIAMI SHORES COMMUNITY CHURCH","Address":"9823 NE 4TH AVE","City":"MIAMI SHORES","Zip":"33138","COUNTY":"MIAMI-DADE","X":-80.189134170000003,"Y":25.866119919999999,"LONGLAT":"-80.18913417,25.86611992","USNG":"17R NJ 81243 61108","OWNERSHIP":null,"PARCELID":null,"FACILITY_TYPE":"FAITH-BASED FACILITY"}},{"type":"Feature","id":135,"geometry":{"type":"Point","coordinates":[-81.439028219161472,27.481460408953385]},"properties":{"OBJECTID":135,"Name":"TEMPLE ISRAEL OF HIGHLANDS COUNTY","Address":"1305 TEMPLE ISRAEL DR","City":"SEBRING","Zip":"33870","COUNTY":"HIGHLANDS","X":-81.439028219999997,"Y":27.48146041,"LONGLAT":"-81.43902822,27.48146041","USNG":"17R ML 56628 39839","OWNERSHIP":null,"PARCELID":null,"FACILITY_TYPE":"FAITH-BASED FACILITY"}},{"type":"Feature","id":136,"geometry":{"type":"Point","coordinates":[-81.705976174847621,30.079229702895208]},"properties":{"OBJECTID":136,"Name":"CHURCH OF JESUS CHRIST OF LATTER DAY SAINTS OF FLEMING ISLAND","Address":"461 BLANDING BLVD","City":"FLEMING ISLAND","Zip":"32003","COUNTY":"CLAY","X":-81.70597617,"Y":30.079229699999999,"LONGLAT":"-81.70597617,30.07922970","USNG":"17R MP 31963 27774","OWNERSHIP":null,"PARCELID":null,"FACILITY_TYPE":"FAITH-BASED FACILITY"}},{"type":"Feature","id":137,"geometry":{"type":"Point","coordinates":[-82.382408860419545,28.278460074793987]},"properties":{"OBJECTID":137,"Name":"KINGDOM CHRISTIAN MINISTRIES","Address":"8304 QUAIL RUN DR","City":"WESLEY CHAPEL","Zip":"33544","COUNTY":"PASCO","X":-82.382408859999998,"Y":28.278460079999999,"LONGLAT":"-82.38240886,28.27846008","USNG":"17R LM 64421 28824","OWNERSHIP":null,"PARCELID":"1925260000001000090","FACILITY_TYPE":"FAITH-BASED FACILITY"}},{"type":"Feature","id":138,"geometry":{"type":"Point","coordinates":[-87.332164065014908,30.603273412765308]},"properties":{"OBJECTID":138,"Name":"GREATER FIRST BAPTIST CHURCH","Address":"591 BOOKER ST","City":"CANTONMENT","Zip":"32533","COUNTY":"ESCAMBIA","X":-87.332164070000005,"Y":30.60327341,"LONGLAT":"-87.33216407,30.60327341","USNG":"16R DU 68159 85683","OWNERSHIP":null,"PARCELID":null,"FACILITY_TYPE":"FAITH-BASED FACILITY"}},{"type":"Feature","id":139,"geometry":{"type":"Point","coordinates":[-81.384503051138253,28.777617332812309]},"properties":{"OBJECTID":139,"Name":"FIRST BAPTIST CHURCH","Address":"5400 MARKHAM WOODS RD","City":"LAKE MARY","Zip":"32746","COUNTY":"SEMINOLE","X":-81.384503050000006,"Y":28.777617330000002,"LONGLAT":"-81.38450305,28.77761733","USNG":"17R MM 62469 83408","OWNERSHIP":null,"PARCELID":"022029300031B0000","FACILITY_TYPE":"FAITH-BASED FACILITY"}},{"type":"Feature","id":140,"geometry":{"type":"Point","coordinates":[-82.312506102159176,29.643045984929763]},"properties":{"OBJECTID":140,"Name":"OASIS OF LOVE MINISTRIES","Address":"902 SE 10TH TER","City":"GAINESVILLE","Zip":"32601","COUNTY":"ALACHUA","X":-82.312506099999993,"Y":29.643045990000001,"LONGLAT":"-82.31250610,29.64304599","USNG":"17R LN 72955 79952","OWNERSHIP":null,"PARCELID":"15775 000 000","FACILITY_TYPE":"FAITH-BASED FACILITY"}},{"type":"Feature","id":141,"geometry":{"type":"Point","coordinates":[-80.226389485525715,25.977779512582703]},"properties":{"OBJECTID":141,"Name":"TEMPLE ISRAEL OF MIRAMAR","Address":" ","City":"HOLLYWOOD","Zip":"33023","COUNTY":"BROWARD","X":-80.226389490000003,"Y":25.977779510000001,"LONGLAT":"-80.22638949,25.97777951","USNG":"17R NJ 77437 73452","OWNERSHIP":"MUNICIPAL","PARCELID":"514126000072","FACILITY_TYPE":"FAITH-BASED FACILITY"}},{"type":"Feature","id":142,"geometry":{"type":"Point","coordinates":[-80.847082870063034,28.867253596075031]},"properties":{"OBJECTID":142,"Name":"FULL GOSPEL CHRISTIAN CENTER","Address":"159 N GAINES ST","City":"OAK HILL","Zip":"32759","COUNTY":"VOLUSIA","X":-80.847082869999994,"Y":28.867253600000002,"LONGLAT":"-80.84708287,28.86725360","USNG":"17R NM 14913 93288","OWNERSHIP":null,"PARCELID":"35190503020010","FACILITY_TYPE":"FAITH-BASED FACILITY"}},{"type":"Feature","id":143,"geometry":{"type":"Point","coordinates":[-80.713830148844295,26.660720437740903]},"properties":{"OBJECTID":143,"Name":"GLADES COVENANT COMMUNITY CHUR","Address":"248 US HIGHWAY 27 S","City":"SOUTH BAY","Zip":"33493","COUNTY":"PALM BEACH","X":-80.713830150000007,"Y":26.660720439999999,"LONGLAT":"-80.71383015,26.66072044","USNG":"17R NK 28477 48889","OWNERSHIP":null,"PARCELID":"58364414150060060","FACILITY_TYPE":"FAITH-BASED FACILITY"}},{"type":"Feature","id":144,"geometry":{"type":"Point","coordinates":[-82.641437899404949,27.768823466874366]},"properties":{"OBJECTID":144,"Name":"DIOCESE OF ST PETERSBURG","Address":"226 6TH ST S","City":"SAINT PETERSBURG","Zip":"33701","COUNTY":"PINELLAS","X":-82.6414379,"Y":27.768823470000001,"LONGLAT":"-82.64143790,27.76882347","USNG":"17R LL 38253 72673","OWNERSHIP":null,"PARCELID":"17 31 19 74466 052 0110","FACILITY_TYPE":"FAITH-BASED FACILITY"}},{"type":"Feature","id":145,"geometry":{"type":"Point","coordinates":[-85.03823128699058,30.678814131425408]},"properties":{"OBJECTID":145,"Name":"PLEASANT HILL BAPTIST CHURCH","Address":"BRUSHEY POND RD","City":"GRAND RIDGE","Zip":"32442","COUNTY":"JACKSON","X":-85.038231289999999,"Y":30.678814129999999,"LONGLAT":"-85.03823129,30.67881413","USNG":"16R FU 87924 95649","OWNERSHIP":null,"PARCELID":"09-3N-08-0000-0020-0000","FACILITY_TYPE":"FAITH-BASED FACILITY"}},{"type":"Feature","id":146,"geometry":{"type":"Point","coordinates":[-80.231939466636121,25.799999619547926]},"properties":{"OBJECTID":146,"Name":"SAINT CATHERINE OF SIENA CHURCH","Address":" ","City":"MIAMI","Zip":"33142","COUNTY":"MIAMI-DADE","X":-80.23193947,"Y":25.799999620000001,"LONGLAT":"-80.23193947,25.79999962","USNG":"17R NJ 76996 53759","OWNERSHIP":null,"PARCELID":"0131270700010","FACILITY_TYPE":"FAITH-BASED FACILITY"}},{"type":"Feature","id":147,"geometry":{"type":"Point","coordinates":[-82.536488779898207,27.491969180416181]},"properties":{"OBJECTID":147,"Name":"GLADTIDINGS CHURCH","Address":"2212 E 8TH AVE","City":"BRADENTON","Zip":"34208","COUNTY":"MANATEE","X":-82.536488779999999,"Y":27.491969180000002,"LONGLAT":"-82.53648878,27.49196918","USNG":"17R LL 48215 41866","OWNERSHIP":null,"PARCELID":"1337900003","FACILITY_TYPE":"FAITH-BASED FACILITY"}},{"type":"Feature","id":148,"geometry":{"type":"Point","coordinates":[-81.629568439164586,29.648859010349288]},"properties":{"OBJECTID":148,"Name":"ST MARKS EPISCOPAL CHURCH","Address":"200 MAIN ST","City":"PALATKA","Zip":"32177","COUNTY":"PUTNAM","X":-81.62956844,"Y":29.648859009999999,"LONGLAT":"-81.62956844,29.64885901","USNG":"17R MN 39066 80042","OWNERSHIP":null,"PARCELID":"42-10-27-6850-0090-0020","FACILITY_TYPE":"FAITH-BASED FACILITY"}},{"type":"Feature","id":149,"geometry":{"type":"Point","coordinates":[-82.268450197469704,29.63379481435986]},"properties":{"OBJECTID":149,"Name":"CHURCH OF GOD OF PROPHECY","Address":"4702 SE HAWTHORNE RD","City":"GAINESVILLE","Zip":"32641","COUNTY":"ALACHUA","X":-82.268450200000004,"Y":29.633794819999999,"LONGLAT":"-82.26845020,29.63379482","USNG":"17R LN 77209 78880","OWNERSHIP":null,"PARCELID":"16193 009 005","FACILITY_TYPE":"FAITH-BASED FACILITY"}},{"type":"Feature","id":150,"geometry":{"type":"Point","coordinates":[-86.836932439300952,30.414810827455131]},"properties":{"OBJECTID":150,"Name":"NAVARRE BIBLE BAPTIST CHURCH","Address":"PANHANDLE TR","City":"NAVARRE","Zip":"32566","COUNTY":"SANTA ROSA","X":-86.836932439999998,"Y":30.41481083,"LONGLAT":"-86.83693244,30.41481083","USNG":"16R EU 15661 64762","OWNERSHIP":null,"PARCELID":"15-2S-26-0000-01000-0000","FACILITY_TYPE":"FAITH-BASED FACILITY"}},{"type":"Feature","id":151,"geometry":{"type":"Point","coordinates":[-82.469730751290783,29.441734979743892]},"properties":{"OBJECTID":151,"Name":"NEW ZION AME CHURCH","Address":"18295 NE 75TH ST","City":"WILLISTON","Zip":"32696","COUNTY":"LEVY","X":-82.469730749999997,"Y":29.44173498,"LONGLAT":"-82.46973075,29.44173498","USNG":"17R LN 57453 57826","OWNERSHIP":null,"PARCELID":"0548200000","FACILITY_TYPE":"FAITH-BASED FACILITY"}},{"type":"Feature","id":152,"geometry":{"type":"Point","coordinates":[-81.309296392901331,28.546120430526631]},"properties":{"OBJECTID":152,"Name":"AZALEA PARK BAPTIST CHURCH","Address":"5721 DAHLIA DR","City":"ORLANDO","Zip":"32807","COUNTY":"ORANGE","X":-81.30929639,"Y":28.546120429999998,"LONGLAT":"-81.30929639,28.54612043","USNG":"17R MM 69743 57740","OWNERSHIP":null,"PARCELID":"302227000000045","FACILITY_TYPE":"FAITH-BASED FACILITY"}},{"type":"Feature","id":153,"geometry":{"type":"Point","coordinates":[-80.813490504408691,24.822115860997524]},"properties":{"OBJECTID":153,"Name":"LAYTON COMMUNITY BAPTIST CHURC","Address":"128 S LAYTON DR","City":"MARATHON","Zip":"33050","COUNTY":"MONROE","X":-80.8134905,"Y":24.82211586,"LONGLAT":"-80.81349050,24.82211586","USNG":"17R NH 18847 45264","OWNERSHIP":null,"PARCELID":"3364 35 00388451001700","FACILITY_TYPE":"FAITH-BASED FACILITY"}},{"type":"Feature","id":154,"geometry":{"type":"Point","coordinates":[-80.400878187096097,27.641331217397354]},"properties":{"OBJECTID":154,"Name":"FIRST BAPTIST CHURCH","Address":"2206 16TH AVENUE ","City":"VERO BEACH","Zip":"32960","COUNTY":"INDIAN RIVER","X":-80.40087819,"Y":27.641331220000001,"LONGLAT":"-80.40087819,27.64133122","USNG":"17R NL 59101 57615","OWNERSHIP":null,"PARCELID":"33390200001029000001.0","FACILITY_TYPE":"FAITH-BASED FACILITY"}},{"type":"Feature","id":155,"geometry":{"type":"Point","coordinates":[-87.181505445421479,30.427437203715147]},"properties":{"OBJECTID":155,"Name":"HEIGHTS BAPTIST CHURCH","Address":"600 PICKENS AVE","City":"PENSACOLA","Zip":"32503","COUNTY":"ESCAMBIA","X":-87.181505450000003,"Y":30.4274372,"LONGLAT":"-87.18150545,30.42743720","USNG":"16R DU 82569 66164","OWNERSHIP":null,"PARCELID":"052S295905001035","FACILITY_TYPE":"FAITH-BASED FACILITY"}},{"type":"Feature","id":156,"geometry":{"type":"Point","coordinates":[-80.274894182250165,25.826224186926886]},"properties":{"OBJECTID":156,"Name":"HIALEAH CHURCH OF THE NAZARENE","Address":"326 E 5 ST","City":"HIALEAH","Zip":"33010","COUNTY":"MIAMI-DADE","X":-80.274894180000004,"Y":25.826224190000001,"LONGLAT":"-80.27489418,25.82622419","USNG":"17R NJ 72674 56639","OWNERSHIP":null,"PARCELID":"0431180061540","FACILITY_TYPE":"FAITH-BASED FACILITY"}},{"type":"Feature","id":157,"geometry":{"type":"Point","coordinates":[-87.152427972859982,30.949319160375858]},"properties":{"OBJECTID":157,"Name":"JAY UNITED METHODIST CHURCH","Address":"14093 ALABAMA ST","City":"JAY","Zip":"32565","COUNTY":"SANTA ROSA","X":-87.152427970000005,"Y":30.949319160000002,"LONGLAT":"-87.15242797,30.94931916","USNG":"16R DV 85440 23995","OWNERSHIP":null,"PARCELID":"41-5N-29-0000-07300-0000","FACILITY_TYPE":"FAITH-BASED FACILITY"}},{"type":"Feature","id":158,"geometry":{"type":"Point","coordinates":[-82.462597877673076,27.963447440333731]},"properties":{"OBJECTID":158,"Name":"EMMANUEL MISSIONARY BAPTIST CHURCH","Address":"2204 HIGHLAND AVE","City":"TAMPA","Zip":"33602","COUNTY":"HILLSBOROUGH","X":-82.462597880000004,"Y":27.963447439999999,"LONGLAT":"-82.46259788,27.96344744","USNG":"17R LL 56136 94014","OWNERSHIP":null,"PARCELID":"1829134Y2000000000010A","FACILITY_TYPE":"FAITH-BASED FACILITY"}},{"type":"Feature","id":159,"geometry":{"type":"Point","coordinates":[-83.577862197475511,30.105989078518558]},"properties":{"OBJECTID":159,"Name":"GODS HOUSE OF PRAYER CHURCH","Address":"507 GRANGER DR E","City":"PERRY","Zip":"32348","COUNTY":"TAYLOR","X":-83.577862199999998,"Y":30.105989080000001,"LONGLAT":"-83.57786220,30.10598908","USNG":"17R KP 51593 33334","OWNERSHIP":null,"PARCELID":"25040704811000","FACILITY_TYPE":"FAITH-BASED FACILITY"}},{"type":"Feature","id":160,"geometry":{"type":"Point","coordinates":[-82.588060778180648,27.443775950347487]},"properties":{"OBJECTID":160,"Name":"CHRIST METHODIST CHURCH INC","Address":"5506 W 26TH ST","City":"BRADENTON","Zip":"34207","COUNTY":"MANATEE","X":-82.588060780000006,"Y":27.443775949999999,"LONGLAT":"-82.58806078,27.44377595","USNG":"17R LL 43051 36591","OWNERSHIP":null,"PARCELID":"6107200005","FACILITY_TYPE":"FAITH-BASED FACILITY"}},{"type":"Feature","id":161,"geometry":{"type":"Point","coordinates":[-81.98440697676935,28.800910421546504]},"properties":{"OBJECTID":161,"Name":"GRACE TABERNACLE CHURCH","Address":"7279 E COUNTY ROAD 468","City":"WILDWOOD","Zip":"34785","COUNTY":"SUMTER","X":-81.984406980000003,"Y":28.800910420000001,"LONGLAT":"-81.98440698,28.80091042","USNG":"17R MM 03933 86326","OWNERSHIP":null,"PARCELID":"G26=004","FACILITY_TYPE":"FAITH-BASED FACILITY"}},{"type":"Feature","id":162,"geometry":{"type":"Point","coordinates":[-81.730178806472139,30.344108700513306]},"properties":{"OBJECTID":162,"Name":"BILTMORE BAPTIST CHURCH INC","Address":"3525 NORMAN E THAGARD BLVD","City":"JACKSONVILLE","Zip":"32254","COUNTY":"DUVAL","X":-81.730178809999998,"Y":30.3441087,"LONGLAT":"-81.73017881,30.34410870","USNG":"17R MP 29819 57142","OWNERSHIP":null,"PARCELID":"0491840000R","FACILITY_TYPE":"FAITH-BASED FACILITY"}},{"type":"Feature","id":163,"geometry":{"type":"Point","coordinates":[-82.346425398069599,29.688139480770602]},"properties":{"OBJECTID":163,"Name":"THIRTY-NINTH AVENUE CHURCH OF GAINESVILLE","Address":"1811 NW 39TH AVE","City":"GAINESVILLE","Zip":"32605","COUNTY":"ALACHUA","X":-82.346425400000001,"Y":29.68813948,"LONGLAT":"-82.34642540,29.68813948","USNG":"17R LN 69730 84987","OWNERSHIP":null,"PARCELID":"08998 001 000","FACILITY_TYPE":"FAITH-BASED FACILITY"}},{"type":"Feature","id":164,"geometry":{"type":"Point","coordinates":[-81.643569401077983,30.330336177460207]},"properties":{"OBJECTID":164,"Name":"FREEWILL HOLINESS CHURCH OF JACKSONVILLE","Address":"916 OAKLEY ST","City":"JACKSONVILLE","Zip":"32202","COUNTY":"DUVAL","X":-81.643569400000004,"Y":30.33033618,"LONGLAT":"-81.64356940,30.33033618","USNG":"17R MP 38135 55565","OWNERSHIP":null,"PARCELID":"1307800000R","FACILITY_TYPE":"FAITH-BASED FACILITY"}},{"type":"Feature","id":165,"geometry":{"type":"Point","coordinates":[-80.216476553831313,25.815205329725909]},"properties":{"OBJECTID":165,"Name":"NEW COVENANT PRESBYTERIAN CHURCH","Address":"4300 NW 12TH AVE","City":"MIAMI","Zip":"33142","COUNTY":"MIAMI-DADE","X":-80.216476549999996,"Y":25.815205330000001,"LONGLAT":"-80.21647655,25.81520533","USNG":"17R NJ 78537 55453","OWNERSHIP":null,"PARCELID":"0131230320010","FACILITY_TYPE":"FAITH-BASED FACILITY"}},{"type":"Feature","id":166,"geometry":{"type":"Point","coordinates":[-81.680877765220032,29.618614413293113]},"properties":{"OBJECTID":166,"Name":"TRINITY BAPTIST CHURCH","Address":"5021 SILVER LAKE DR","City":"PALATKA","Zip":"32177","COUNTY":"PUTNAM","X":-81.680877769999995,"Y":29.618614409999999,"LONGLAT":"-81.68087777,29.61861441","USNG":"17R MN 34080 76719","OWNERSHIP":null,"PARCELID":"22-10-26-0000-0030-0000","FACILITY_TYPE":"FAITH-BASED FACILITY"}},{"type":"Feature","id":167,"geometry":{"type":"Point","coordinates":[-82.39092534881685,28.061172873557155]},"properties":{"OBJECTID":167,"Name":"GREGORIOS MALANKARA ORTHODOX S","Address":"12607 N 58TH ST","City":"TAMPA","Zip":"33617","COUNTY":"HILLSBOROUGH","X":-82.390925350000003,"Y":28.06117287,"LONGLAT":"-82.39092535,28.06117287","USNG":"17R LM 63310 04759","OWNERSHIP":null,"PARCELID":"1928101HO000000000420U","FACILITY_TYPE":"FAITH-BASED FACILITY"}},{"type":"Feature","id":168,"geometry":{"type":"Point","coordinates":[-81.299040668312315,28.481632003425318]},"properties":{"OBJECTID":168,"Name":"CONFUCIUS-MENFUCIUS HOLY HOUSE","Address":"6309 HOFFNER AVE","City":"ORLANDO","Zip":"32822","COUNTY":"ORANGE","X":-81.299040669999997,"Y":28.481632000000001,"LONGLAT":"-81.29904067,28.48163200","USNG":"17R MM 70729 50593","OWNERSHIP":null,"PARCELID":"302314524002060","FACILITY_TYPE":"FAITH-BASED FACILITY"}},{"type":"Feature","id":169,"geometry":{"type":"Point","coordinates":[-81.359552953725128,28.515913898670654]},"properties":{"OBJECTID":169,"Name":"JOY METROPOLITAN COMMUNITY CHURCH","Address":"2351 SOUTH FERNCREEK AVENUE","City":"ORLANDO","Zip":"32806","COUNTY":"ORANGE","X":-81.359552949999994,"Y":28.515913900000001,"LONGLAT":"-81.35955295,28.51591390","USNG":"17R MM 64817 54407","OWNERSHIP":null,"PARCELID":"302306102000150","FACILITY_TYPE":"FAITH-BASED FACILITY"}},{"type":"Feature","id":170,"geometry":{"type":"Point","coordinates":[-82.13033784803747,28.01584677427871]},"properties":{"OBJECTID":170,"Name":"NEW HOPE WORSHIP CENTER INC","Address":"803 W MAHONEY ST","City":"PLANT CITY","Zip":"33563","COUNTY":"HILLSBOROUGH","X":-82.130337850000004,"Y":28.01584678,"LONGLAT":"-82.13033785,28.01584678","USNG":"17R LL 88874 99472","OWNERSHIP":null,"PARCELID":"2228295CR000008000002P","FACILITY_TYPE":"FAITH-BASED FACILITY"}},{"type":"Feature","id":171,"geometry":{"type":"Point","coordinates":[-82.367468495054851,28.055005703266634]},"properties":{"OBJECTID":171,"Name":"FIRST UNITED CHURCH OF TAMPA","Address":"7308 E FOWLER AVENUE","City":"TAMPA","Zip":"33617","COUNTY":"HILLSBOROUGH","X":-82.367468500000001,"Y":28.055005699999999,"LONGLAT":"-82.36746850,28.05500570","USNG":"17R LM 65608 04050","OWNERSHIP":null,"PARCELID":null,"FACILITY_TYPE":"FAITH-BASED FACILITY"}},{"type":"Feature","id":172,"geometry":{"type":"Point","coordinates":[-82.292794171461495,29.404902120720838]},"properties":{"OBJECTID":172,"Name":"NEW BETHEL BAPTIST CHURCH","Address":"10215 NW 177TH PL","City":"REDDICK","Zip":"32686","COUNTY":"MARION","X":-82.292794169999993,"Y":29.404902119999999,"LONGLAT":"-82.29279417,29.40490212","USNG":"17R LN 74570 53541","OWNERSHIP":null,"PARCELID":"02005-000-00","FACILITY_TYPE":"FAITH-BASED FACILITY"}},{"type":"Feature","id":173,"geometry":{"type":"Point","coordinates":[-81.788593562421326,26.671503195008125]},"properties":{"OBJECTID":173,"Name":"TICE CONGREGATION OF JEHOAVAHS WITNESS","Address":"5421 TICE ST","City":"FORT MYERS","Zip":"33905","COUNTY":"LEE","X":-81.788593559999995,"Y":26.6715032,"LONGLAT":"-81.78859356,26.67150320","USNG":"17R MK 21531 50294","OWNERSHIP":null,"PARCELID":null,"FACILITY_TYPE":"FAITH-BASED FACILITY"}},{"type":"Feature","id":174,"geometry":{"type":"Point","coordinates":[-85.55461403035946,30.986401820744486]},"properties":{"OBJECTID":174,"Name":"PLEASANT GROVE BAPTIST CHURCH","Address":"CHIPLEY-CAMPBELLTON HWY","City":"GRACEVILLE","Zip":"32440","COUNTY":"HOLMES","X":-85.554614029999996,"Y":30.986401820000001,"LONGLAT":"-85.55461403,30.98640182","USNG":"16R FV 38011 28991","OWNERSHIP":null,"PARCELID":"0129.00-000-000-004.000","FACILITY_TYPE":"FAITH-BASED FACILITY"}},{"type":"Feature","id":175,"geometry":{"type":"Point","coordinates":[-80.154239941520757,26.010489807715533]},"properties":{"OBJECTID":175,"Name":"FAITH & LIFE FELLOWSHIP CHURCH","Address":"121 S 24TH AVE","City":"HOLLYWOOD","Zip":"33009","COUNTY":"BROWARD","X":-80.155996200000004,"Y":25.99140775,"LONGLAT":"-80.15599620,25.99140775","USNG":"17R NJ 84473 75004","OWNERSHIP":null,"PARCELID":null,"FACILITY_TYPE":"FAITH-BASED FACILITY"}},{"type":"Feature","id":176,"geometry":{"type":"Point","coordinates":[-81.052541636726417,29.217227580318223]},"properties":{"OBJECTID":176,"Name":"WESTSIDE BAPTIST CHURCH","Address":"1085 MASON AVE","City":"DAYTONA BEACH","Zip":"32117","COUNTY":"VOLUSIA","X":-81.052541640000001,"Y":29.217227579999999,"LONGLAT":"-81.05254164,29.21722758","USNG":"17R MN 94893 32054","OWNERSHIP":null,"PARCELID":null,"FACILITY_TYPE":"FAITH-BASED FACILITY"}},{"type":"Feature","id":177,"geometry":{"type":"Point","coordinates":[-85.670052154511396,30.185215556559349]},"properties":{"OBJECTID":177,"Name":"NORTHSIDE BAPTIST CHURCH OF","Address":"756 AIRPORT RD","City":"PANAMA CITY","Zip":"32405","COUNTY":"BAY","X":-85.670052150000004,"Y":30.18521556,"LONGLAT":"-85.67005215,30.18521556","USNG":"16R FU 28037 40056","OWNERSHIP":null,"PARCELID":"14157-000-000","FACILITY_TYPE":"FAITH-BASED FACILITY"}},{"type":"Feature","id":178,"geometry":{"type":"Point","coordinates":[-81.362499556261994,28.663889503433012]},"properties":{"OBJECTID":178,"Name":"FIRST BAPTIST CHURCH OF SANLANDO SPRINGS","Address":" ","City":"ALTAMONTE SPRINGS","Zip":"32701","COUNTY":"SEMINOLE","X":-81.362499560000003,"Y":28.6638895,"LONGLAT":"-81.36249956,28.66388950","USNG":"17R MM 64578 70802","OWNERSHIP":null,"PARCELID":"1221295BD85000160","FACILITY_TYPE":"FAITH-BASED FACILITY"}},{"type":"Feature","id":179,"geometry":{"type":"Point","coordinates":[-80.177592083039485,26.244167834961335]},"properties":{"OBJECTID":179,"Name":"CALVARY PRESBYTERIAN CHURCH","Address":"3950 COCONUT CREEK PKWY","City":"COCONUT CREEK","Zip":"33066","COUNTY":"BROWARD","X":-80.177592079999997,"Y":26.244167839999999,"LONGLAT":"-80.17759208,26.24416784","USNG":"17R NK 82135 02985","OWNERSHIP":null,"PARCELID":null,"FACILITY_TYPE":"FAITH-BASED FACILITY"}},{"type":"Feature","id":180,"geometry":{"type":"Point","coordinates":[-81.682647552578331,30.351811496358437]},"properties":{"OBJECTID":180,"Name":"TEMPLE NO 1 OF THE HOLY CHURCH","Address":"1598 W 14TH ST","City":"JACKSONVILLE","Zip":"32209","COUNTY":"DUVAL","X":-81.682647549999999,"Y":30.3518115,"LONGLAT":"-81.68264755,30.35181150","USNG":"17R MP 34392 57967","OWNERSHIP":null,"PARCELID":"0466120000R","FACILITY_TYPE":"FAITH-BASED FACILITY"}},{"type":"Feature","id":181,"geometry":{"type":"Point","coordinates":[-82.245727006586435,27.053982181357167]},"properties":{"OBJECTID":181,"Name":"NORTH PORT SEVENTH DAY ADVENTIST","Address":"4330 SOUTH BISCAYNE DR","City":"NORTH PORT","Zip":"34287","COUNTY":"SARASOTA","X":-82.245727009999996,"Y":27.053982179999998,"LONGLAT":"-82.24572701,27.05398218","USNG":"17R LK 76458 93025","OWNERSHIP":null,"PARCELID":"0996-26-1032","FACILITY_TYPE":"FAITH-BASED FACILITY"}},{"type":"Feature","id":182,"geometry":{"type":"Point","coordinates":[-87.312122245561426,30.540810942562768]},"properties":{"OBJECTID":182,"Name":"MILESTONE BAPTIST CHURCH","Address":"3800 PINE FOREST RD","City":"CANTONMENT","Zip":"32533","COUNTY":"ESCAMBIA","X":-87.312122250000002,"Y":30.54081094,"LONGLAT":"-87.31212225,30.54081094","USNG":"16R DU 70061 78755","OWNERSHIP":null,"PARCELID":"011S310100000050","FACILITY_TYPE":"FAITH-BASED FACILITY"}},{"type":"Feature","id":183,"geometry":{"type":"Point","coordinates":[-81.269638807577053,28.804996122810465]},"properties":{"OBJECTID":183,"Name":"ALL SOULS CATHOLIC CHURCH","Address":"800 OAK AVE","City":"SANFORD","Zip":"32771","COUNTY":"SEMINOLE","X":-81.269638810000004,"Y":28.804996119999998,"LONGLAT":"-81.26963881,28.80499612","USNG":"17R MM 73688 86411","OWNERSHIP":null,"PARCELID":"2519305AG10050000","FACILITY_TYPE":"FAITH-BASED FACILITY"}},{"type":"Feature","id":184,"geometry":{"type":"Point","coordinates":[-81.95695033230723,26.603965341028161]},"properties":{"OBJECTID":184,"Name":"FIRST CHRISTIAN CHURCH OF CHRIST","Address":"2608 Country Club Blvd","City":"CAPE CORAL","Zip":"33904","COUNTY":"LEE","X":-81.956950329999998,"Y":26.603965339999998,"LONGLAT":"-81.95695033,26.60396534","USNG":"17R MK 04722 42928","OWNERSHIP":null,"PARCELID":null,"FACILITY_TYPE":"FAITH-BASED FACILITY"}},{"type":"Feature","id":185,"geometry":{"type":"Point","coordinates":[-82.390867101946398,28.108205612129613]},"properties":{"OBJECTID":185,"Name":"ST JAMES METHODIST CHURCH","Address":"16202 BRUCE B DOWNS BV","City":"TAMPA","Zip":"33647","COUNTY":"HILLSBOROUGH","X":-82.390867099999994,"Y":28.108205609999999,"LONGLAT":"-82.39086710,28.10820561","USNG":"17R LM 63375 09970","OWNERSHIP":null,"PARCELID":"1927279GN000000000030A","FACILITY_TYPE":"FAITH-BASED FACILITY"}},{"type":"Feature","id":186,"geometry":{"type":"Point","coordinates":[-84.732851598609585,30.635742340374868]},"properties":{"OBJECTID":186,"Name":"CHURCH OF CHRIST","Address":"MAX HERRIN RD","City":"CHATTAHOOCHEE","Zip":"32324","COUNTY":"GADSDEN","X":-84.732851600000004,"Y":30.63574234,"LONGLAT":"-84.73285160,30.63574234","USNG":"16R GU 17281 91425","OWNERSHIP":null,"PARCELID":"2-21-3N-5W-0000-00444-0300","FACILITY_TYPE":"FAITH-BASED FACILITY"}},{"type":"Feature","id":187,"geometry":{"type":"Point","coordinates":[-81.278297529980406,28.566761036732998]},"properties":{"OBJECTID":187,"Name":"UNION PARK CHURCH OF THE NAZARENE","Address":"1670 N CHICKASAW TRL","City":"ORLANDO","Zip":"32825","COUNTY":"ORANGE","X":-81.278297530000003,"Y":28.566761039999999,"LONGLAT":"-81.27829753,28.56676104","USNG":"17R MM 72781 60019","OWNERSHIP":null,"PARCELID":"302223000000001","FACILITY_TYPE":"FAITH-BASED FACILITY"}},{"type":"Feature","id":188,"geometry":{"type":"Point","coordinates":[-82.334000921261875,29.890457627329486]},"properties":{"OBJECTID":188,"Name":"FIRST COMMUNITY CHURCH","Address":"17355 MICHIGAN AVE","City":"BROOKER","Zip":"32622","COUNTY":"BRADFORD","X":-82.334000919999994,"Y":29.89045763,"LONGLAT":"-82.33400092,29.89045763","USNG":"17R LP 71191 07394","OWNERSHIP":null,"PARCELID":"00266-0-02200","FACILITY_TYPE":"FAITH-BASED FACILITY"}},{"type":"Feature","id":189,"geometry":{"type":"Point","coordinates":[-83.872224518522344,30.544119923251575]},"properties":{"OBJECTID":189,"Name":"FIRST UNITED METHODIST CHURCH OF MONTICELLO","Address":"325 W WALNUT ST","City":"MONTICELLO","Zip":"32344","COUNTY":"JEFFERSON","X":-83.872224520000003,"Y":30.54411992,"LONGLAT":"-83.87222452,30.54411992","USNG":"17R KP 24448 82592","OWNERSHIP":null,"PARCELID":"00-00-00-0360-0000-0010","FACILITY_TYPE":"FAITH-BASED FACILITY"}},{"type":"Feature","id":190,"geometry":{"type":"Point","coordinates":[-87.257148467553989,30.474307731717271]},"properties":{"OBJECTID":190,"Name":"MARCUS POINTE BAPTIST CHURCH","Address":"6205 N W ST","City":"PENSACOLA","Zip":"32535","COUNTY":"ESCAMBIA","X":-87.257148470000004,"Y":30.47430773,"LONGLAT":"-87.25714847,30.47430773","USNG":"16R DU 75317 71372","OWNERSHIP":null,"PARCELID":null,"FACILITY_TYPE":"FAITH-BASED FACILITY"}},{"type":"Feature","id":191,"geometry":{"type":"Point","coordinates":[-80.939360167381835,29.006601289249996]},"properties":{"OBJECTID":191,"Name":"CALVARY ASSEMBLY OF GOD OF","Address":"794 OLD MISSION RD","City":"NEW SMYRNA BEACH","Zip":"32168","COUNTY":"VOLUSIA","X":-80.93936017,"Y":29.006601289999999,"LONGLAT":"-80.93936017,29.00660129","USNG":"17R NN 05905 08718","OWNERSHIP":null,"PARCELID":"34171909000170","FACILITY_TYPE":"FAITH-BASED FACILITY"}},{"type":"Feature","id":192,"geometry":{"type":"Point","coordinates":[-81.398532110217545,28.310389256259295]},"properties":{"OBJECTID":192,"Name":"MOUNT ZION SEVENTH DAY ADVENTIST CHURCH","Address":"2123 SMITH ST","City":"KISSIMMEE","Zip":" ","COUNTY":"OSCEOLA","X":-81.398532110000005,"Y":28.310389260000001,"LONGLAT":"-81.39853211,28.31038926","USNG":"17R MM 60927 31651","OWNERSHIP":null,"PARCELID":null,"FACILITY_TYPE":"FAITH-BASED FACILITY"}},{"type":"Feature","id":193,"geometry":{"type":"Point","coordinates":[-80.93237197757233,29.001404134905357]},"properties":{"OBJECTID":193,"Name":"GRACE COMMUNITY CHURCH","Address":"1100 JOSEPHINE ST","City":"NEW SMYRNA BEACH","Zip":"32168","COUNTY":"VOLUSIA","X":-80.932371979999999,"Y":29.001404140000002,"LONGLAT":"-80.93237198,29.00140414","USNG":"17R NN 06586 08143","OWNERSHIP":null,"PARCELID":null,"FACILITY_TYPE":"FAITH-BASED FACILITY"}},{"type":"Feature","id":194,"geometry":{"type":"Point","coordinates":[-82.185779815802221,28.235792721886948]},"properties":{"OBJECTID":194,"Name":"THE BROACH SCHOOL","Address":"5407 5TH ST","City":"ZEPHYRHILLS","Zip":"33542","COUNTY":"PASCO","X":-82.185779819999993,"Y":28.235792719999999,"LONGLAT":"-82.18577982,28.23579272","USNG":"17R LM 83661 23892","OWNERSHIP":null,"PARCELID":"2126110010097000010","FACILITY_TYPE":"FAITH-BASED FACILITY"}},{"type":"Feature","id":195,"geometry":{"type":"Point","coordinates":[-82.058059543388978,27.982219491865184]},"properties":{"OBJECTID":195,"Name":"PLANT CITY CHURCH OF GOD","Address":"3708 MEDULLA RD","City":"PLANT CITY","Zip":"33566","COUNTY":"HILLSBOROUGH","X":-82.058059540000002,"Y":27.982219489999999,"LONGLAT":"-82.05805954,27.98221949","USNG":"17R LL 95948 95683","OWNERSHIP":null,"PARCELID":"22290139R000000000080U","FACILITY_TYPE":"FAITH-BASED FACILITY"}},{"type":"Feature","id":196,"geometry":{"type":"Point","coordinates":[-81.890731960676121,30.051971493632362]},"properties":{"OBJECTID":196,"Name":"GAINESVILLE COMMUNITY HOLINESS CHURCH","Address":"2753 FORMAN CIR","City":"MIDDLEBURG","Zip":"32068","COUNTY":"CLAY","X":-81.890731959999997,"Y":30.05197149,"LONGLAT":"-81.89073196,30.05197149","USNG":"17R MP 14134 24878","OWNERSHIP":null,"PARCELID":null,"FACILITY_TYPE":"FAITH-BASED FACILITY"}},{"type":"Feature","id":197,"geometry":{"type":"Point","coordinates":[-82.344098738052779,29.009470812825231]},"properties":{"OBJECTID":197,"Name":"CEDAR GROVE CHURCH","Address":"13525 SW 147TH LN","City":"DUNNELLON","Zip":"34432","COUNTY":"MARION","X":-82.344098740000007,"Y":29.00947081,"LONGLAT":"-82.34409874,29.00947081","USNG":"17R LN 69090 09779","OWNERSHIP":null,"PARCELID":"34887-001-00","FACILITY_TYPE":"FAITH-BASED FACILITY"}},{"type":"Feature","id":198,"geometry":{"type":"Point","coordinates":[-81.350544198221115,24.671336005779509]},"properties":{"OBJECTID":198,"Name":"VINEYARD CHRISTIAN FELLOWSHIP","Address":"100 COUNTY RD","City":"BIG PINE KEY","Zip":"33043","COUNTY":"MONROE","X":-81.350544200000002,"Y":24.671336010000001,"LONGLAT":"-81.35054420,24.67133601","USNG":"17R MH 64533 28601","OWNERSHIP":null,"PARCELID":null,"FACILITY_TYPE":"FAITH-BASED FACILITY"}},{"type":"Feature","id":199,"geometry":{"type":"Point","coordinates":[-81.79192116680548,28.064989433648343]},"properties":{"OBJECTID":199,"Name":"MADE FREE MINISTRIES INC","Address":"212 UNION ST","City":"AUBURNDALE","Zip":"33823","COUNTY":"POLK","X":-81.791921169999995,"Y":28.064989430000001,"LONGLAT":"-81.79192117,28.06498943","USNG":"17R MM 22181 04654","OWNERSHIP":null,"PARCELID":"252811331500026030","FACILITY_TYPE":"FAITH-BASED FACILITY"}},{"type":"Feature","id":200,"geometry":{"type":"Point","coordinates":[-84.125864851636464,30.48544966107719]},"properties":{"OBJECTID":200,"Name":"SHADY GROVE PRIMITIVE BAPTIST CHURCH","Address":"1478 CHAIRES CROSS RD","City":"TALLAHASSEE","Zip":"32317","COUNTY":"LEON","X":-84.125864849999999,"Y":30.48544966,"LONGLAT":"-84.12586485,30.48544966","USNG":"16R GU 75901 76091","OWNERSHIP":null,"PARCELID":"1216204590000","FACILITY_TYPE":"FAITH-BASED FACILITY"}},{"type":"Feature","id":201,"geometry":{"type":"Point","coordinates":[-87.203908267741397,30.430811743953104]},"properties":{"OBJECTID":201,"Name":"CHURCH OF PENSACOLA FL INC","Address":"1200 E BLOUNT ST","City":"PENSACOLA","Zip":"32503","COUNTY":"ESCAMBIA","X":-87.203908269999999,"Y":30.430811739999999,"LONGLAT":"-87.20390827,30.43081174","USNG":"16R DU 80419 66542","OWNERSHIP":null,"PARCELID":null,"FACILITY_TYPE":"FAITH-BASED FACILITY"}},{"type":"Feature","id":202,"geometry":{"type":"Point","coordinates":[-85.119183591734568,30.924220887961472]},"properties":{"OBJECTID":202,"Name":"FIRST BAPTIST CHURCH OF BASCOM","Address":"4951 BASSWOOD ROAD","City":"BASCOM","Zip":"32423","COUNTY":"JACKSON","X":-85.119183590000006,"Y":30.924220890000001,"LONGLAT":"-85.11918359,30.92422089","USNG":"16R FV 79711 22719","OWNERSHIP":null,"PARCELID":"15-6N-09-0000-0190-0000","FACILITY_TYPE":"FAITH-BASED FACILITY"}},{"type":"Feature","id":203,"geometry":{"type":"Point","coordinates":[-80.183322777812919,26.163862543609863]},"properties":{"OBJECTID":203,"Name":"FLORIDA HINDU ORGANIZATION INC","Address":"3000 NW 29 AVE","City":"FORT LAUDERDALE","Zip":"33311","COUNTY":"BROWARD","X":-80.183322779999997,"Y":26.16386254,"LONGLAT":"-80.18332278,26.16386254","USNG":"17R NJ 81619 94087","OWNERSHIP":null,"PARCELID":"494229060880","FACILITY_TYPE":"FAITH-BASED FACILITY"}},{"type":"Feature","id":204,"geometry":{"type":"Point","coordinates":[-84.269439696019973,30.469439589042029]},"properties":{"OBJECTID":204,"Name":"UNIVERSITY CHURCH OF CHRIST","Address":" ","City":"TALLAHASSEE","Zip":"32303","COUNTY":"LEON","X":-84.269439700000007,"Y":30.46943959,"LONGLAT":"-84.26943970,30.46943959","USNG":"16R GU 62156 73974","OWNERSHIP":null,"PARCELID":"111965  D0010","FACILITY_TYPE":"FAITH-BASED FACILITY"}},{"type":"Feature","id":205,"geometry":{"type":"Point","coordinates":[-87.28119341516134,30.492769226773277]},"properties":{"OBJECTID":205,"Name":"A F M CHURCH OF GOD","Address":"6983 TWIGGS LN","City":"PENSACOLA","Zip":"32505","COUNTY":"ESCAMBIA","X":-87.281193419999994,"Y":30.49276923,"LONGLAT":"-87.28119342,30.49276923","USNG":"16R DU 73014 73423","OWNERSHIP":null,"PARCELID":"241S301600051002","FACILITY_TYPE":"FAITH-BASED FACILITY"}},{"type":"Feature","id":206,"geometry":{"type":"Point","coordinates":[-82.049798318521724,29.06021106547114]},"properties":{"OBJECTID":206,"Name":"FIRST BAPTIST CHURCH OF BELLEVIEW","Address":"6107 SE AGNEW RD","City":"BELLEVIEW","Zip":"34420","COUNTY":"MARION","X":-82.049798319999994,"Y":29.060211070000001,"LONGLAT":"-82.04979832,29.06021107","USNG":"17R LN 97805 15111","OWNERSHIP":null,"PARCELID":"38108-000-00","FACILITY_TYPE":"FAITH-BASED FACILITY"}},{"type":"Feature","id":207,"geometry":{"type":"Point","coordinates":[-80.169878640894964,26.176466114527038]},"properties":{"OBJECTID":207,"Name":"FLORIDA CONFERENCE ASSN OF","Address":"3980 NW 21 AVE","City":"FORT LAUDERDALE","Zip":"33309","COUNTY":"BROWARD","X":-80.169878639999993,"Y":26.176466120000001,"LONGLAT":"-80.16987864,26.17646612","USNG":"17R NJ 82953 95491","OWNERSHIP":null,"PARCELID":"494221420010","FACILITY_TYPE":"FAITH-BASED FACILITY"}},{"type":"Feature","id":208,"geometry":{"type":"Point","coordinates":[-80.163738719014248,26.234898301764655]},"properties":{"OBJECTID":208,"Name":"BIBLE WALK MISSIONARY BAPTIST","Address":"3001 NW 4 ST","City":"POMPANO BEACH","Zip":"33069","COUNTY":"BROWARD","X":-80.163738719999998,"Y":26.234898300000001,"LONGLAT":"-80.16373872,26.23489830","USNG":"17R NK 83525 01967","OWNERSHIP":null,"PARCELID":"484233045740","FACILITY_TYPE":"FAITH-BASED FACILITY"}},{"type":"Feature","id":209,"geometry":{"type":"Point","coordinates":[-82.179916907470783,28.362717652333188]},"properties":{"OBJECTID":209,"Name":"NEW JERUSALEM CHURCH OF GOD","Address":"38441 SUMNER LAKE RD","City":"DADE CITY","Zip":"33525","COUNTY":"PASCO","X":-82.179916910000003,"Y":28.36271765,"LONGLAT":"-82.17991691,28.36271765","USNG":"17R LM 84373 37949","OWNERSHIP":null,"PARCELID":"2124260110001000020","FACILITY_TYPE":"FAITH-BASED FACILITY"}},{"type":"Feature","id":210,"geometry":{"type":"Point","coordinates":[-82.578936683733673,30.09936678445947]},"properties":{"OBJECTID":210,"Name":"HOPEFUL BAPTIST CHURCH","Address":"289 SE HOPEFUL DR ","City":"LAKE CITY","Zip":"32025","COUNTY":"COLUMBIA","X":-82.578936679999998,"Y":30.099366790000001,"LONGLAT":"-82.57893668,30.09936679","USNG":"17R LP 47857 30847","OWNERSHIP":null,"PARCELID":"35-4S-17-09032-000","FACILITY_TYPE":"FAITH-BASED FACILITY"}},{"type":"Feature","id":211,"geometry":{"type":"Point","coordinates":[-81.829811173539767,27.641519663367742]},"properties":{"OBJECTID":211,"Name":"CHURCH OF GOD & TRUE HOLINESS","Address":"PALMETTO ST","City":"BOWLING GREEN","Zip":"33834","COUNTY":"HARDEE","X":-81.829811169999999,"Y":27.64151966,"LONGLAT":"-81.82981117,27.64151966","USNG":"17R ML 18140 57767","OWNERSHIP":null,"PARCELID":"05-33-25-0070-00003-0001","FACILITY_TYPE":"FAITH-BASED FACILITY"}},{"type":"Feature","id":212,"geometry":{"type":"Point","coordinates":[-82.855298942970421,29.483592447128295]},"properties":{"OBJECTID":212,"Name":"FIRST BAPTIST CHURCH OF CHIEFLAND","Address":"511 N YOUNG BLVD","City":"CHIEFLAND","Zip":" ","COUNTY":"LEVY","X":-82.855298939999997,"Y":29.48359245,"LONGLAT":"-82.85529894,29.48359245","USNG":"17R LN 20125 62999","OWNERSHIP":null,"PARCELID":null,"FACILITY_TYPE":"FAITH-BASED FACILITY"}},{"type":"Feature","id":213,"geometry":{"type":"Point","coordinates":[-81.698493795677109,30.330737247154172]},"properties":{"OBJECTID":213,"Name":"ALL PEOPLE CHURCH OF GOD IN CHRIST","Address":"104 KING ST","City":"JACKSONVILLE","Zip":"32254","COUNTY":"DUVAL","X":-81.698493799999994,"Y":30.330737249999999,"LONGLAT":"-81.69849380,30.33073725","USNG":"17R MP 32855 55641","OWNERSHIP":null,"PARCELID":"0767570000R","FACILITY_TYPE":"FAITH-BASED FACILITY"}},{"type":"Feature","id":214,"geometry":{"type":"Point","coordinates":[-81.553373466332602,29.919061633784853]},"properties":{"OBJECTID":214,"Name":"MT PLEASANT BAPTIST CHURCH","Address":"7211 COUNTY ROAD 208","City":"SAINT AUGUSTINE","Zip":"32092","COUNTY":"ST. JOHNS","X":-81.553373469999997,"Y":29.919061630000002,"LONGLAT":"-81.55337347,29.91906163","USNG":"17R MP 46584 09945","OWNERSHIP":null,"PARCELID":"0168700000","FACILITY_TYPE":"FAITH-BASED FACILITY"}},{"type":"Feature","id":215,"geometry":{"type":"Point","coordinates":[-82.233092115568653,27.923666904823659]},"properties":{"OBJECTID":215,"Name":"SON LIFE BAPTIST CHURCH OF VAL","Address":"4020 LUMSDEN RD","City":"VALRICO","Zip":"33594","COUNTY":"HILLSBOROUGH","X":-82.233092119999995,"Y":27.923666910000001,"LONGLAT":"-82.23309212,27.92366691","USNG":"17R LL 78668 89358","OWNERSHIP":null,"PARCELID":"21292932W000000000010U","FACILITY_TYPE":"FAITH-BASED FACILITY"}},{"type":"Feature","id":216,"geometry":{"type":"Point","coordinates":[-80.098133145421272,26.249672806640035]},"properties":{"OBJECTID":216,"Name":"SAINT STEPHEN EVANGELICAL LUTHERAN CHURCH","Address":"2500 NE 14TH ST","City":"POMPANO BEACH","Zip":"33062","COUNTY":"BROWARD","X":-80.098133149999995,"Y":26.24967281,"LONGLAT":"-80.09813315,26.24967281","USNG":"17R NK 90067 03647","OWNERSHIP":null,"PARCELID":"484330000520","FACILITY_TYPE":"FAITH-BASED FACILITY"}},{"type":"Feature","id":217,"geometry":{"type":"Point","coordinates":[-81.385689983929808,25.863778561560551]},"properties":{"OBJECTID":217,"Name":"FIRST BAPTIST CHURCH OF EVERGLADES CITY","Address":"416 E SCHOOL DR ","City":"OCHOPEE","Zip":"34141","COUNTY":"COLLIER","X":-81.385689979999995,"Y":25.86377856,"LONGLAT":"-81.38568998,25.86377856","USNG":"17R MJ 61356 60655","OWNERSHIP":null,"PARCELID":"83494280000","FACILITY_TYPE":"FAITH-BASED FACILITY"}},{"type":"Feature","id":218,"geometry":{"type":"Point","coordinates":[-81.090596846967301,29.276968475048047]},"properties":{"OBJECTID":218,"Name":"TOMOKA UNITED METHODIST CHURCH","Address":"1000 OLD TOMOKA RD","City":"ORMOND BEACH","Zip":"32174","COUNTY":"VOLUSIA","X":-81.090596849999997,"Y":29.276968480000001,"LONGLAT":"-81.09059685,29.27696848","USNG":"17R MN 91199 38675","OWNERSHIP":null,"PARCELID":"32142000000212","FACILITY_TYPE":"FAITH-BASED FACILITY"}},{"type":"Feature","id":219,"geometry":{"type":"Point","coordinates":[-82.419443738392502,27.738777538448726]},"properties":{"OBJECTID":219,"Name":"CHURCH OF JESUS CHRIST OF LATT","Address":"5208 NE 12TH ST","City":"APOLLO BEACH","Zip":"33572","COUNTY":"HILLSBOROUGH","X":-82.419443740000006,"Y":27.738777540000001,"LONGLAT":"-82.41944374,27.73877754","USNG":"17R LL 60093 69072","OWNERSHIP":null,"PARCELID":"193132ZZZ000001760300U","FACILITY_TYPE":"FAITH-BASED FACILITY"}},{"type":"Feature","id":220,"geometry":{"type":"Point","coordinates":[-81.272546920524462,28.511413082351744]},"properties":{"OBJECTID":220,"Name":"EAST ORLANDO BAPTIST CHURCH","Address":"8287 CURRY FORD RD","City":"ORLANDO","Zip":"32822","COUNTY":"ORANGE","X":-81.272546919999996,"Y":28.511413080000001,"LONGLAT":"-81.27254692,28.51141308","USNG":"17R MM 73330 53886","OWNERSHIP":null,"PARCELID":"302301000000025","FACILITY_TYPE":"FAITH-BASED FACILITY"}},{"type":"Feature","id":221,"geometry":{"type":"Point","coordinates":[-81.931838623791762,28.020772075896648]},"properties":{"OBJECTID":221,"Name":"LAKESIDE CHURCH","Address":" ","City":"LAKELAND","Zip":"33803","COUNTY":"POLK","X":-81.931838619999994,"Y":28.02077208,"LONGLAT":"-81.93183862,28.02077208","USNG":"17R ML 08394 99853","OWNERSHIP":null,"PARCELID":"242829000000014010","FACILITY_TYPE":"FAITH-BASED FACILITY"}},{"type":"Feature","id":222,"geometry":{"type":"Point","coordinates":[-81.365279506973351,28.656939530184985]},