{"type":"FeatureCollection","features":[{"type":"Feature","id":1,"geometry":{"type":"Point","coordinates":[-82.678347619501821,27.738555892278857]},"properties":{"OBJECTID":1,"Name":"ST. PETERSBURG COLLEGE","Address":"3200 34TH ST S","City":"SAINT PETERSBURG","Zip":"33712","COUNTY":"PINELLAS","X":-82.678347619999997,"Y":27.738555890000001,"LONGLAT":"-82.67834762,27.73855589","USNG":"17R LL 34570 69369","DESCRIPT":null,"PARCELID":"16 31 35 49734 004 0010","FACILITY_TYPE":"COLLEGE"}},{"type":"Feature","id":2,"geometry":{"type":"Point","coordinates":[-80.099544676200225,26.368945890472286]},"properties":{"OBJECTID":2,"Name":"PALM BEACH STATE COLLEGE - BOCA","Address":"3000 ST LUCIE AVENUE","City":"BOCA RATON","Zip":"33431","COUNTY":"PALM BEACH","X":-80.099544679999994,"Y":26.368945889999999,"LONGLAT":"-80.09954468,26.36894589","USNG":"17R NK 89834 16856","DESCRIPT":null,"PARCELID":null,"FACILITY_TYPE":"COLLEGE"}},{"type":"Feature","id":3,"geometry":{"type":"Point","coordinates":[-82.547528217878494,27.982442138780197]},"properties":{"OBJECTID":3,"Name":"ITT TECHNICAL INSTITUTE","Address":"4809 MEMORIAL HWY","City":"TAMPA","Zip":"33634","COUNTY":"HILLSBOROUGH","X":-82.547528220000004,"Y":27.98244214,"LONGLAT":"-82.54752822,27.98244214","USNG":"17R LL 47808 96221","DESCRIPT":null,"PARCELID":"18290618M000000000230U","FACILITY_TYPE":"COLLEGE"}},{"type":"Feature","id":4,"geometry":{"type":"Point","coordinates":[-81.251067218453002,28.552861826699729]},"properties":{"OBJECTID":4,"Name":"VALENCIA COMMUNITY COLLEGE - EAST CAMPUS","Address":"701 N ECONLOCKHATCHEE TRL","City":"ORLANDO","Zip":"32825","COUNTY":"ORANGE","X":-81.251067219999996,"Y":28.552861830000001,"LONGLAT":"-81.25106722,28.55286183","USNG":"17R MM 75441 58473","DESCRIPT":null,"PARCELID":null,"FACILITY_TYPE":"COLLEGE"}},{"type":"Feature","id":5,"geometry":{"type":"Point","coordinates":[-81.874804861109084,28.810834989984631]},"properties":{"OBJECTID":5,"Name":"BEACON COLLEGE","Address":"105 E MAIN ST","City":"LEESBURG","Zip":"34748","COUNTY":"LAKE","X":-81.874804859999998,"Y":28.81083499,"LONGLAT":"-81.87480486,28.81083499","USNG":"17R MM 14637 87342","DESCRIPT":null,"PARCELID":"261924390004800400","FACILITY_TYPE":"COLLEGE"}},{"type":"Feature","id":6,"geometry":{"type":"Point","coordinates":[-80.369502110117836,27.415726431643019]},"properties":{"OBJECTID":6,"Name":"INDIAN RIVER STATE COLLEGE (PUBLIC SAFETY TRAINING COMPLEX)","Address":"4600 KIRBY LOOP RD","City":"FORT PIERCE","Zip":"34945","COUNTY":"ST. LUCIE","X":-80.369502109999999,"Y":27.415726429999999,"LONGLAT":"-80.36950211,27.41572643","USNG":"17R NL 62324 32640","DESCRIPT":null,"PARCELID":null,"FACILITY_TYPE":"COLLEGE"}},{"type":"Feature","id":7,"geometry":{"type":"Point","coordinates":[-86.133149939412689,30.728533501317958]},"properties":{"OBJECTID":7,"Name":"NORTHWEST FLORIDA STATE COLLEGE - CHAUTAQUA CENTER","Address":"908 US HWY 90 W","City":"DEFUNIAK SPRINGS","Zip":"32433","COUNTY":"WALTON","X":-86.133149939999996,"Y":30.728533500000001,"LONGLAT":"-86.13314994,30.72853350","USNG":"16R EU 82989 99838","DESCRIPT":"SPECIAL TAXING DISTRICT","PARCELID":"27-3N-19-19000-027-0000","FACILITY_TYPE":"COLLEGE"}},{"type":"Feature","id":8,"geometry":{"type":"Point","coordinates":[-81.98593527259186,27.937171754711965]},"properties":{"OBJECTID":8,"Name":"FORTIS INSTITUTE - MULBERRY","Address":"5925 IMPERIAL PARKWAY SUITE 200","City":"MULBERRY ","Zip":"33860","COUNTY":"POLK","X":-81.985935269999999,"Y":27.937171759999998,"LONGLAT":"-81.98593527,27.93717176","USNG":"17R ML 03001 90633","DESCRIPT":null,"PARCELID":null,"FACILITY_TYPE":"COLLEGE"}},{"type":"Feature","id":9,"geometry":{"type":"Point","coordinates":[-86.182632989691356,30.371424126194537]},"properties":{"OBJECTID":9,"Name":"NORTHWEST FLORIDA STATE COLLEGE S WALTON CENTER","Address":"109 GREENWAY TRL","City":"SANTA ROSA BEACH","Zip":"32459","COUNTY":"WALTON","X":null,"Y":null,"LONGLAT":null,"USNG":null,"DESCRIPT":null,"PARCELID":null,"FACILITY_TYPE":"COLLEGE"}},{"type":"Feature","id":10,"geometry":{"type":"Point","coordinates":[-80.354908320041673,25.795090372183164]},"properties":{"OBJECTID":10,"Name":"CARLOS ALBIZU UNIVERSITY","Address":"2173 NW 99TH AVE","City":"MIAMI","Zip":"33172","COUNTY":"MIAMI-DADE","X":-80.354908320000007,"Y":25.79509037,"LONGLAT":"-80.35490832,25.79509037","USNG":"17R NJ 64671 53150","DESCRIPT":null,"PARCELID":"3530320020010","FACILITY_TYPE":"COLLEGE"}},{"type":"Feature","id":11,"geometry":{"type":"Point","coordinates":[-80.419828761550576,25.723020286203152]},"properties":{"OBJECTID":11,"Name":"PROFESSIONAL TRAINING CENTER","Address":"13926 SW 47TH ST","City":"MIAMI","Zip":"33175","COUNTY":"MIAMI-DADE","X":-80.419828760000001,"Y":25.723020290000001,"LONGLAT":"-80.41982876,25.72302029","USNG":"17R NJ 58198 45138","DESCRIPT":null,"PARCELID":"3049220450001","FACILITY_TYPE":"COLLEGE"}},{"type":"Feature","id":12,"geometry":{"type":"Point","coordinates":[-82.810095719536363,27.888580373651276]},"properties":{"OBJECTID":12,"Name":"SPC VETERINARY TECHNOLOGY CENTER","Address":"12376 ULMERTON ROAD","City":"LARGO","Zip":"33774","COUNTY":"PINELLAS","X":null,"Y":null,"LONGLAT":null,"USNG":null,"DESCRIPT":null,"PARCELID":null,"FACILITY_TYPE":"COLLEGE"}},{"type":"Feature","id":13,"geometry":{"type":"Point","coordinates":[-81.03109004477956,29.211095860170932]},"properties":{"OBJECTID":13,"Name":"BETHUNE-COOKMAN COLLEGE","Address":"640 DR MARY MCLEOD BETHUNE BLVD","City":"DAYTONA BEACH","Zip":"32114","COUNTY":"VOLUSIA","X":-81.031090039999995,"Y":29.21109586,"LONGLAT":"-81.03109004,29.21109586","USNG":"17R MN 96978 31373","DESCRIPT":null,"PARCELID":"33153902540020","FACILITY_TYPE":"COLLEGE"}},{"type":"Feature","id":14,"geometry":{"type":"Point","coordinates":[-80.103144460362415,26.233853671607875]},"properties":{"OBJECTID":14,"Name":"EVERST UNVERSITY","Address":"225 N FEDERAL HWY","City":"POMPANO BEACH","Zip":"33060","COUNTY":"BROWARD","X":-80.103144459999996,"Y":26.233853669999998,"LONGLAT":"-80.10314446,26.23385367","USNG":"17R NK 89579 01891","DESCRIPT":null,"PARCELID":"484236010890","FACILITY_TYPE":"COLLEGE"}},{"type":"Feature","id":15,"geometry":{"type":"Point","coordinates":[-81.441756665444913,28.487818988462156]},"properties":{"OBJECTID":15,"Name":"BELHAVEN UNIVERSITY","Address":"5200 VINELAND RD","City":"ORLANDO","Zip":"32811","COUNTY":"ORANGE","X":null,"Y":null,"LONGLAT":null,"USNG":null,"DESCRIPT":null,"PARCELID":null,"FACILITY_TYPE":"COLLEGE"}},{"type":"Feature","id":16,"geometry":{"type":"Point","coordinates":[-80.459708510326507,25.685517198899895]},"properties":{"OBJECTID":16,"Name":"CBT College - West Kendall Campus - West Kendall *","Address":" 8765 SW 165TH AVE","City":"KENDALL","Zip":"33193","COUNTY":"MIAMI-DADE","X":-80.459708509999999,"Y":25.6855172,"LONGLAT":"-80.45970851,25.68551720","USNG":"17R NJ 54214 40968","DESCRIPT":null,"PARCELID":null,"FACILITY_TYPE":"COLLEGE"}},{"type":"Feature","id":17,"geometry":{"type":"Point","coordinates":[-80.182121836849205,25.890245618149589]},"properties":{"OBJECTID":17,"Name":"HEALTH EDUCATION TRAINING SCHOOL","Address":"812 NE 125TH ST","City":"NORTH MIAMI","Zip":"33161","COUNTY":"MIAMI-DADE","X":null,"Y":null,"LONGLAT":null,"USNG":null,"DESCRIPT":null,"PARCELID":null,"FACILITY_TYPE":"COLLEGE"}},{"type":"Feature","id":18,"geometry":{"type":"Point","coordinates":[-81.426863842407244,28.434501706967229]},"properties":{"OBJECTID":18,"Name":"EVEREST UNIVERSITY - SOUTH ORLANDO CAMPUS","Address":"9200 SOUTHPARK CENTER LOOP","City":"ORLANDO","Zip":"32819","COUNTY":"ORANGE","X":-81.426863839999996,"Y":28.434501709999999,"LONGLAT":"-81.42686384,28.43450171","USNG":"17R MM 58199 45410","DESCRIPT":null,"PARCELID":"292404304500010","FACILITY_TYPE":"COLLEGE"}},{"type":"Feature","id":19,"geometry":{"type":"Point","coordinates":[-81.387386307657096,28.611045231787003]},"properties":{"OBJECTID":19,"Name":"EVEREST UNIVERSITY - NORTH ORLANDO CAMPUS","Address":"5421 DIPLOMAT CIR","City":"ORLANDO","Zip":"32810","COUNTY":"ORANGE","X":-81.387386309999997,"Y":28.611045229999998,"LONGLAT":"-81.38738631,28.61104523","USNG":"17R MM 62128 64955","DESCRIPT":null,"PARCELID":"292202630403000","FACILITY_TYPE":"COLLEGE"}},{"type":"Feature","id":20,"geometry":{"type":"Point","coordinates":[-81.347832101484002,28.593711906543547]},"properties":{"OBJECTID":20,"Name":"ROLLINS COLLEGE","Address":"1000 HOLT AVE","City":"WINTER PARK","Zip":"32789","COUNTY":"ORANGE","X":-81.347832100000005,"Y":28.59371191,"LONGLAT":"-81.34783210,28.59371191","USNG":"17R MM 65989 63023","DESCRIPT":"OTHER PUBLIC","PARCELID":"302205940063010","FACILITY_TYPE":"COLLEGE"}},{"type":"Feature","id":21,"geometry":{"type":"Point","coordinates":[-80.286936763385086,25.806791794493087]},"properties":{"OBJECTID":21,"Name":"Embry Riddle Aeronautical University - Main Campus","Address":"5600 NW 36TH ST","City":"MIAMI","Zip":"33166","COUNTY":"MIAMI-DADE","X":-80.286936760000003,"Y":25.806791799999999,"LONGLAT":"-80.28693676,25.80679180","USNG":"17R NJ 71479 54481","DESCRIPT":null,"PARCELID":null,"FACILITY_TYPE":"COLLEGE"}},{"type":"Feature","id":22,"geometry":{"type":"Point","coordinates":[-80.161167770412888,25.700216267497073]},"properties":{"OBJECTID":22,"Name":"The Pankey Institute ","Address":"1 CRANDON BLVD","City":"KEY BISCAYNE","Zip":"33149","COUNTY":"MIAMI-DADE","X":-80.161167770000006,"Y":25.700216269999999,"LONGLAT":"-80.16116777,25.70021627","USNG":"17R NJ 84162 42752","DESCRIPT":null,"PARCELID":null,"FACILITY_TYPE":"COLLEGE"}},{"type":"Feature","id":23,"geometry":{"type":"Point","coordinates":[-81.464810179358381,28.521201082360612]},"properties":{"OBJECTID":23,"Name":"VALENCIA COMMUNITY COLLEGE - WEST CAMPUS","Address":"","City":"ORLANDO","Zip":"32835","COUNTY":"ORANGE","X":-81.464810180000001,"Y":28.521201080000001,"LONGLAT":"-81.46481018,28.52120108","USNG":"17R MM 54520 55028","DESCRIPT":"STATE","PARCELID":"282301000000002","FACILITY_TYPE":"COLLEGE"}},{"type":"Feature","id":24,"geometry":{"type":"Point","coordinates":[-81.343198575667813,28.558855980701907]},"properties":{"OBJECTID":24,"Name":"Florida Institute of Technology","Address":"3165 McCrory PL","City":"Orlando","Zip":"32803","COUNTY":"ORANGE","X":-81.343198580000006,"Y":28.558855980000001,"LONGLAT":"-81.34319858,28.55885598","USNG":"17R MM 66431 59160","DESCRIPT":null,"PARCELID":null,"FACILITY_TYPE":"COLLEGE"}},{"type":"Feature","id":25,"geometry":{"type":"Point","coordinates":[-81.718586715598789,30.429221575374008]},"properties":{"OBJECTID":25,"Name":"FLORIDA COMMUNITY COLLEGE - JACKSONVLLE NORTH CAMPUS","Address":"4501 CAPPER RD","City":"JACKSONVILLE","Zip":"32218","COUNTY":"DUVAL","X":-81.718586720000005,"Y":30.42922158,"LONGLAT":"-81.71858672,30.42922158","USNG":"17R MP 30993 66567","DESCRIPT":"STATE","PARCELID":"0200450020R","FACILITY_TYPE":"COLLEGE"}},{"type":"Feature","id":26,"geometry":{"type":"Point","coordinates":[-87.075382572475917,30.604948170330612]},"properties":{"OBJECTID":26,"Name":"PENSACOLA STATE COLLEGE - MILTON CAMPUS","Address":"5988 US HWY 90","City":"MILTON","Zip":"32583","COUNTY":"SANTA ROSA","X":-87.075382570000002,"Y":30.60494817,"LONGLAT":"-87.07538257,30.60494817","USNG":"16R DU 92774 85824","DESCRIPT":null,"PARCELID":null,"FACILITY_TYPE":"COLLEGE"}},{"type":"Feature","id":27,"geometry":{"type":"Point","coordinates":[-80.385669352464035,27.423097399505842]},"properties":{"OBJECTID":27,"Name":"INDIAN RIVER STATE COLLEGE POLICE ACADEMY","Address":"5900 Tedder Rd","City":" ","Zip":"34945","COUNTY":"ST. LUCIE","X":-80.385669350000001,"Y":27.4230974,"LONGLAT":"-80.38566935,27.42309740","USNG":"17R NL 60721 33448","DESCRIPT":"STATE","PARCELID":null,"FACILITY_TYPE":"COLLEGE"}},{"type":"Feature","id":28,"geometry":{"type":"Point","coordinates":[-81.379850433378039,28.541071906819756]},"properties":{"OBJECTID":28,"Name":"UNIVERSITY OF CENTRAL FLORIDA ","Address":"26 W PINE ST","City":"ORLANDO","Zip":"32801","COUNTY":"ORANGE","X":null,"Y":null,"LONGLAT":null,"USNG":null,"DESCRIPT":null,"PARCELID":null,"FACILITY_TYPE":"COLLEGE"}},{"type":"Feature","id":29,"geometry":{"type":"Point","coordinates":[-81.314839194474928,29.892808372082872]},"properties":{"OBJECTID":29,"Name":"FLAGLER COLLEGE","Address":"74 KING ST","City":"SAINT AUGUSTINE","Zip":"32084","COUNTY":"ST. JOHNS","X":-81.314839190000001,"Y":29.892808370000001,"LONGLAT":"-81.31483919,29.89280837","USNG":"17R MP 69601 06949","DESCRIPT":"SPECIAL TAXING DISTRICT","PARCELID":"2016900000","FACILITY_TYPE":"COLLEGE"}},{"type":"Feature","id":30,"geometry":{"type":"Point","coordinates":[-80.36636103699847,25.68575246896069]},"properties":{"OBJECTID":30,"Name":"BARRY UNIVERSITY KENDALL","Address":"8900 SW 107 AVE SUITE 205","City":"MIAMI-DADE","Zip":"33176","COUNTY":"MIAMI-DADE","X":null,"Y":null,"LONGLAT":null,"USNG":null,"DESCRIPT":null,"PARCELID":null,"FACILITY_TYPE":"COLLEGE"}},{"type":"Feature","id":31,"geometry":{"type":"Point","coordinates":[-82.339959897004093,29.629164984771663]},"properties":{"OBJECTID":31,"Name":"CITY COLLEGE","Address":"2400 SW 13TH ST","City":"GAINESVILLE","Zip":"32608","COUNTY":"ALACHUA","X":-82.339959899999997,"Y":29.62916499,"LONGLAT":"-82.33995990,29.62916499","USNG":"17R LN 70280 78444","DESCRIPT":null,"PARCELID":"07332 200 002","FACILITY_TYPE":"COLLEGE"}},{"type":"Feature","id":32,"geometry":{"type":"Point","coordinates":[-80.111207998207931,26.195933227029773]},"properties":{"OBJECTID":32,"Name":"KNOX THEOLOGICAL SEMINARY","Address":"5554 N FEDERAL HWY","City":"FORT LAUDERDALE","Zip":"33308","COUNTY":"BROWARD","X":-80.111208000000005,"Y":26.195933230000001,"LONGLAT":"-80.11120800,26.19593323","USNG":"17R NJ 88802 97686","DESCRIPT":null,"PARCELID":"494213090361","FACILITY_TYPE":"COLLEGE"}},{"type":"Feature","id":33,"geometry":{"type":"Point","coordinates":[-81.418966985828405,26.747826279438783]},"properties":{"OBJECTID":33,"Name":"FLORIDA SOUTHWESTERN STATE COLLEGE - HENDRY/GLADES CENTER","Address":"1092 E COWBOY WAY","City":"LABELLE","Zip":"33935","COUNTY":"HENDRY","X":-81.418966990000001,"Y":26.747826280000002,"LONGLAT":"-81.41896699,26.74782628","USNG":"17R MK 58339 58573","DESCRIPT":null,"PARCELID":null,"FACILITY_TYPE":"COLLEGE"}},{"type":"Feature","id":34,"geometry":{"type":"Point","coordinates":[-82.534434096692877,27.359908543765805]},"properties":{"OBJECTID":34,"Name":"Sarasota County Technical Institute - Newtown","Address":"2709 N Osprey Ave","City":" ","Zip":"34234","COUNTY":"SARASOTA","X":-82.534434099999999,"Y":27.359908539999999,"LONGLAT":"-82.53443410,27.35990854","USNG":"17R LL 48237 27233","DESCRIPT":null,"PARCELID":null,"FACILITY_TYPE":"COLLEGE"}},{"type":"Feature","id":35,"geometry":{"type":"Point","coordinates":[-81.741070200047886,26.277166934972122]},"properties":{"OBJECTID":35,"Name":"INTERNATIONAL COLLEGE","Address":"2655 NORTHBROOKE DR","City":"NAPLES","Zip":"34119","COUNTY":"COLLIER","X":-81.741070199999996,"Y":26.277166940000001,"LONGLAT":"-81.74107020,26.27716694","USNG":"17R MK 26009 06590","DESCRIPT":null,"PARCELID":"63944000103","FACILITY_TYPE":"COLLEGE"}},{"type":"Feature","id":36,"geometry":{"type":"Point","coordinates":[-81.718328636918685,30.301219968292209]},"properties":{"OBJECTID":36,"Name":"FLORIDA STATE COMMUNITY COLLEGE - KENT CAMPUS","Address":"3949 ROOSEVELT BLVD","City":"JACKSONVILLE","Zip":"32205","COUNTY":"DUVAL","X":-81.718328639999996,"Y":30.301219969999998,"LONGLAT":"-81.71832864,30.30121997","USNG":"17R MP 30928 52382","DESCRIPT":"STATE","PARCELID":"0653790000R","FACILITY_TYPE":"COLLEGE"}},{"type":"Feature","id":37,"geometry":{"type":"Point","coordinates":[-80.308855461045326,25.865359659550823]},"properties":{"OBJECTID":37,"Name":"South Florida Institute of Technology ","Address":"1275 W 47TH PL","City":"HIALEAH","Zip":"33012","COUNTY":"MIAMI-DADE","X":-80.308855460000004,"Y":25.865359659999999,"LONGLAT":"-80.30885546,25.86535966","USNG":"17R NJ 69247 60955","DESCRIPT":null,"PARCELID":null,"FACILITY_TYPE":"COLLEGE"}},{"type":"Feature","id":38,"geometry":{"type":"Point","coordinates":[-80.623690833741193,28.066459450855614]},"properties":{"OBJECTID":38,"Name":"FLORIDA INSTITUTE OF TECHNOLOGY","Address":"150 W UNIVERSITY BLVD","City":"MELBOURNE","Zip":"32901","COUNTY":"BREVARD","X":-80.623690830000001,"Y":28.06645945,"LONGLAT":"-80.62369083,28.06645945","USNG":"17R NM 36977 04621","DESCRIPT":"COUNTY","PARCELID":"28 370900   16","FACILITY_TYPE":"COLLEGE"}},{"type":"Feature","id":39,"geometry":{"type":"Point","coordinates":[-80.381768113848665,25.685034721219818]},"properties":{"OBJECTID":39,"Name":"JONES COLLEGE - MIAMI CAMPUS","Address":"11430 N KENDALL DR STE 200","City":"MIAMI","Zip":"33176","COUNTY":"MIAMI-DADE","X":-80.381768109999996,"Y":25.685034720000001,"LONGLAT":"-80.38176811,25.68503472","USNG":"17R NJ 62036 40949","DESCRIPT":null,"PARCELID":"3050060000677","FACILITY_TYPE":"COLLEGE"}},{"type":"Feature","id":40,"geometry":{"type":"Point","coordinates":[-81.387386307657096,28.611045231787003]},"properties":{"OBJECTID":40,"Name":"EVEREST UNIVERSITY - NORTH ORLANDO CAMPUS","Address":"5421 DIPLOMAT CIR","City":"ORLANDO","Zip":"32810","COUNTY":"ORANGE","X":-81.387386309999997,"Y":28.611045229999998,"LONGLAT":"-81.38738631,28.61104523","USNG":"17R MM 62128 64955","DESCRIPT":null,"PARCELID":"292202630403000","FACILITY_TYPE":"COLLEGE"}},{"type":"Feature","id":41,"geometry":{"type":"Point","coordinates":[-80.150531711447343,26.275350946615912]},"properties":{"OBJECTID":41,"Name":"FLORIDA COLLEGE OF NATURAL HEALTH","Address":"2001 W SAMPLE RD STE 100","City":"POMPANO BEACH","Zip":"33064","COUNTY":"BROWARD","X":-80.150531709999996,"Y":26.27535095,"LONGLAT":"-80.15053171,26.27535095","USNG":"17R NK 84815 06456","DESCRIPT":null,"PARCELID":"484215160010","FACILITY_TYPE":"COLLEGE"}},{"type":"Feature","id":42,"geometry":{"type":"Point","coordinates":[-82.636625245166314,27.773074374428809]},"properties":{"OBJECTID":42,"Name":"SPC DOWNTOWN","Address":"244 2ND AVE N","City":"ST PETERSBURG","Zip":"33701","COUNTY":"PINELLAS","X":null,"Y":null,"LONGLAT":null,"USNG":null,"DESCRIPT":null,"PARCELID":null,"FACILITY_TYPE":"COLLEGE"}},{"type":"Feature","id":43,"geometry":{"type":"Point","coordinates":[-82.424553169603115,28.064322015906463]},"properties":{"OBJECTID":43,"Name":"UNIVERSITY SOUTH FLORIDA","Address":"12901 BRUCE B DOWNS BLVD","City":"TAMPA","Zip":"33612","COUNTY":"HILLSBOROUGH","X":-82.424553169999996,"Y":28.064322019999999,"LONGLAT":"-82.42455317,28.06432202","USNG":"17R LM 60009 05146","DESCRIPT":"STATE OF FLORIDA TIITF","PARCELID":"1928081HK000000000010A","FACILITY_TYPE":"COLLEGE"}},{"type":"Feature","id":44,"geometry":{"type":"Point","coordinates":[-81.712774739273982,28.03266444318205]},"properties":{"OBJECTID":44,"Name":"POLK COMMUNITY COLLEGE","Address":"999 AVE H NE","City":"WINTER HAVEN","Zip":"33881","COUNTY":"POLK","X":-81.71277474,"Y":28.032664440000001,"LONGLAT":"-81.71277474,28.03266444","USNG":"17R MM 29938 01025","DESCRIPT":null,"PARCELID":"262821571500000010","FACILITY_TYPE":"COLLEGE"}},{"type":"Feature","id":45,"geometry":{"type":"Point","coordinates":[-80.173101381001629,26.241702863847514]},"properties":{"OBJECTID":45,"Name":"BROWARD COMMUNITY COLLEGE - NORTH CAMPUS","Address":"1000 COCONUT CREEK BLVD","City":"POMPANO BEACH","Zip":"33066","COUNTY":"BROWARD","X":-80.173101380000006,"Y":26.24170286,"LONGLAT":"-80.17310138,26.24170286","USNG":"17R NK 82585 02714","DESCRIPT":"STATE","PARCELID":"484232000021","FACILITY_TYPE":"COLLEGE"}},{"type":"Feature","id":46,"geometry":{"type":"Point","coordinates":[-82.731161542265554,27.778402952878032]},"properties":{"OBJECTID":46,"Name":"ST PETERSBURG COLLEGE","Address":"6700 8TH AVE N","City":"SAINT PETERSBURG","Zip":"33710","COUNTY":"PINELLAS","X":-82.731161540000002,"Y":27.77840295,"LONGLAT":"-82.73116154,27.77840295","USNG":"17R LL 29426 73856","DESCRIPT":"OTHER PUBLIC","PARCELID":"16 31 18 78373 001 0010","FACILITY_TYPE":"COLLEGE"}},{"type":"Feature","id":47,"geometry":{"type":"Point","coordinates":[-80.365589068653478,25.68567751556099]},"properties":{"OBJECTID":47,"Name":"COLLEGE OF BUSINESS TECHNOLOGY - EAST KENDALL CAMPUS","Address":"8991 SW 107TH AVE STE 200","City":"MIAMI","Zip":"33176","COUNTY":"MIAMI-DADE","X":-80.365589069999999,"Y":25.685677519999999,"LONGLAT":"-80.36558907,25.68567752","USNG":"17R NJ 63659 41028","DESCRIPT":null,"PARCELID":"3050050041622","FACILITY_TYPE":"COLLEGE"}},{"type":"Feature","id":48,"geometry":{"type":"Point","coordinates":[-81.367615931775802,28.576110769841012]},"properties":{"OBJECTID":48,"Name":"FLORIDA HOSPITAL COLLEGE OF HEALTH SCIENCES","Address":"671 WINYAH DR","City":"ORLANDO","Zip":"32803","COUNTY":"ORANGE","X":-81.367615929999999,"Y":28.57611077,"LONGLAT":"-81.36761593,28.57611077","USNG":"17R MM 64048 61078","DESCRIPT":"OTHER PUBLIC","PARCELID":"292213278001000","FACILITY_TYPE":"COLLEGE"}},{"type":"Feature","id":49,"geometry":{"type":"Point","coordinates":[-81.877645271836727,26.596087104404859]},"properties":{"OBJECTID":49,"Name":"SOUTHWEST FLORIDA COLLEGE","Address":"1685 MEDICAL LN STE 200","City":"FORT MYERS","Zip":"33907","COUNTY":"LEE","X":-81.877645270000002,"Y":26.596087109999999,"LONGLAT":"-81.87764527,26.59608711","USNG":"17R MK 12613 41999","DESCRIPT":null,"PARCELID":"024524P2003000090","FACILITY_TYPE":"COLLEGE"}},{"type":"Feature","id":50,"geometry":{"type":"Point","coordinates":[-81.41268051575922,28.555184902996771]},"properties":{"OBJECTID":50,"Name":"COLUMBIA COLLEGE","Address":"2600 TECHNOLOGY DR","City":"ORLANDO","Zip":"32804","COUNTY":"ORANGE","X":null,"Y":null,"LONGLAT":null,"USNG":null,"DESCRIPT":null,"PARCELID":null,"FACILITY_TYPE":"COLLEGE"}},{"type":"Feature","id":51,"geometry":{"type":"Point","coordinates":[-81.437211483243757,26.336602559073309]},"properties":{"OBJECTID":51,"Name":"AVE MARIA UNIVERSITY","Address":"5050 AVE MARIA BLVD","City":"IMMOKALEE","Zip":"34142","COUNTY":"COLLIER","X":-81.437211480000002,"Y":26.336602559999999,"LONGLAT":"-81.43721148,26.33660256","USNG":"17R MK 56370 13035","DESCRIPT":null,"PARCELID":"22671001283","FACILITY_TYPE":"COLLEGE"}},{"type":"Feature","id":52,"geometry":{"type":"Point","coordinates":[-80.092265267934707,26.757090079470252]},"properties":{"OBJECTID":52,"Name":"LINCOLN CULINARY INSTITUTE","Address":"2400 METROCENTRE BLVD","City":"WEST PALM BEACH","Zip":"33407","COUNTY":"PALM BEACH","X":-80.092265269999999,"Y":26.757090080000001,"LONGLAT":"-80.09226527,26.75709008","USNG":"17R NK 90256 59853","DESCRIPT":null,"PARCELID":"74434306120000100","FACILITY_TYPE":"COLLEGE"}},{"type":"Feature","id":53,"geometry":{"type":"Point","coordinates":[-80.455903479114241,27.633780873155203]},"properties":{"OBJECTID":53,"Name":"INDIAN RIVER STATE COLLEGE - VERO BEACH CAMPUS","Address":"6155 COLLEGE LN","City":"VERO BEACH","Zip":"32966","COUNTY":"INDIAN RIVER","X":-80.455903480000003,"Y":27.633780869999999,"LONGLAT":"-80.45590348,27.63378087","USNG":"17R NL 53677 56753","DESCRIPT":null,"PARCELID":null,"FACILITY_TYPE":"COLLEGE"}},{"type":"Feature","id":54,"geometry":{"type":"Point","coordinates":[-80.384292645309529,25.79489544222551]},"properties":{"OBJECTID":54,"Name":"Keiser University ","Address":"2101 NW 117TH AVE","City":"MIAMI","Zip":"33172","COUNTY":"MIAMI-DADE","X":-80.384292650000006,"Y":25.794895440000001,"LONGLAT":"-80.38429265,25.79489544","USNG":"17R NJ 61725 53114","DESCRIPT":null,"PARCELID":null,"FACILITY_TYPE":"COLLEGE"}},{"type":"Feature","id":55,"geometry":{"type":"Point","coordinates":[-81.050291585382112,29.202283609371513]},"properties":{"OBJECTID":55,"Name":"DAYTONA STATE COLLEGE - DAYTONA BEACH CAMPUS","Address":"1200 W INTERNATIONAL SPEEDWAY BLVD","City":"DAYTONA BEACH","Zip":"32114","COUNTY":"VOLUSIA","X":-81.05029159,"Y":29.202283609999999,"LONGLAT":"-81.05029159,29.20228361","USNG":"17R MN 95111 30398","DESCRIPT":"SPECIAL TAXING DISTRICT","PARCELID":"33153902580080","FACILITY_TYPE":"COLLEGE"}},{"type":"Feature","id":56,"geometry":{"type":"Point","coordinates":[-81.419546260899793,28.4455316094779]},"properties":{"OBJECTID":56,"Name":"UNIVERSITY OF PHOENIX","Address":"8325 S PARK CIR","City":"ORLANDO","Zip":"32819","COUNTY":"ORANGE","X":null,"Y":null,"LONGLAT":null,"USNG":null,"DESCRIPT":null,"PARCELID":null,"FACILITY_TYPE":"COLLEGE"}},{"type":"Feature","id":57,"geometry":{"type":"Point","coordinates":[-81.84391701290447,27.227039349074253]},"properties":{"OBJECTID":57,"Name":"SOUTH FLORIDA COMMUNITY COLLEGE","Address":"2251 NE TURNER AVE","City":"ARCADIA","Zip":" ","COUNTY":"DESOTO","X":-81.843917009999998,"Y":27.227039349999998,"LONGLAT":"-81.84391701,27.22703935","USNG":"17R ML 16437 11863","DESCRIPT":null,"PARCELID":null,"FACILITY_TYPE":"COLLEGE"}},{"type":"Feature","id":58,"geometry":{"type":"Point","coordinates":[-82.442616491872229,27.094618403282997]},"properties":{"OBJECTID":58,"Name":"Sarasota County Technical Institute - Venice","Address":"1130 Indian Hills Blvd","City":" ","Zip":"34293","COUNTY":"SARASOTA","X":-82.442616490000006,"Y":27.094618400000002,"LONGLAT":"-82.44261649,27.09461840","USNG":"17R LK 56981 97735","DESCRIPT":null,"PARCELID":null,"FACILITY_TYPE":"COLLEGE"}},{"type":"Feature","id":59,"geometry":{"type":"Point","coordinates":[-82.646699774426494,28.275138821154343]},"properties":{"OBJECTID":59,"Name":"PASCO-HERNANDO STATE COLLEGE","Address":"10230 RIDGE RD","City":"NEW PORT RICHEY","Zip":"34654","COUNTY":"PASCO","X":-82.646699769999998,"Y":28.275138819999999,"LONGLAT":"-82.64669977,28.27513882","USNG":"17R LM 38493 28781","DESCRIPT":null,"PARCELID":"1725300000002000010","FACILITY_TYPE":"COLLEGE"}},{"type":"Feature","id":60,"geometry":{"type":"Point","coordinates":[-85.697573637747396,30.213380413273853]},"properties":{"OBJECTID":60,"Name":"FLORIDA A & M UNIVERSITY-PHEREC","Address":"4000 FRANKFORD AVE","City":"PANAMA CITY","Zip":"32405","COUNTY":"BAY","X":-85.697573640000002,"Y":30.213380409999999,"LONGLAT":"-85.69757364,30.21338041","USNG":"16R FU 25351 43147","DESCRIPT":"STATE","PARCELID":"26659-000-000","FACILITY_TYPE":"COLLEGE"}},{"type":"Feature","id":61,"geometry":{"type":"Point","coordinates":[-80.398688371071657,27.325784412409156]},"properties":{"OBJECTID":61,"Name":"FLORIDA ATLANTIC UNIVERSITY-TREASURE COAST CAMPUS","Address":"520 NW CALIFORNIA BLVD","City":"PORT SAINT LUCIE","Zip":"34986","COUNTY":"ST. LUCIE","X":-80.398688370000002,"Y":27.325784410000001,"LONGLAT":"-80.39868837,27.32578441","USNG":"17R NL 59486 22662","DESCRIPT":"STATE OF FLORIDA TIITF","PARCELID":"3323-745-0001-000-6","FACILITY_TYPE":"COLLEGE"}},{"type":"Feature","id":62,"geometry":{"type":"Point","coordinates":[-81.781677740855059,28.056568474722468]},"properties":{"OBJECTID":62,"Name":"SOUTHERN TECHNICAL COLLEGE","Address":"298 HAVENDALE BLVD","City":"AUBURNDALE","Zip":"33823","COUNTY":"POLK","X":-81.781677740000006,"Y":28.056568479999999,"LONGLAT":"-81.78167774,28.05656848","USNG":"17R MM 23182 03715","DESCRIPT":null,"PARCELID":"252811337000006010","FACILITY_TYPE":"COLLEGE"}},{"type":"Feature","id":63,"geometry":{"type":"Point","coordinates":[-80.233918737097881,26.007375699798082]},"properties":{"OBJECTID":63,"Name":"BROWARD COMMUNITY COLLEGE - SOUTH CAMPUS","Address":"7200 PINES BLVD","City":"HOLLYWOOD","Zip":"33023","COUNTY":"BROWARD","X":-80.233918739999993,"Y":26.007375700000001,"LONGLAT":"-80.23391874,26.00737570","USNG":"17R NJ 76664 76725","DESCRIPT":null,"PARCELID":"514115000051","FACILITY_TYPE":"COLLEGE"}},{"type":"Feature","id":64,"geometry":{"type":"Point","coordinates":[-82.343481040898979,29.639921974053731]},"properties":{"OBJECTID":64,"Name":"UNIVERSITY OF FLORIDA - COLLEGE OF DENTISTRY","Address":"1600 SW ARCHER RD","City":"GAINESVILLE","Zip":"32611","COUNTY":"ALACHUA","X":-82.34348104,"Y":29.63992197,"LONGLAT":"-82.34348104,29.63992197","USNG":"17R LN 69953 79640","DESCRIPT":"SPECIAL TAXING DISTRICT","PARCELID":"15505 000 000","FACILITY_TYPE":"COLLEGE"}},{"type":"Feature","id":65,"geometry":{"type":"Point","coordinates":[-87.241148896731403,30.469047839440361]},"properties":{"OBJECTID":65,"Name":"PENSACOLA CHRISTIAN COLLEGE","Address":"10 BRENT LANE ","City":"PENSACOLA","Zip":"32503","COUNTY":"ESCAMBIA","X":-87.241148899999999,"Y":30.469047840000002,"LONGLAT":"-87.24114890,30.46904784","USNG":"16R DU 76851 70786","DESCRIPT":null,"PARCELID":null,"FACILITY_TYPE":"COLLEGE"}},{"type":"Feature","id":66,"geometry":{"type":"Point","coordinates":[-82.757482474775301,27.893924921373426]},"properties":{"OBJECTID":66,"Name":"SCHILLER INTERNATIONAL UNIVERSITY","Address":"8560 ULMERTON RD","City":"LARGO","Zip":"33773","COUNTY":"PINELLAS","X":-82.757482469999999,"Y":27.89392492,"LONGLAT":"-82.75748247,27.89392492","USNG":"17R LL 27015 86693","DESCRIPT":null,"PARCELID":"15 30 12 84742 000 0020","FACILITY_TYPE":"COLLEGE"}},{"type":"Feature","id":67,"geometry":{"type":"Point","coordinates":[-80.164973082132747,25.894019485159948]},"properties":{"OBJECTID":67,"Name":"JOHNSON & WALES UNIVERSITY","Address":"1701 NE 127TH ST","City":"MIAMI","Zip":"33181","COUNTY":"MIAMI-DADE","X":-80.164973079999996,"Y":25.894019490000002,"LONGLAT":"-80.16497308,25.89401949","USNG":"17R NJ 83644 64213","DESCRIPT":"SPECIAL TAXING DISTRICT","PARCELID":"0622290080559","FACILITY_TYPE":"COLLEGE"}},{"type":"Feature","id":68,"geometry":{"type":"Point","coordinates":[-81.366521808267763,28.750197964505084]},"properties":{"OBJECTID":68,"Name":"ITT TECHNICAL INSTITUTE","Address":"1400 S INTERNATIONAL PKWY","City":"LONGWOOD","Zip":"32779","COUNTY":"SEMINOLE","X":-81.366521809999995,"Y":28.750197969999999,"LONGLAT":"-81.36652181,28.75019797","USNG":"17R MM 64215 80365","DESCRIPT":null,"PARCELID":"13202951100000C10","FACILITY_TYPE":"COLLEGE"}},{"type":"Feature","id":69,"geometry":{"type":"Point","coordinates":[-81.750926120747479,30.196163864470307]},"properties":{"OBJECTID":69,"Name":"FLORIDA CAREER COLLEGE","Address":"6600 YOUNGERMAN CIR","City":"JACKSONVILLE","Zip":"32244","COUNTY":"DUVAL","X":-81.750926120000003,"Y":30.196163869999999,"LONGLAT":"-81.75092612,30.19616387","USNG":"17R MP 27716 40760","DESCRIPT":null,"PARCELID":"0165180020R","FACILITY_TYPE":"COLLEGE"}},{"type":"Feature","id":70,"geometry":{"type":"Point","coordinates":[-81.47889060169112,29.731373146733329]},"properties":{"OBJECTID":70,"Name":"BETHUNE-COOKMAN COLLEGE (SPUDS CAMPUS)","Address":"7645 STATE ROAD 207","City":"ELKTON","Zip":"32033","COUNTY":"ST. JOHNS","X":-81.4788906,"Y":29.73137315,"LONGLAT":"-81.47889060,29.73137315","USNG":"17R MN 53687 89115","DESCRIPT":null,"PARCELID":"0376400000","FACILITY_TYPE":"COLLEGE"}},{"type":"Feature","id":71,"geometry":{"type":"Point","coordinates":[-80.15536142560336,26.170420689266919]},"properties":{"OBJECTID":71,"Name":"ATI CAREER TRAINING CENTER","Address":"3501 POWERLINE RD","City":"FORT LAUDERDALE","Zip":"33309","COUNTY":"BROWARD","X":-80.155361429999999,"Y":26.17042069,"LONGLAT":"-80.15536143,26.17042069","USNG":"17R NJ 84409 94831","DESCRIPT":null,"PARCELID":"494221000361","FACILITY_TYPE":"COLLEGE"}},{"type":"Feature","id":72,"geometry":{"type":"Point","coordinates":[-81.772070744855327,30.118649814862355]},"properties":{"OBJECTID":72,"Name":"ST. JOHNS RIVER COMMUNITY COLLEGE","Address":"283 COLLEGE DR","City":"ORANGE PARK","Zip":" ","COUNTY":"CLAY","X":-81.772070740000004,"Y":30.118649820000002,"LONGLAT":"-81.77207074,30.11864982","USNG":"17R MP 25623 32184","DESCRIPT":null,"PARCELID":null,"FACILITY_TYPE":"COLLEGE"}},{"type":"Feature","id":73,"geometry":{"type":"Point","coordinates":[-82.386306852189804,27.071098282964915]},"properties":{"OBJECTID":73,"Name":"SARASOTA COUNTY TECHNICAL INSTITUTE SOUTH CAMPUS","Address":"1130 INDIAN HILLS BLVD","City":"VENICE","Zip":"34293","COUNTY":"SARASOTA","X":-82.386306849999997,"Y":27.071098280000001,"LONGLAT":"-82.38630685,27.07109828","USNG":"17R LK 62535 95066","DESCRIPT":"COUNTY","PARCELID":"0437-16-0002","FACILITY_TYPE":"COLLEGE"}},{"type":"Feature","id":74,"geometry":{"type":"Point","coordinates":[-81.561546248745159,30.338623498083358]},"properties":{"OBJECTID":74,"Name":"FLORIDA TECHNICAL COLLEGE","Address":"8711 LONE STAR RD","City":"JACKSONVILLE","Zip":"32211","COUNTY":"DUVAL","X":-81.561546250000006,"Y":30.338623500000001,"LONGLAT":"-81.56154625,30.33862350","USNG":"17R MP 46024 56442","DESCRIPT":null,"PARCELID":"1213760010R","FACILITY_TYPE":"COLLEGE"}},{"type":"Feature","id":75,"geometry":{"type":"Point","coordinates":[-81.074491433260945,29.204477146607982]},"properties":{"OBJECTID":75,"Name":"KEISER COLLEGE","Address":"1800 BUSINESS PARK BLVD","City":"DAYTONA BEACH","Zip":"32114","COUNTY":"VOLUSIA","X":-81.074491429999995,"Y":29.204477149999999,"LONGLAT":"-81.07449143,29.20447715","USNG":"17R MN 92758 30642","DESCRIPT":null,"PARCELID":"32151413000010","FACILITY_TYPE":"COLLEGE"}},{"type":"Feature","id":76,"geometry":{"type":"Point","coordinates":[-81.243155024276049,29.011992886236516]},"properties":{"OBJECTID":76,"Name":"DAYTONA STATE COLLEGE - DELAND CAMPUS","Address":"1156 COUNTY ROAD 4139","City":"DELAND","Zip":"32724","COUNTY":"VOLUSIA","X":-81.243155020000003,"Y":29.011992889999998,"LONGLAT":"-81.24315502,29.01199289","USNG":"17R MN 76319 09338","DESCRIPT":"STATE","PARCELID":"30172400000012","FACILITY_TYPE":"COLLEGE"}},{"type":"Feature","id":77,"geometry":{"type":"Point","coordinates":[-85.72798281818055,30.185569538270283]},"properties":{"OBJECTID":77,"Name":"GULF COAST COMMUNITY COLLEGE","Address":"5230 W HWY 98","City":"PANAMA CITY","Zip":"32401","COUNTY":"BAY","X":-85.727982819999994,"Y":30.185569539999999,"LONGLAT":"-85.72798282,30.18556954","USNG":"16R FU 22459 40031","DESCRIPT":"SPECIAL TAXING DISTRICT","PARCELID":"27927-000-000","FACILITY_TYPE":"COLLEGE"}},{"type":"Feature","id":78,"geometry":{"type":"Point","coordinates":[-80.167993809559931,26.187662742211508]},"properties":{"OBJECTID":78,"Name":"KEISER UNIVERSITY","Address":"1900 W COMMERCIAL BLVD","City":"FORT LAUDERDALE","Zip":"33309","COUNTY":"BROWARD","X":-80.167993809999999,"Y":26.18766274,"LONGLAT":"-80.16799381,26.18766274","USNG":"17R NJ 83134 96732","DESCRIPT":null,"PARCELID":"494216130010","FACILITY_TYPE":"COLLEGE"}},{"type":"Feature","id":79,"geometry":{"type":"Point","coordinates":[-81.508307879906596,30.269339080241991]},"properties":{"OBJECTID":79,"Name":"UNIVERSITY OF NORTH FLORIDA","Address":"4567 SAINT JOHNS BLUFF RD S","City":"JACKSONVILLE","Zip":"32224","COUNTY":"DUVAL","X":-81.508307880000004,"Y":30.269339080000002,"LONGLAT":"-81.50830788,30.26933908","USNG":"17R MP 51107 48740","DESCRIPT":"STATE OF FLORIDA TIITF","PARCELID":"1674580020R","FACILITY_TYPE":"COLLEGE"}},{"type":"Feature","id":80,"geometry":{"type":"Point","coordinates":[-81.192970917305004,29.5567655534594]},"properties":{"OBJECTID":80,"Name":"DAYTONA STATE COLLEGE","Address":"3000 PALM COAST PKWY SE","City":"PALM COAST","Zip":"32137","COUNTY":"FLAGLER","X":-81.192970919999993,"Y":29.556765550000001,"LONGLAT":"-81.19297092,29.55676555","USNG":"17R MN 81306 69688","DESCRIPT":"SPECIAL TAXING DISTRICT","PARCELID":"08-11-31-0000-01010-0002","FACILITY_TYPE":"COLLEGE"}},{"type":"Feature","id":81,"geometry":{"type":"Point","coordinates":[-82.547602098663546,27.358826999118524]},"properties":{"OBJECTID":81,"Name":"RINGLING SCHOOL OF ART AND DESIGN","Address":"2700 N TAMIAMI TRL","City":"SARASOTA","Zip":"34234","COUNTY":"SARASOTA","X":-82.547602100000006,"Y":27.358827000000002,"LONGLAT":"-82.54760210,27.35882700","USNG":"17R LL 46933 27129","DESCRIPT":null,"PARCELID":"2006-01-0001","FACILITY_TYPE":"COLLEGE"}},{"type":"Feature","id":82,"geometry":{"type":"Point","coordinates":[-80.757099392272139,28.383186083930379]},"properties":{"OBJECTID":82,"Name":"EASTERN FLORIDA STATE COLLEGE - COCOA CAMPUS","Address":"1519 CLEARLAKE RD","City":"COCOA","Zip":"32926","COUNTY":"BREVARD","X":-80.757099389999993,"Y":28.383186080000002,"LONGLAT":"-80.75709939,28.38318608","USNG":"17R NM 23797 39675","DESCRIPT":"COUNTY","PARCELID":"24 361900    2","FACILITY_TYPE":"COLLEGE"}},{"type":"Feature","id":83,"geometry":{"type":"Point","coordinates":[-81.809825719588332,26.545511750536352]},"properties":{"OBJECTID":83,"Name":"ITT TECHNICAL INSTITUTE","Address":"13490 POWERS CT","City":"FORT MYERS","Zip":"33912","COUNTY":"LEE","X":-81.809825720000006,"Y":26.545511749999999,"LONGLAT":"-81.80982572,26.54551175","USNG":"17R MK 19330 36352","DESCRIPT":null,"PARCELID":null,"FACILITY_TYPE":"COLLEGE"}},{"type":"Feature","id":84,"geometry":{"type":"Point","coordinates":[-82.500397320754317,27.982299141023208]},"properties":{"OBJECTID":84,"Name":"THE ART INISTITUTE OF TAMPA","Address":"4401 N HIMES AVE STE 150","City":"TAMPA","Zip":"33614","COUNTY":"HILLSBOROUGH","X":-82.500397320000005,"Y":27.982299139999999,"LONGLAT":"-82.50039732,27.98229914","USNG":"17R LL 52443 96148","DESCRIPT":null,"PARCELID":"182903ZZZ000005442000A","FACILITY_TYPE":"COLLEGE"}},{"type":"Feature","id":85,"geometry":{"type":"Point","coordinates":[-84.288245855777518,30.413145889098434]},"properties":{"OBJECTID":85,"Name":"FLORIDA A&M UNIVERSITY DEVELOPMENTAL RESEARCH SCHOOL","Address":"400 W ORANGE AVE","City":"TALLAHASSEE","Zip":"32301","COUNTY":"LEON","X":-84.288245860000004,"Y":30.413145889999999,"LONGLAT":"-84.28824586,30.41314589","USNG":"16R GU 60500 67688","DESCRIPT":"STATE OF FLORIDA TIITF","PARCELID":"4112209020000","FACILITY_TYPE":"COLLEGE"}},{"type":"Feature","id":86,"geometry":{"type":"Point","coordinates":[-87.232772544673153,30.472757159911048]},"properties":{"OBJECTID":86,"Name":"PENSACOLA CHRISTIAN COLLEGE","Address":"250 BRENT LN","City":"PENSACOLA","Zip":"32503","COUNTY":"ESCAMBIA","X":-87.232772539999999,"Y":30.47275716,"LONGLAT":"-87.23277254,30.47275716","USNG":"16R DU 77656 71195","DESCRIPT":null,"PARCELID":"351S304105000000","FACILITY_TYPE":"COLLEGE"}},{"type":"Feature","id":87,"geometry":{"type":"Point","coordinates":[-82.350329165943194,27.980473918732393]},"properties":{"OBJECTID":87,"Name":"EVEREST UNIVERSITY-BRANDON","Address":"3924 COCONUT PALM DR","City":"TAMPA","Zip":"33619","COUNTY":"HILLSBOROUGH","X":-82.350329169999995,"Y":27.980473920000001,"LONGLAT":"-82.35032917,27.98047392","USNG":"17R LL 67201 95773","DESCRIPT":null,"PARCELID":"20290728A000002000010U","FACILITY_TYPE":"COLLEGE"}},{"type":"Feature","id":88,"geometry":{"type":"Point","coordinates":[-81.416846002798138,26.415824845150524]},"properties":{"OBJECTID":88,"Name":"FLORIDA INTERNATIONAL UNIVERSITY CHRP OUTREACH CENTER","Address":"212 S 1ST ST","City":"IMMOKALEE","Zip":"34142","COUNTY":"COLLIER","X":-81.416846000000007,"Y":26.41582485,"LONGLAT":"-81.41684600,26.41582485","USNG":"17R MK 58430 21802","DESCRIPT":null,"PARCELID":"00116800000","FACILITY_TYPE":"COLLEGE"}},{"type":"Feature","id":89,"geometry":{"type":"Point","coordinates":[-81.340404011658805,28.559854204844857]},"properties":{"OBJECTID":89,"Name":"CONCORDE CAREER INSTITUTE","Address":"3444 MCCRORY PL","City":"ORLANDO","Zip":"32803","COUNTY":"ORANGE","X":null,"Y":null,"LONGLAT":null,"USNG":null,"DESCRIPT":null,"PARCELID":null,"FACILITY_TYPE":"COLLEGE"}},{"type":"Feature","id":90,"geometry":{"type":"Point","coordinates":[-80.27592810557492,25.722281452093483]},"properties":{"OBJECTID":90,"Name":"UM SCHOOL OF COMMUNICATION","Address":"5100 BRUNSON DR","City":"CORAL GABELS","Zip":"33146","COUNTY":"MIAMI-DADE","X":null,"Y":null,"LONGLAT":null,"USNG":null,"DESCRIPT":null,"PARCELID":null,"FACILITY_TYPE":"COLLEGE"}},{"type":"Feature","id":91,"geometry":{"type":"Point","coordinates":[-80.212067654009743,25.790347843318497]},"properties":{"OBJECTID":91,"Name":"UNIVERSITY OF MIAMI - MILLER SCHOOL OF MEDICINE","Address":"1600 NW 10TH AVE","City":"MIAMI","Zip":"33136","COUNTY":"MIAMI-DADE","X":-80.212067649999995,"Y":25.790347839999999,"LONGLAT":"-80.21206765,25.79034784","USNG":"17R NJ 78995 52702","DESCRIPT":"COUNTY","PARCELID":"0131350580010","FACILITY_TYPE":"COLLEGE"}},{"type":"Feature","id":92,"geometry":{"type":"Point","coordinates":[-81.706470894457823,30.185572850133159]},"properties":{"OBJECTID":92,"Name":"North Florida Institute","Address":"560 WELLS RD","City":"ORANGE PARK","Zip":"32073","COUNTY":"CLAY","X":-81.706470890000006,"Y":30.18557285,"LONGLAT":"-81.70647089,30.18557285","USNG":"17R MP 31988 39559","DESCRIPT":null,"PARCELID":null,"FACILITY_TYPE":"COLLEGE"}},{"type":"Feature","id":93,"geometry":{"type":"Point","coordinates":[-81.311959604806958,28.538131019455115]},"properties":{"OBJECTID":93,"Name":"KEISER UNIVERSITY","Address":"5600 LAKE UNDERHILL RD","City":"ORLANDO","Zip":"32807","COUNTY":"ORANGE","X":null,"Y":null,"LONGLAT":null,"USNG":null,"DESCRIPT":null,"PARCELID":null,"FACILITY_TYPE":"COLLEGE"}},{"type":"Feature","id":94,"geometry":{"type":"Point","coordinates":[-82.790121466234027,27.813295808202977]},"properties":{"OBJECTID":94,"Name":"ST PETERSBURG THEOLOGICAL SEMINARY","Address":"10830 NAVAJO DR","City":"SAINT PETERSBURG","Zip":"33708","COUNTY":"PINELLAS","X":-82.790121470000003,"Y":27.81329581,"LONGLAT":"-82.79012147,27.81329581","USNG":"17R LL 23671 77805","DESCRIPT":null,"PARCELID":"15 31 03 25110 000 0540","FACILITY_TYPE":"COLLEGE"}},{"type":"Feature","id":95,"geometry":{"type":"Point","coordinates":[-80.05172482620199,26.705146500106892]},"properties":{"OBJECTID":95,"Name":"PALM BEACH ATLANTIC UNIVERSITY","Address":"901 S FLAGLER DR","City":"WEST PALM BEACH","Zip":"33401","COUNTY":"PALM BEACH","X":-80.051724829999998,"Y":26.705146500000001,"LONGLAT":"-80.05172483,26.70514650","USNG":"17R NK 94330 54129","DESCRIPT":null,"PARCELID":"74434327350000010","FACILITY_TYPE":"COLLEGE"}},{"type":"Feature","id":96,"geometry":{"type":"Point","coordinates":[-81.509390780330037,30.291878928942538]},"properties":{"OBJECTID":96,"Name":"FLORIDA COMMUNITY COLLEGE - JACKSONVLLE SOUTH CAMPUS","Address":"11901 BEACH BLVD","City":"JACKSONVILLE","Zip":"32246","COUNTY":"DUVAL","X":-81.509390780000004,"Y":30.291878929999999,"LONGLAT":"-81.50939078,30.29187893","USNG":"17R MP 51014 51238","DESCRIPT":"STATE","PARCELID":"1654240000R","FACILITY_TYPE":"COLLEGE"}},{"type":"Feature","id":97,"geometry":{"type":"Point","coordinates":[-81.401780323610069,28.631945206396122]},"properties":{"OBJECTID":97,"Name":"DEVRY UNIVERSITY","Address":"1800 PEMBROOK DR","City":"ORLANDO","Zip":"32810","COUNTY":"ORANGE","X":null,"Y":null,"LONGLAT":null,"USNG":null,"DESCRIPT":null,"PARCELID":null,"FACILITY_TYPE":"COLLEGE"}},{"type":"Feature","id":98,"geometry":{"type":"Point","coordinates":[-82.43191046675966,28.033058359792772]},"properties":{"OBJECTID":98,"Name":"NEW SPRINGS SCHOOLS","Address":"2410 E BUSCH BLVD","City":"TAMPA","Zip":"33612","COUNTY":"HILLSBOROUGH","X":-82.431910470000005,"Y":28.033058359999998,"LONGLAT":"-82.43191047,28.03305836","USNG":"17R LM 59245 01691","DESCRIPT":null,"PARCELID":"19282045P0000000019A1A","FACILITY_TYPE":"COLLEGE"}},{"type":"Feature","id":99,"geometry":{"type":"Point","coordinates":[-82.797726663168945,27.857821585267754]},"properties":{"OBJECTID":99,"Name":"SPC SEMINOLE CAMPUS","Address":"9200 113TH ST N","City":"ST PETERSBURG","Zip":"33772","COUNTY":"PINELLAS","X":null,"Y":null,"LONGLAT":null,"USNG":null,"DESCRIPT":null,"PARCELID":null,"FACILITY_TYPE":"COLLEGE"}},{"type":"Feature","id":100,"geometry":{"type":"Point","coordinates":[-82.456268318286035,27.934819750583287]},"properties":{"OBJECTID":100,"Name":"HILLSBOROUGH COMMUNITY COLLEGE","Address":"39 COLUMBIA DR","City":"TAMPA","Zip":"33606","COUNTY":"HILLSBOROUGH","X":-82.456268320000007,"Y":27.934819749999999,"LONGLAT":"-82.45626832,27.93481975","USNG":"17R LL 56721 90835","DESCRIPT":"STATE","PARCELID":"182925509000000000002A","FACILITY_TYPE":"COLLEGE"}},{"type":"Feature","id":101,"geometry":{"type":"Point","coordinates":[-81.804127298379001,26.626678563670282]},"properties":{"OBJECTID":101,"Name":"RASMUSSEN COLLEGE","Address":"9160 FORUM CORPORATE PKWY","City":"FORT MYERS","Zip":"33905","COUNTY":"LEE","X":-81.804127300000005,"Y":26.626678559999998,"LONGLAT":"-81.80412730,26.62667856","USNG":"17R MK 19955 45339","DESCRIPT":null,"PARCELID":null,"FACILITY_TYPE":"COLLEGE"}},{"type":"Feature","id":102,"geometry":{"type":"Point","coordinates":[-80.11441598264517,26.138821402170997]},"properties":{"OBJECTID":102,"Name":"EVEREST INSTITUTE - FORT LAUDERDALE","Address":"1040 BAYVIEW DR","City":"FORT LAUDERDALE","Zip":"33304","COUNTY":"BROWARD","X":-80.114415980000004,"Y":26.138821400000001,"LONGLAT":"-80.11441598,26.13882140","USNG":"17R NJ 88524 91358","DESCRIPT":null,"PARCELID":"494236120040","FACILITY_TYPE":"COLLEGE"}},{"type":"Feature","id":103,"geometry":{"type":"Point","coordinates":[-82.740497763083752,28.050185311916557]},"properties":{"OBJECTID":103,"Name":"CENTRAL FLORIDA INSTITUTE","Address":"30522 US HWY 19 N","City":"PALM HARBOR","Zip":"34683","COUNTY":"PINELLAS","X":-82.740497759999997,"Y":28.05018531,"LONGLAT":"-82.74049776,28.05018531","USNG":"17R LM 28934 03983","DESCRIPT":null,"PARCELID":"16 28 18 00000 240 0800","FACILITY_TYPE":"COLLEGE"}},{"type":"Feature","id":104,"geometry":{"type":"Point","coordinates":[-80.316349330428906,25.683641748446703]},"properties":{"OBJECTID":104,"Name":"CITY COLLEGE OF MIAMI","Address":"9300 S DADELAND BLVD STE 700","City":"MIAMI","Zip":"33156","COUNTY":"MIAMI-DADE","X":-80.316349329999994,"Y":25.68364175,"LONGLAT":"-80.31634933,25.68364175","USNG":"17R NJ 68601 40827","DESCRIPT":null,"PARCELID":"3050020420010","FACILITY_TYPE":"COLLEGE"}},{"type":"Feature","id":105,"geometry":{"type":"Point","coordinates":[-80.635710309120626,28.145630196686611]},"properties":{"OBJECTID":105,"Name":"FLORIDA METRO UNIVERSITY - MELBOURNE CAMPUS","Address":"2401 N HARBOR CITY BLVD","City":"MELBOURNE","Zip":"32935","COUNTY":"BREVARD","X":-80.635710309999993,"Y":28.145630199999999,"LONGLAT":"-80.63571031,28.14563020","USNG":"17R NM 35769 13388","DESCRIPT":null,"PARCELID":null,"FACILITY_TYPE":"COLLEGE"}},{"type":"Feature","id":106,"geometry":{"type":"Point","coordinates":[-80.307595183041244,25.856541405224466]},"properties":{"OBJECTID":106,"Name":"ADVANCED SCIENCE INSTITUTE","Address":"3750 W 12TH AVE","City":"HIALEAH","Zip":"33012","COUNTY":"MIAMI-DADE","X":null,"Y":null,"LONGLAT":null,"USNG":null,"DESCRIPT":null,"PARCELID":null,"FACILITY_TYPE":"COLLEGE"}},{"type":"Feature","id":107,"geometry":{"type":"Point","coordinates":[-82.590785815406036,27.43813800232164]},"properties":{"OBJECTID":107,"Name":"STATE COLLEGE OF FLORIDA - MANATEE CAMPUS","Address":"5840 26TH ST W","City":"BRADENTON","Zip":"34207","COUNTY":"MANATEE","X":-82.590785819999994,"Y":27.438137999999999,"LONGLAT":"-82.59078582,27.43813800","USNG":"17R LL 42774 35970","DESCRIPT":"STATE","PARCELID":"6108900058","FACILITY_TYPE":"COLLEGE"}},{"type":"Feature","id":108,"geometry":{"type":"Point","coordinates":[-81.35368075813156,28.77695529998255]},"properties":{"OBJECTID":108,"Name":"REMINGTON COLLEGE OF NURSING","Address":"660 CENTURY PT STE 1050","City":"LAKE MARY","Zip":"32746","COUNTY":"SEMINOLE","X":-81.353680760000003,"Y":28.776955300000001,"LONGLAT":"-81.35368076,28.77695530","USNG":"17R MM 65477 83325","DESCRIPT":null,"PARCELID":null,"FACILITY_TYPE":"COLLEGE"}},{"type":"Feature","id":109,"geometry":{"type":"Point","coordinates":[-81.336474712931775,28.55913005743794]},"properties":{"OBJECTID":109,"Name":"ANTHEM COLLEGE - ORLANDO CAMPUS","Address":"3710 MAGUIRE BLVD","City":"ORLANDO","Zip":"32803","COUNTY":"ORANGE","X":-81.336474710000005,"Y":28.559130060000001,"LONGLAT":"-81.33647471,28.55913006","USNG":"17R MM 67089 59188","DESCRIPT":null,"PARCELID":"302220636200011","FACILITY_TYPE":"COLLEGE"}},{"type":"Feature","id":110,"geometry":{"type":"Point","coordinates":[-81.693023830764588,26.101883616201956]},"properties":{"OBJECTID":110,"Name":"FLORIDA SOUTHWESTREN STATE COLLEGE - COLLIER CAMPUS","Address":"707 LELY CULTURAL PKWY","City":"NAPLES","Zip":"34113","COUNTY":"COLLIER","X":-81.693023830000001,"Y":26.101883619999999,"LONGLAT":"-81.69302383,26.10188362","USNG":"17R MJ 30702 87151","DESCRIPT":null,"PARCELID":null,"FACILITY_TYPE":"COLLEGE"}},{"type":"Feature","id":111,"geometry":{"type":"Point","coordinates":[-84.294993818564677,30.44159916994569]},"properties":{"OBJECTID":111,"Name":"FLORIDA STATE UNIVERSITY","Address":"600 W COLLEGE AVE","City":"TALLAHASSEE","Zip":"32304","COUNTY":"LEON","X":-84.294993820000002,"Y":30.44159917,"LONGLAT":"-84.29499382,30.44159917","USNG":"16R GU 59776 70828","DESCRIPT":"STATE OF FLORIDA TIITF","PARCELID":"2135209010007","FACILITY_TYPE":"COLLEGE"}},{"type":"Feature","id":112,"geometry":{"type":"Point","coordinates":[-80.335235555141452,25.80918138062496]},"properties":{"OBJECTID":112,"Name":"Connecticut Broadcasting School (CBS) ","Address":"8600 NW 36TH ST","City":"DORAL","Zip":"33166","COUNTY":"MIAMI-DADE","X":-80.335235560000001,"Y":25.809181379999998,"LONGLAT":"-80.33523556,25.80918138","USNG":"17R NJ 66636 54720","DESCRIPT":null,"PARCELID":null,"FACILITY_TYPE":"COLLEGE"}},{"type":"Feature","id":113,"geometry":{"type":"Point","coordinates":[-80.318836982341793,25.864905280827813]},"properties":{"OBJECTID":113,"Name":"MIAMI DADE COLLEGE HIALEAH","Address":"1780 W 49TH ST","City":"HIALEAH","Zip":"33012","COUNTY":"MIAMI-DADE","X":null,"Y":null,"LONGLAT":null,"USNG":null,"DESCRIPT":null,"PARCELID":null,"FACILITY_TYPE":"COLLEGE"}},{"type":"Feature","id":114,"geometry":{"type":"Point","coordinates":[-81.363010039134252,28.30250882146612]},"properties":{"OBJECTID":114,"Name":"FLORIDA CHRISTIAN COLLEGE","Address":"1011 BILL BECK BLVD","City":"KISSIMMEE","Zip":"34744","COUNTY":"OSCEOLA","X":-81.363010040000006,"Y":28.30250882,"LONGLAT":"-81.36301004,28.30250882","USNG":"17R MM 64407 30767","DESCRIPT":"SPECIAL TAXING DISTRICT","PARCELID":"24-25-29-0000-0015-0000","FACILITY_TYPE":"COLLEGE"}},{"type":"Feature","id":115,"geometry":{"type":"Point","coordinates":[-84.288245855777518,30.413145889098434]},"properties":{"OBJECTID":115,"Name":"FLORIDA A&M UNIVERSITY DEVELOPMENTAL RESEARCH SCHOOL","Address":"400 W ORANGE AVE","City":"TALLAHASSEE","Zip":"32301","COUNTY":"LEON","X":-84.288245860000004,"Y":30.413145889999999,"LONGLAT":"-84.28824586,30.41314589","USNG":"16R GU 60500 67688","DESCRIPT":"STATE OF FLORIDA TIITF","PARCELID":"4112209020000","FACILITY_TYPE":"COLLEGE"}},{"type":"Feature","id":116,"geometry":{"type":"Point","coordinates":[-81.402130743882793,28.663612657571189]},"properties":{"OBJECTID":116,"Name":"CITY COLLEGE - ALTAMONTE SPRINGS","Address":"177 MONTGOMERY RD","City":"ALTAMONTE SPRINGS","Zip":"32714","COUNTY":"SEMINOLE","X":-81.402130740000004,"Y":28.663612659999998,"LONGLAT":"-81.40213074,28.66361266","USNG":"17R MM 60706 70783","DESCRIPT":null,"PARCELID":"152129300015D0000","FACILITY_TYPE":"COLLEGE"}},{"type":"Feature","id":117,"geometry":{"type":"Point","coordinates":[-80.286936763385086,25.806791794493087]},"properties":{"OBJECTID":117,"Name":"Embry Riddle Aeronautical University - Main Campus","Address":"5600 NW 36TH ST","City":"MIAMI","Zip":"33166","COUNTY":"MIAMI-DADE","X":-80.286936760000003,"Y":25.806791799999999,"LONGLAT":"-80.28693676,25.80679180","USNG":"17R NJ 71479 54481","DESCRIPT":null,"PARCELID":null,"FACILITY_TYPE":"COLLEGE"}},{"type":"Feature","id":118,"geometry":{"type":"Point","coordinates":[-80.408070867966401,27.426068670212459]},"properties":{"OBJECTID":118,"Name":"UF RESEARCH AND EDUC CENTER","Address":"2199 S Rock Rd","City":" ","Zip":"34945","COUNTY":"ST. LUCIE","X":-80.408070870000003,"Y":27.426068669999999,"LONGLAT":"-80.40807087,27.42606867","USNG":"17R NL 58506 33766","DESCRIPT":"STATE","PARCELID":null,"FACILITY_TYPE":"COLLEGE"}},{"type":"Feature","id":119,"geometry":{"type":"Point","coordinates":[-80.136845650112107,25.985294956489827]},"properties":{"OBJECTID":119,"Name":"ACADEMY FOR FIVE ELEMENT ACUPUNCTURE","Address":"1170A E HALLANDALE BEACH BLVD","City":"HALLANDALE","Zip":"33009","COUNTY":"BROWARD","X":-80.136845649999998,"Y":25.985294960000001,"LONGLAT":"-80.13684565,25.98529496","USNG":"17R NJ 86395 74340","DESCRIPT":null,"PARCELID":"514227360010","FACILITY_TYPE":"COLLEGE"}},{"type":"Feature","id":120,"geometry":{"type":"Point","coordinates":[-81.581379097651961,30.249007695326227]},"properties":{"OBJECTID":120,"Name":"ITT TECHNICAL INSTITUTE","Address":"7011 A C SKINNER PKWY STE 140","City":"JACKSONVILLE","Zip":"32256","COUNTY":"DUVAL","X":-81.581379100000007,"Y":30.2490077,"LONGLAT":"-81.58137910,30.24900770","USNG":"17R MP 44067 46520","DESCRIPT":null,"PARCELID":"1525750750R","FACILITY_TYPE":"COLLEGE"}},{"type":"Feature","id":121,"geometry":{"type":"Point","coordinates":[-81.619315345814186,30.300452157575204]},"properties":{"OBJECTID":121,"Name":"STENOTYPE INSTITUTE OF JACKSONVILLE","Address":"3986 BOULEVARD CENTER DR","City":"JACKSONVILLE","Zip":"32207","COUNTY":"DUVAL","X":-81.619315349999994,"Y":30.300452159999999,"LONGLAT":"-81.61931535,30.30045216","USNG":"17R MP 40448 52241","DESCRIPT":null,"PARCELID":"1366130000R","FACILITY_TYPE":"COLLEGE"}},{"type":"Feature","id":122,"geometry":{"type":"Point","coordinates":[-81.301300022370626,28.567091795534804]},"properties":{"OBJECTID":122,"Name":"Barry University","Address":"6441 E Colonial Dr","City":"Orlando","Zip":"32807","COUNTY":null,"X":-81.301300019999999,"Y":28.5670918,"LONGLAT":"-81.30130002,28.56709180","USNG":"17R MM 70531 60061","DESCRIPT":null,"PARCELID":null,"FACILITY_TYPE":"COLLEGE"}},{"type":"Feature","id":123,"geometry":{"type":"Point","coordinates":[-83.421794551711017,30.473903541031703]},"properties":{"OBJECTID":123,"Name":"NORTH FLORIDA COMMUNITY COLLEGE","Address":"325 TURNER DAVIS DR","City":"MADISON","Zip":"32340","COUNTY":"MADISON","X":-83.421794550000001,"Y":30.473903539999998,"LONGLAT":"-83.42179455,30.47390354","USNG":"17R KP 67507 73792","DESCRIPT":"SPECIAL TAXING DISTRICT","PARCELID":"21-1N-09-3863-001-000","FACILITY_TYPE":"COLLEGE"}},{"type":"Feature","id":124,"geometry":{"type":"Point","coordinates":[-81.796068884663725,28.828683444520706]},"properties":{"OBJECTID":124,"Name":"LAKE SUMTER COMMUNITY COLLEGE","Address":"9737 US HIGHWAY 441","City":"LEESBURG","Zip":"34788","COUNTY":"LAKE","X":-81.796068880000007,"Y":28.82868345,"LONGLAT":"-81.79606888,28.82868345","USNG":"17R MM 22334 89265","DESCRIPT":"COUNTY","PARCELID":"221925000100001000","FACILITY_TYPE":"COLLEGE"}},{"type":"Feature","id":125,"geometry":{"type":"Point","coordinates":[-80.270772770557301,25.918230590558053]},"properties":{"OBJECTID":125,"Name":"FLORIDA MEMORIAL UNIVERSITY","Address":"15800 NW 42ND AVE","City":"OPA LOCKA","Zip":"33054","COUNTY":"MIAMI-DADE","X":-80.270772769999994,"Y":25.91823059,"LONGLAT":"-80.27077277,25.91823059","USNG":"17R NJ 73031 66831","DESCRIPT":null,"PARCELID":"3421170010010","FACILITY_TYPE":"COLLEGE"}},{"type":"Feature","id":126,"geometry":{"type":"Point","coordinates":[-80.403176629156889,25.656155581867818]},"properties":{"OBJECTID":126,"Name":"CCI School of Council ","Address":"12002 SW 128TH CT","City":"MIAMI","Zip":"33186","COUNTY":"MIAMI-DADE","X":-80.403176630000004,"Y":25.65615558,"LONGLAT":"-80.40317663,25.65615558","USNG":"17R NJ 59902 37741","DESCRIPT":null,"PARCELID":null,"FACILITY_TYPE":"COLLEGE"}},{"type":"Feature","id":127,"geometry":{"type":"Point","coordinates":[-80.249849683584088,26.081315037531844]},"properties":{"OBJECTID":127,"Name":"NOVA SE UNIVERSITY - HEALTH PROFESSIONS DIVISION","Address":"3200 S UNIVERSITY DR","City":"FORT LAUDERDALE","Zip":"33328","COUNTY":"BROWARD","X":-80.249849679999997,"Y":26.08131504,"LONGLAT":"-80.24984968,26.08131504","USNG":"17R NJ 75022 84904","DESCRIPT":null,"PARCELID":"504121130030","FACILITY_TYPE":"COLLEGE"}},{"type":"Feature","id":128,"geometry":{"type":"Point","coordinates":[-82.465539448836751,27.35166284641884]},"properties":{"OBJECTID":128,"Name":"ARGOSY UNIVERSITY","Address":"5250 17TH ST","City":"SARASOTA","Zip":"34232","COUNTY":"SARASOTA","X":-82.465539449999994,"Y":27.35166285,"LONGLAT":"-82.46553945,27.35166285","USNG":"17R LL 55042 26238","DESCRIPT":null,"PARCELID":"0040-01-0001","FACILITY_TYPE":"COLLEGE"}},{"type":"Feature","id":129,"geometry":{"type":"Point","coordinates":[-80.385914666039838,25.689115487605818]},"properties":{"OBJECTID":129,"Name":"KEISER UNIVERSITY","Address":"8505 MILLS DR","City":"MIAMI","Zip":"33183","COUNTY":"MIAMI-DADE","X":-80.385914670000005,"Y":25.689115489999999,"LONGLAT":"-80.38591467,25.68911549","USNG":"17R NJ 61617 41399","DESCRIPT":null,"PARCELID":null,"FACILITY_TYPE":"COLLEGE"}},{"type":"Feature","id":130,"geometry":{"type":"Point","coordinates":[-82.422960895567087,27.378538152808336]},"properties":{"OBJECTID":130,"Name":"MANATEE COMMUNITY COLLEGE - CIT LAKEWOOD RANCH","Address":"7131 PROFESSIONAL PKWY","City":"SARASOTA","Zip":"34240","COUNTY":"SARASOTA","X":-82.422960900000007,"Y":27.378538150000001,"LONGLAT":"-82.42296090,27.37853815","USNG":"17R LL 59288 29166","DESCRIPT":"STATE","PARCELID":"0188-01-0040","FACILITY_TYPE":"COLLEGE"}},{"type":"Feature","id":131,"geometry":{"type":"Point","coordinates":[-81.55336595586914,30.221771377038671]},"properties":{"OBJECTID":131,"Name":"FLORIDA STATE COLLEGE AT JACKSONVILLE - DEERWOOD CENTER","Address":"9911 OLD BAYMEADOWS RD","City":"JACKSONVILLE","Zip":"32256","COUNTY":"DUVAL","X":-81.553365959999994,"Y":30.22177138,"LONGLAT":"-81.55336596,30.22177138","USNG":"17R MP 46747 43489","DESCRIPT":null,"PARCELID":null,"FACILITY_TYPE":"COLLEGE"}},{"type":"Feature","id":132,"geometry":{"type":"Point","coordinates":[-81.871332485456747,26.562566873765551]},"properties":{"OBJECTID":132,"Name":"BARRY UNIVERSITY","Address":"12381 S CLEVELAND AVE","City":"FORT MYERS","Zip":"33907","COUNTY":"LEE","X":-81.87133249,"Y":26.562566870000001,"LONGLAT":"-81.87133249,26.56256687","USNG":"17R MK 13216 38282","DESCRIPT":null,"PARCELID":null,"FACILITY_TYPE":"COLLEGE"}},{"type":"Feature","id":133,"geometry":{"type":"Point","coordinates":[-84.338941401194532,30.443879669252794]},"properties":{"OBJECTID":133,"Name":"TALLAHASSEE COMMUNITY COLLEGE","Address":"444 APPLEYARD DR","City":"TALLAHASSEE","Zip":"32304","COUNTY":"LEON","X":-84.338941399999996,"Y":30.443879670000001,"LONGLAT":"-84.33894140,30.44387967","USNG":"16R GU 55548 70980","DESCRIPT":"STATE","PARCELID":"212851  K0002","FACILITY_TYPE":"COLLEGE"}},{"type":"Feature","id":134,"geometry":{"type":"Point","coordinates":[-82.39001662171475,27.992922182598534]},"properties":{"OBJECTID":134,"Name":"SANFORD-BROWN INSTITUTE","Address":"5701 E HILLSBOROUGH AVE STE 1417","City":"TAMPA","Zip":"33610","COUNTY":"HILLSBOROUGH","X":-82.390016619999997,"Y":27.992922180000001,"LONGLAT":"-82.39001662,27.99292218","USNG":"17R LL 63313 97196","DESCRIPT":null,"PARCELID":"192903ZZZ000001438600U","FACILITY_TYPE":"COLLEGE"}},{"type":"Feature","id":135,"geometry":{"type":"Point","coordinates":[-81.945907923032863,28.05285986704795]},"properties":{"OBJECTID":135,"Name":"EVEREST UNIVERSITY","Address":"995 E MEMORIAL BLVD STE 110","City":"LAKELAND","Zip":"33801","COUNTY":"POLK","X":-81.945907919999996,"Y":28.052859869999999,"LONGLAT":"-81.94590792,28.05285987","USNG":"17R MM 07038 03418","DESCRIPT":null,"PARCELID":"242818000000013030","FACILITY_TYPE":"COLLEGE"}},{"type":"Feature","id":136,"geometry":{"type":"Point","coordinates":[-80.398832810910335,27.328248804738703]},"properties":{"OBJECTID":136,"Name":"Indian River State College","Address":"500 NW California Blvd","City":"Port St. Lucie","Zip":"34983","COUNTY":"ST. LUCIE","X":-80.398832810000002,"Y":27.328248810000002,"LONGLAT":"-80.39883281,27.32824881","USNG":"17R NL 59471 22935","DESCRIPT":null,"PARCELID":null,"FACILITY_TYPE":"COLLEGE"}},{"type":"Feature","id":137,"geometry":{"type":"Point","coordinates":[-81.407071669813362,28.420182381099362]},"properties":{"OBJECTID":137,"Name":"UNIVERSAL TECHNICAL INSTITUTE","Address":"2202 W TAFT VINELAND RD","City":"ORLANDO","Zip":"32837","COUNTY":"ORANGE","X":null,"Y":null,"LONGLAT":null,"USNG":null,"DESCRIPT":null,"PARCELID":null,"FACILITY_TYPE":"COLLEGE"}},{"type":"Feature","id":138,"geometry":{"type":"Point","coordinates":[-80.232040138788108,26.081444802711701]},"properties":{"OBJECTID":138,"Name":"BROWARD COMMUNITY COLLEGE - CENTRAL CAMPUS","Address":"3501 SW DAVIE RD","City":"FORT LAUDERDALE","Zip":"33314","COUNTY":"BROWARD","X":-80.232040139999995,"Y":26.0814448,"LONGLAT":"-80.23204014,26.08144480","USNG":"17R NJ 76803 84929","DESCRIPT":null,"PARCELID":"504137011622","FACILITY_TYPE":"COLLEGE"}},{"type":"Feature","id":139,"geometry":{"type":"Point","coordinates":[-80.103108694711281,26.370400937340499]},"properties":{"OBJECTID":139,"Name":"FLORIDA ATLANTIC UNIVERSITY","Address":"777 GLADES RD","City":"BOCA RATON","Zip":"33431","COUNTY":"PALM BEACH","X":-80.103108689999999,"Y":26.37040094,"LONGLAT":"-80.10310869,26.37040094","USNG":"17R NK 89477 17015","DESCRIPT":"STATE OF FLORIDA TIITF","PARCELID":"06434718000003010","FACILITY_TYPE":"COLLEGE"}},{"type":"Feature","id":140,"geometry":{"type":"Point","coordinates":[-81.301300022370626,28.567091795534804]},"properties":{"OBJECTID":140,"Name":"BARRY UNIVERSITY","Address":"6441 E COLONIAL DR","City":"ORLANDO","Zip":"32807","COUNTY":"ORANGE","X":null,"Y":null,"LONGLAT":null,"USNG":null,"DESCRIPT":null,"PARCELID":null,"FACILITY_TYPE":"COLLEGE"}},{"type":"Feature","id":141,"geometry":{"type":"Point","coordinates":[-80.203485874797892,25.94294736944785]},"properties":{"OBJECTID":141,"Name":"TRINITY INTERNATIONAL UNIVERSITY - SOUTH FL CAMPUS","Address":"111 NW 183RD ST STE 500","City":"MIAMI","Zip":"33169","COUNTY":"MIAMI-DADE","X":-80.203485869999994,"Y":25.942947369999999,"LONGLAT":"-80.20348587,25.94294737","USNG":"17R NJ 79753 69608","DESCRIPT":null,"PARCELID":"3421010000110","FACILITY_TYPE":"COLLEGE"}},{"type":"Feature","id":142,"geometry":{"type":"Point","coordinates":[-80.320078589923654,25.855745671068057]},"properties":{"OBJECTID":142,"Name":"Florida Career College Hialeah ","Address":"3750 W 18TH AVE","City":"HIALEAH","Zip":"33012","COUNTY":"MIAMI-DADE","X":-80.320078589999994,"Y":25.855745670000001,"LONGLAT":"-80.32007859,25.85574567","USNG":"17R NJ 68128 59885","DESCRIPT":null,"PARCELID":null,"FACILITY_TYPE":"COLLEGE"}},{"type":"Feature","id":143,"geometry":{"type":"Point","coordinates":[-86.474398518141754,30.539253416850958]},"properties":{"OBJECTID":143,"Name":"NORTHWEST FLORIDA STATE COLLEGE","Address":"100 E COLLEGE BLVD","City":"NICEVILLE","Zip":"32578","COUNTY":"OKALOOSA","X":-86.474398519999994,"Y":30.539253420000001,"LONGLAT":"-86.47439852,30.53925342","USNG":"16R EU 50417 78658","DESCRIPT":"SPECIAL TAXING DISTRICT","PARCELID":"32-1N-22-0000-0001-0000","FACILITY_TYPE":"COLLEGE"}},{"type":"Feature","id":144,"geometry":{"type":"Point","coordinates":[-81.314523504759165,29.863288163686914]},"properties":{"OBJECTID":144,"Name":"UNIVERSITY OF ST AUGUSTINE","Address":"1 UNIVERSITY BLVD","City":"SAINT AUGUSTINE","Zip":"32086","COUNTY":"ST. JOHNS","X":-81.314523500000007,"Y":29.86328816,"LONGLAT":"-81.31452350,29.86328816","USNG":"17R MP 69623 03678","DESCRIPT":"SPECIAL TAXING DISTRICT","PARCELID":"1351200090","FACILITY_TYPE":"COLLEGE"}},{"type":"Feature","id":145,"geometry":{"type":"Point","coordinates":[-80.136176056264446,25.812007710280742]},"properties":{"OBJECTID":145,"Name":"TALMUDIC UNIVERSITY/MESIVTA OF GREATER MIAMI","Address":"4000 ALTON RD","City":"MIAMI BEACH","Zip":"33140","COUNTY":"MIAMI-DADE","X":-80.136176059999997,"Y":25.81200771,"LONGLAT":"-80.13617606,25.81200771","USNG":"17R NJ 86588 55149","DESCRIPT":null,"PARCELID":"0232220110430","FACILITY_TYPE":"COLLEGE"}},{"type":"Feature","id":146,"geometry":{"type":"Point","coordinates":[-81.80018941042276,26.609900597528348]},"properties":{"OBJECTID":146,"Name":"NOVA SOUTHEASTERN UNIVERSITY","Address":"3650 COLONIAL CT","City":"FORT MYERS","Zip":"33913","COUNTY":"LEE","X":-81.800189410000002,"Y":26.6099006,"LONGLAT":"-81.80018941,26.60990060","USNG":"17R MK 20335 43478","DESCRIPT":null,"PARCELID":null,"FACILITY_TYPE":"COLLEGE"}},{"type":"Feature","id":147,"geometry":{"type":"Point","coordinates":[-81.30945966192067,28.560574976142966]},"properties":{"OBJECTID":147,"Name":"FLORIDA CAREER COLLEGE","Address":"989 N SEMORAN BLVD","City":"ORLANDO","Zip":"32807","COUNTY":"ORANGE","X":null,"Y":null,"LONGLAT":null,"USNG":null,"DESCRIPT":null,"PARCELID":null,"FACILITY_TYPE":"COLLEGE"}},{"type":"Feature","id":148,"geometry":{"type":"Point","coordinates":[-81.351333473080444,28.662113478891584]},"properties":{"OBJECTID":148,"Name":"GOLF ACADEMY OF THE SOUTH","Address":"1200 E ALTAMONTE DR STE 1010","City":"ALTAMONTE SPRINGS","Zip":"32701","COUNTY":"SEMINOLE","X":-81.35133347,"Y":28.662113479999999,"LONGLAT":"-81.35133347,28.66211348","USNG":"17R MM 65669 70602","DESCRIPT":null,"PARCELID":"182130300001A0000","FACILITY_TYPE":"COLLEGE"}},{"type":"Feature","id":149,"geometry":{"type":"Point","coordinates":[-81.917971755403087,28.030608701653616]},"properties":{"OBJECTID":149,"Name":"SOUTHEASTERN UNIVERSITY","Address":"1000 LONGFELLOW BLVD","City":"LAKELAND","Zip":"33801","COUNTY":"POLK","X":-81.91797176,"Y":28.030608699999998,"LONGLAT":"-81.91797176,28.03060870","USNG":"17R MM 09766 00932","DESCRIPT":null,"PARCELID":"242821000000041080","FACILITY_TYPE":"COLLEGE"}},{"type":"Feature","id":150,"geometry":{"type":"Point","coordinates":[-81.404923719121982,28.462274547959886]},"properties":{"OBJECTID":150,"Name":"UNIVERSITY OF CENTRAL FLORIDA - SOUTH ORLANDO CAMPUS","Address":"7300 LAKE ELLENOR DR","City":"ORLANDO","Zip":"32809","COUNTY":"ORANGE","X":-81.404923719999999,"Y":28.46227455,"LONGLAT":"-81.40492372,28.46227455","USNG":"17R MM 60357 48479","DESCRIPT":"STATE","PARCELID":"292327000000003","FACILITY_TYPE":"COLLEGE"}},{"type":"Feature","id":151,"geometry":{"type":"Point","coordinates":[-81.683566853239029,30.343392287412424]},"properties":{"OBJECTID":151,"Name":"EDWARD WATERS COLLEGE ","Address":"1658 KINGS ROAD ","City":"JACKSONVILLE ","Zip":"32209","COUNTY":"DUVAL","X":-81.683566850000005,"Y":30.343392290000001,"LONGLAT":"-81.68356685,30.34339229","USNG":"17R MP 34298 57034","DESCRIPT":null,"PARCELID":null,"FACILITY_TYPE":"COLLEGE"}},{"type":"Feature","id":152,"geometry":{"type":"Point","coordinates":[-82.634940113209169,27.762810340439341]},"properties":{"OBJECTID":152,"Name":"UNIVERSITY OF SOUTH FLORIDA - ST. PETERSBURG CAMPUS","Address":"801 3RD ST S","City":"SAINT PETERSBURG","Zip":"33701","COUNTY":"PINELLAS","X":-82.634940110000002,"Y":27.762810340000001,"LONGLAT":"-82.63494011,27.76281034","USNG":"17R LL 38885 71999","DESCRIPT":"STATE OF FLORIDA TIITF","PARCELID":"17 31 19 93329 001 0010","FACILITY_TYPE":"COLLEGE"}},{"type":"Feature","id":153,"geometry":{"type":"Point","coordinates":[-81.560295413687967,30.282684880226842]},"properties":{"OBJECTID":153,"Name":"TULSA WELDING SCHOOL - JACKSONVILLE CAMPUS","Address":"3500 SOUTHSIDE BLVD","City":"JACKSONVILLE","Zip":"32216","COUNTY":"DUVAL","X":-81.560295409999995,"Y":30.282684880000001,"LONGLAT":"-81.56029541,30.28268488","USNG":"17R MP 46114 50242","DESCRIPT":null,"PARCELID":null,"FACILITY_TYPE":"COLLEGE"}},{"type":"Feature","id":154,"geometry":{"type":"Point","coordinates":[-81.888872335310012,26.551652468747267]},"properties":{"OBJECTID":154,"Name":"FLORIDA SOUTHWESTREN STATE COLLEGE - LEE CAMPUS","Address":"8099 COLLEGE PKWY SW","City":"FORT MYERS","Zip":"33919","COUNTY":"LEE","X":-81.888872340000006,"Y":26.551652470000001,"LONGLAT":"-81.88887234,26.55165247","USNG":"17R MK 11461 37085","DESCRIPT":"SPECIAL TAXING DISTRICT","PARCELID":"2245240000001007A","FACILITY_TYPE":"COLLEGE"}},{"type":"Feature","id":155,"geometry":{"type":"Point","coordinates":[-82.775913758413068,27.915251222372024]},"properties":{"OBJECTID":155,"Name":"EVEREST UNIVERSITY","Address":"1199 EAST BAY DR","City":"LARGO","Zip":"33771","COUNTY":"PINELLAS","X":-82.775913759999995,"Y":27.915251219999998,"LONGLAT":"-82.77591376,27.91525122","USNG":"17R LL 25235 89082","DESCRIPT":null,"PARCELID":"15 29 35 98332 000 0010","FACILITY_TYPE":"COLLEGE"}},{"type":"Feature","id":156,"geometry":{"type":"Point","coordinates":[-81.400221951849005,28.469903750068614]},"properties":{"OBJECTID":156,"Name":"FLORIDA SOUTHERN COLLEGE OF ORLANDO","Address":"6035 S RIO GRANDE AVE","City":"ORLANDO","Zip":"32809","COUNTY":"ORANGE","X":-81.400221950000002,"Y":28.46990375,"LONGLAT":"-81.40022195,28.46990375","USNG":"17R MM 60821 49323","DESCRIPT":null,"PARCELID":"292322726873000","FACILITY_TYPE":"COLLEGE"}},{"type":"Feature","id":157,"geometry":{"type":"Point","coordinates":[-81.170380587369394,28.631630151209507]},"properties":{"OBJECTID":157,"Name":"SEMINOLE STATE COLLEGE - OVIEDO CAMPUS","Address":"2505 LOCKWOOD BLVD","City":"OVIEDO","Zip":"32765","COUNTY":"SEMINOLE","X":-81.170380589999994,"Y":28.631630149999999,"LONGLAT":"-81.17038059,28.63163015","USNG":"17R MM 83346 67186","DESCRIPT":null,"PARCELID":null,"FACILITY_TYPE":"COLLEGE"}},{"type":"Feature","id":158,"geometry":{"type":"Point","coordinates":[-80.246326619350057,25.876984781817796]},"properties":{"OBJECTID":158,"Name":"MIAMI-DADE COMMUNITY COLLEGE - NORTH CAMPUS","Address":"11380 NW 27TH AVE","City":"MIAMI","Zip":"33167","COUNTY":"MIAMI-DADE","X":-80.246326620000005,"Y":25.876984780000001,"LONGLAT":"-80.24632662,25.87698478","USNG":"17R NJ 75505 62277","DESCRIPT":"SPECIAL TAXING DISTRICT","PARCELID":"3021330010020","FACILITY_TYPE":"COLLEGE"}},{"type":"Feature","id":159,"geometry":{"type":"Point","coordinates":[-82.433228544172295,29.680585189128958]},"properties":{"OBJECTID":159,"Name":"SANTA FE COMMUNITY COLLEGE","Address":"3000 NW 83RD ST","City":"GAINESVILLE","Zip":"32606","COUNTY":"ALACHUA","X":-82.433228540000002,"Y":29.680585189999999,"LONGLAT":"-82.43322854,29.68058519","USNG":"17R LN 61320 84251","DESCRIPT":"SPECIAL TAXING DISTRICT","PARCELID":"06231 005 000","FACILITY_TYPE":"COLLEGE"}},{"type":"Feature","id":160,"geometry":{"type":"Point","coordinates":[-85.602668857134589,30.071251498893254]},"properties":{"OBJECTID":160,"Name":"EMBRY-RIDDLE AERONAUTICAL UNIVERSITY","Address":"921 BEACON BEACH RD","City":"PANAMA CITY ","Zip":"32403","COUNTY":"BAY","X":-85.602668859999994,"Y":30.071251499999999,"LONGLAT":"-85.60266886,30.07125150","USNG":"16R FU 34679 27503","DESCRIPT":null,"PARCELID":null,"FACILITY_TYPE":"COLLEGE"}},{"type":"Feature","id":161,"geometry":{"type":"Point","coordinates":[-82.061237813433451,28.736395035614912]},"properties":{"OBJECTID":161,"Name":"LAKE-SUMTER STATE COLLEGE","Address":"1425 COUNTY ROAD 526-A","City":"SUMTERVILLE","Zip":"33585","COUNTY":"SUMTER","X":-82.061237809999994,"Y":28.736395040000001,"LONGLAT":"-82.06123781,28.73639504","USNG":"17R LM 96371 79242","DESCRIPT":"SPECIAL TAXING DISTRICT","PARCELID":"J24=026","FACILITY_TYPE":"COLLEGE"}},{"type":"Feature","id":162,"geometry":{"type":"Point","coordinates":[-80.141346395631231,25.782431250535748]},"properties":{"OBJECTID":162,"Name":"YESHIVA GEDOLAH RABBINICAL COLLEGE","Address":"1140 ALTON RD","City":"MIAMI BEACH","Zip":"33139","COUNTY":"MIAMI-DADE","X":-80.141346400000003,"Y":25.782431249999998,"LONGLAT":"-80.14134640,25.78243125","USNG":"17R NJ 86091 51870","DESCRIPT":null,"PARCELID":"0232340250170","FACILITY_TYPE":"COLLEGE"}},{"type":"Feature","id":163,"geometry":{"type":"Point","coordinates":[-82.497598688395101,27.996622218113817]},"properties":{"OBJECTID":163,"Name":"EVEREST UNIVERSITY","Address":"3319 W HILLSBOROUGH AVE","City":"TAMPA","Zip":"33614","COUNTY":"HILLSBOROUGH","X":-82.497598690000004,"Y":27.996622219999999,"LONGLAT":"-82.49759869,27.99662222","USNG":"17R LL 52738 97731","DESCRIPT":null,"PARCELID":"182834ZZZ000005411200A","FACILITY_TYPE":"COLLEGE"}},{"type":"Feature","id":164,"geometry":{"type":"Point","coordinates":[-80.25576885668471,25.922723252690062]},"properties":{"OBJECTID":164,"Name":"St. Thomas University - Main Campus","Address":"16401 NW 37TH AVE","City":"MIAMI GARDENS","Zip":"33054","COUNTY":"MIAMI-DADE","X":-80.255768860000003,"Y":25.922723250000001,"LONGLAT":"-80.25576886,25.92272325","USNG":"17R NJ 74530 67337","DESCRIPT":null,"PARCELID":null,"FACILITY_TYPE":"COLLEGE"}},{"type":"Feature","id":165,"geometry":{"type":"Point","coordinates":[-81.360501953338286,28.664329719696973]},"properties":{"OBJECTID":165,"Name":"EVERGLADES UNIVERSITY","Address":"887 E ALTAMONTE DR","City":"ALTAMONTE SPRINGS","Zip":"32701","COUNTY":"SEMINOLE","X":-81.36050195,"Y":28.664329720000001,"LONGLAT":"-81.36050195,28.66432972","USNG":"17R MM 64774 70850","DESCRIPT":null,"PARCELID":null,"FACILITY_TYPE":"COLLEGE"}},{"type":"Feature","id":166,"geometry":{"type":"Point","coordinates":[-81.610226107292164,30.327945810799608]},"properties":{"OBJECTID":166,"Name":"JONES COLLEGE","Address":"5353 ARLINGTON EXPY","City":"JACKSONVILLE","Zip":"32211","COUNTY":"DUVAL","X":-81.610226109999999,"Y":30.327945809999999,"LONGLAT":"-81.61022611,30.32794581","USNG":"17R MP 41339 55283","DESCRIPT":null,"PARCELID":"1294280000R","FACILITY_TYPE":"COLLEGE"}},{"type":"Feature","id":167,"geometry":{"type":"Point","coordinates":[-82.477612085065616,27.494904883710294]},"properties":{"OBJECTID":167,"Name":"FLORIDA COLLEGE OF NATURAL HEALTH","Address":"616 67TH ST CIR E","City":"BRADENTON","Zip":"34208","COUNTY":"MANATEE","X":-82.477612089999994,"Y":27.49490488,"LONGLAT":"-82.47761209,27.49490488","USNG":"17R LL 54036 42121","DESCRIPT":null,"PARCELID":"1108900179","FACILITY_TYPE":"COLLEGE"}},{"type":"Feature","id":168,"geometry":{"type":"Point","coordinates":[-81.681315982596757,29.646646985686701]},"properties":{"OBJECTID":168,"Name":"ST JOHNS RIVER STATE COLLEGE","Address":"5001 ST JOHNS AVE","City":"PALATKA","Zip":"32177","COUNTY":"PUTNAM","X":-81.681315979999994,"Y":29.646646990000001,"LONGLAT":"-81.68131598,29.64664699","USNG":"17R MN 34056 79825","DESCRIPT":null,"PARCELID":"10-10-26-0000-0010-0000","FACILITY_TYPE":"COLLEGE"}},{"type":"Feature","id":169,"geometry":{"type":"Point","coordinates":[-80.374097004761083,25.675162819814389]},"properties":{"OBJECTID":169,"Name":"MIAMI-DADE COMMUNITY COLLEGE - KENDALL CAMPUS","Address":"11011 SW 104TH ST","City":"MIAMI","Zip":"33176","COUNTY":"MIAMI-DADE","X":-80.374097000000006,"Y":25.675162820000001,"LONGLAT":"-80.37409700,25.67516282","USNG":"17R NJ 62810 39859","DESCRIPT":"SPECIAL TAXING DISTRICT","PARCELID":"3050060000811","FACILITY_TYPE":"COLLEGE"}},{"type":"Feature","id":170,"geometry":{"type":"Point","coordinates":[-82.347795084321589,29.645408892129048]},"properties":{"OBJECTID":170,"Name":"UNIVERSITY OF FLORIDA","Address":"737 REITZ UNION DR","City":"GAINESVILLE","Zip":"32611","COUNTY":"ALACHUA","X":-82.347795079999997,"Y":29.645408889999999,"LONGLAT":"-82.34779508,29.64540889","USNG":"17R LN 69542 80253","DESCRIPT":"STATE","PARCELID":"15505 045 000","FACILITY_TYPE":"COLLEGE"}},{"type":"Feature","id":171,"geometry":{"type":"Point","coordinates":[-82.545021523186577,27.338313449299505]},"properties":{"OBJECTID":171,"Name":"FLORIDA STATE UNIVERISTY - COLLEGE OF MEDICENE","Address":"201 COCOANUT AVE","City":"SARASOTA","Zip":"34236","COUNTY":"SARASOTA","X":-82.545021520000006,"Y":27.338313450000001,"LONGLAT":"-82.54502152,27.33831345","USNG":"17R LL 47161 24853","DESCRIPT":null,"PARCELID":"2026-13-0059","FACILITY_TYPE":"COLLEGE"}},{"type":"Feature","id":172,"geometry":{"type":"Point","coordinates":[-82.413570917081657,28.063904453410029]},"properties":{"OBJECTID":172,"Name":"UNIVERSITY OF SOUTH FLORIDA","Address":"4202 E FOWLER AVE","City":"TAMPA","Zip":"33620","COUNTY":"HILLSBOROUGH","X":-82.413570919999998,"Y":28.063904449999999,"LONGLAT":"-82.41357092,28.06390445","USNG":"17R LM 61088 05087","DESCRIPT":"STATE OF FLORIDA TIITF","PARCELID":"1928081HK000000000010A","FACILITY_TYPE":"COLLEGE"}},{"type":"Feature","id":173,"geometry":{"type":"Point","coordinates":[-80.163857555960931,25.695354357986027]},"properties":{"OBJECTID":173,"Name":"Inlingua Language Center Key Biscayne - Key Bisca*","Address":"328 CRANDON BLVD","City":"MIAMI","Zip":"33149","COUNTY":"MIAMI-DADE","X":-80.163857559999997,"Y":25.69535436,"LONGLAT":"-80.16385756,25.69535436","USNG":"17R NJ 83895 42212","DESCRIPT":null,"PARCELID":null,"FACILITY_TYPE":"COLLEGE"}},{"type":"Feature","id":174,"geometry":{"type":"Point","coordinates":[-80.190810709072309,25.777685949504697]},"properties":{"OBJECTID":174,"Name":"MIAMI-DADE COMMUNITY COLLEGE - WOLFSON CAMPUS","Address":"300 NE 2ND AVE","City":"MIAMI","Zip":"33132","COUNTY":"MIAMI-DADE","X":-80.190810709999994,"Y":25.777685949999999,"LONGLAT":"-80.19081071,25.77768595","USNG":"17R NJ 81135 51313","DESCRIPT":null,"PARCELID":"0101080401010","FACILITY_TYPE":"COLLEGE"}},{"type":"Feature","id":175,"geometry":{"type":"Point","coordinates":[-81.955643983452049,27.988628406219664]},"properties":{"OBJECTID":175,"Name":"FLORIDA CAREER INSTITUTE","Address":"4222 S FLORIDA AVE","City":"LAKELAND","Zip":"33813","COUNTY":"POLK","X":-81.955643980000005,"Y":27.98862841,"LONGLAT":"-81.95564398,27.98862841","USNG":"17R ML 06026 96310","DESCRIPT":null,"PARCELID":null,"FACILITY_TYPE":"COLLEGE"}},{"type":"Feature","id":176,"geometry":{"type":"Point","coordinates":[-82.539044597253096,27.335204699622182]},"properties":{"OBJECTID":176,"Name":"ECKERD COLLEGE - SARASOTA CAMPUS","Address":"1549 - RINGLING BLVD","City":"SARASOTA","Zip":"34236","COUNTY":"SARASOTA","X":-82.539044599999997,"Y":27.335204699999998,"LONGLAT":"-82.53904460,27.33520470","USNG":"17R LL 47748 24502","DESCRIPT":null,"PARCELID":null,"FACILITY_TYPE":"COLLEGE"}},{"type":"Feature","id":177,"geometry":{"type":"Point","coordinates":[-80.199563122988266,26.692420265429138]},"properties":{"OBJECTID":177,"Name":"SOUTH UNIVERSITY","Address":"9801 BELVEDERE RD","City":"WEST PALM BEACH","Zip":"33411","COUNTY":"PALM BEACH","X":-80.199563119999993,"Y":26.69242027,"LONGLAT":"-80.19956312,26.69242027","USNG":"17R NK 79631 52618","DESCRIPT":null,"PARCELID":"72424331130020000","FACILITY_TYPE":"COLLEGE"}},{"type":"Feature","id":178,"geometry":{"type":"Point","coordinates":[-87.25668580565744,30.973949089326716]},"properties":{"OBJECTID":178,"Name":"PENSACOLA STATE COLLEGE - CENTURY CENTER","Address":"440 E HECKER RD","City":"CENTURY","Zip":"32535","COUNTY":"ESCAMBIA","X":-87.256685809999993,"Y":30.973949090000001,"LONGLAT":"-87.25668581,30.97394909","USNG":"16R DV 75488 26743","DESCRIPT":"COUNTY","PARCELID":"055N304205000002","FACILITY_TYPE":"COLLEGE"}},{"type":"Feature","id":179,"geometry":{"type":"Point","coordinates":[-80.402729454959001,25.729975167632528]},"properties":{"OBJECTID":179,"Name":"Genesis Vocational Institute Corp ","Address":"12861 SW 42ND ST","City":"MIAMI","Zip":"33194","COUNTY":"MIAMI-DADE","X":-80.402729449999995,"Y":25.729975169999999,"LONGLAT":"-80.40272945,25.72997517","USNG":"17R NJ 59910 45916","DESCRIPT":null,"PARCELID":null,"FACILITY_TYPE":"COLLEGE"}},{"type":"Feature","id":180,"geometry":{"type":"Point","coordinates":[-81.714831048960377,30.18834979501462]},"properties":{"OBJECTID":180,"Name":"UNIVERSITY OF PHOENIX","Address":"505 PLAZA CIR","City":"ORANGE PARK","Zip":"32073","COUNTY":"CLAY","X":-81.714831050000001,"Y":30.188349800000001,"LONGLAT":"-81.71483105,30.18834980","USNG":"17R MP 31185 39872","DESCRIPT":null,"PARCELID":null,"FACILITY_TYPE":"COLLEGE"}},{"type":"Feature","id":181,"geometry":{"type":"Point","coordinates":[-82.257261945161574,28.3380365048017]},"properties":{"OBJECTID":181,"Name":"ST. LEO UNIVERSITY","Address":"33701 STATE ROAD 52 W","City":"ST LEO","Zip":"33576","COUNTY":"PASCO","X":-82.25726195,"Y":28.338036509999998,"LONGLAT":"-82.25726195,28.33803651","USNG":"17R LM 76765 35291","DESCRIPT":null,"PARCELID":"2025010000030000000","FACILITY_TYPE":"COLLEGE"}},{"type":"Feature","id":182,"geometry":{"type":"Point","coordinates":[-80.126153090873487,25.940006939701902]},"properties":{"OBJECTID":182,"Name":"PHILOSOPHICAL & SPIRITUAL UNIVERSITY","Address":"17720 N BAY RD","City":"NORTH MIAMI BEACH","Zip":"33160","COUNTY":"MIAMI-DADE","X":-80.126153090000003,"Y":25.94000694,"LONGLAT":"-80.12615309,25.94000694","USNG":"17R NJ 87499 69331","DESCRIPT":null,"PARCELID":"3122110260001","FACILITY_TYPE":"COLLEGE"}},{"type":"Feature","id":183,"geometry":{"type":"Point","coordinates":[-81.797617468560802,30.310740100954341]},"properties":{"OBJECTID":183,"Name":"TRINITY BAPTIST COLLEGE","Address":"800 HAMMOND BLVD","City":"JACKSONVILLE","Zip":"32221","COUNTY":"DUVAL","X":-81.797617470000006,"Y":30.3107401,"LONGLAT":"-81.79761747,30.31074010","USNG":"17R MP 23311 53488","DESCRIPT":null,"PARCELID":"0068680030R","FACILITY_TYPE":"COLLEGE"}},{"type":"Feature","id":184,"geometry":{"type":"Point","coordinates":[-80.085012023178422,26.612670962190531]},"properties":{"OBJECTID":184,"Name":"PALM BEACH STATE COLLEGE","Address":"4200 CONGRESS AVE","City":"LAKE WORTH","Zip":"33461","COUNTY":"PALM BEACH","X":-80.085012019999994,"Y":26.612670959999999,"LONGLAT":"-80.08501202,26.61267096","USNG":"17R NK 91091 43862","DESCRIPT":"STATE","PARCELID":"00434429000020030","FACILITY_TYPE":"COLLEGE"}},{"type":"Feature","id":185,"geometry":{"type":"Point","coordinates":[-81.359037823766613,29.912128652275317]},"properties":{"OBJECTID":185,"Name":"ST JOHNS RIVER STATE COLLEGE","Address":"2990 COLLEGE DR","City":"SAINT AUGUSTINE","Zip":"32084","COUNTY":"ST. JOHNS","X":-81.359037819999998,"Y":29.91212865,"LONGLAT":"-81.35903782,29.91212865","USNG":"17R MP 65341 09102","DESCRIPT":"SPECIAL TAXING DISTRICT","PARCELID":"0893250000","FACILITY_TYPE":"COLLEGE"}},{"type":"Feature","id":186,"geometry":{"type":"Point","coordinates":[-80.24617863601874,26.010900242492696]},"properties":{"OBJECTID":186,"Name":"FLORIDA CAREER COLLEGE","Address":"7891 PINES BLVD","City":"HOLLYWOOD","Zip":"33024","COUNTY":"BROWARD","X":-80.246178639999997,"Y":26.010900240000002,"LONGLAT":"-80.24617864,26.01090024","USNG":"17R NJ 75435 77108","DESCRIPT":null,"PARCELID":"514115050030","FACILITY_TYPE":"COLLEGE"}},{"type":"Feature","id":187,"geometry":{"type":"Point","coordinates":[-84.286076978552387,30.426843469963416]},"properties":{"OBJECTID":187,"Name":"FLORIDA AGRICULTURE & MECHANICAL UNIVERSITY","Address":"1936 S M L KING JR BLVD","City":"TALLAHASSEE","Zip":"32307","COUNTY":"LEON","X":-84.286076980000004,"Y":30.426843470000001,"LONGLAT":"-84.28607698,30.42684347","USNG":"16R GU 60671 69212","DESCRIPT":"STATE OF FLORIDA TIITF","PARCELID":"4101209020003","FACILITY_TYPE":"COLLEGE"}},{"type":"Feature","id":188,"geometry":{"type":"Point","coordinates":[-80.630296260897424,27.993308076764091]},"properties":{"OBJECTID":188,"Name":"EASTERN FLORIDA STATE COLLEGE - PALM BAY CAMPUS","Address":"250 COMMUNITY COLLEGE PKWY","City":"PALM BAY","Zip":"32908","COUNTY":"BREVARD","X":-80.630296259999994,"Y":27.993308079999998,"LONGLAT":"-80.63029626,27.99330808","USNG":"17R NL 36352 96516","DESCRIPT":null,"PARCELID":null,"FACILITY_TYPE":"COLLEGE"}},{"type":"Feature","id":189,"geometry":{"type":"Point","coordinates":[-80.329134424322774,25.768942528151538]},"properties":{"OBJECTID":189,"Name":"CBT COLLEGE - FLAGLER CAMPUS","Address":"8230 W FLAGLER ST","City":"MIAMI","Zip":"33144","COUNTY":"MIAMI-DADE","X":-80.329134420000003,"Y":25.76894253,"LONGLAT":"-80.32913442,25.76894253","USNG":"17R NJ 67270 50267","DESCRIPT":null,"PARCELID":"3040030060030","FACILITY_TYPE":"COLLEGE"}},{"type":"Feature","id":190,"geometry":{"type":"Point","coordinates":[-81.604643398927848,30.353182163339657]},"properties":{"OBJECTID":190,"Name":"JACKSONVILLE UNIVERSITY","Address":"2800 UNIVERSITY BLVD N","City":"JACKSONVILLE","Zip":"32211","COUNTY":"DUVAL","X":-81.6046434,"Y":30.353182159999999,"LONGLAT":"-81.60464340,30.35318216","USNG":"17R MP 41890 58076","DESCRIPT":null,"PARCELID":"1282900000R","FACILITY_TYPE":"COLLEGE"}},{"type":"Feature","id":191,"geometry":{"type":"Point","coordinates":[-82.464248818222629,27.946709747592298]},"properties":{"OBJECTID":191,"Name":"UNIVERSITY OF TAMPA","Address":"401 W KENNEDY BLVD","City":"TAMPA","Zip":"33606","COUNTY":"HILLSBOROUGH","X":-82.464248819999995,"Y":27.94670975,"LONGLAT":"-82.46424882,27.94670975","USNG":"17R LL 55951 92161","DESCRIPT":null,"PARCELID":"1829244ZU000001000030A","FACILITY_TYPE":"COLLEGE"}},{"type":"Feature","id":192,"geometry":{"type":"Point","coordinates":[-80.106333518578666,26.391604301170201]},"properties":{"OBJECTID":192,"Name":"EVERGLADES UNIVERSITY","Address":"5002 T REX AVENUE STE 100","City":"BOCA RATON","Zip":"33431","COUNTY":"PALM BEACH","X":-80.106333520000007,"Y":26.391604300000001,"LONGLAT":"-80.10633352,26.39160430","USNG":"17R NK 89139 19361","DESCRIPT":null,"PARCELID":"06424712060010010","FACILITY_TYPE":"COLLEGE"}},{"type":"Feature","id":193,"geometry":{"type":"Point","coordinates":[-81.221429844048288,28.929021289202662]},"properties":{"OBJECTID":193,"Name":"DAYTONA STATE COLLEGE - DELTONA CAMPUS","Address":"2351 PROVIDENCE BLVD","City":"DELTONA","Zip":"32725","COUNTY":"VOLUSIA","X":-81.221429839999999,"Y":28.929021290000001,"LONGLAT":"-81.22142984,28.92902129","USNG":"17R MN 78418 00141","DESCRIPT":null,"PARCELID":"31181600000010","FACILITY_TYPE":"COLLEGE"}},{"type":"Feature","id":194,"geometry":{"type":"Point","coordinates":[-81.383387123435412,28.544865999923498]},"properties":{"OBJECTID":194,"Name":"FLORIDA A&M UNIVERSITY - ORLANDO","Address":"201 BEGGS AVE","City":"ORLANDO","Zip":"32801","COUNTY":"ORANGE","X":null,"Y":null,"LONGLAT":null,"USNG":null,"DESCRIPT":null,"PARCELID":null,"FACILITY_TYPE":"COLLEGE"}},{"type":"Feature","id":195,"geometry":{"type":"Point","coordinates":[-85.503919597525154,30.962643080679999]},"properties":{"OBJECTID":195,"Name":"THE BAPTIST COLLEGE OF FLORIDA","Address":"5400 COLLEGE DR","City":"GRACEVILLE","Zip":"32440","COUNTY":"JACKSON","X":-85.503919600000003,"Y":30.962643079999999,"LONGLAT":"-85.50391960,30.96264308","USNG":"16R FV 42888 26421","DESCRIPT":null,"PARCELID":"35-7N-13-0000-0750-0000","FACILITY_TYPE":"COLLEGE"}},{"type":"Feature","id":196,"geometry":{"type":"Point","coordinates":[-87.218489439514983,30.549181484791966]},"properties":{"OBJECTID":196,"Name":"UNIVERSITY OF WEST FLORIDA","Address":"11000 UNIVERSITY PKWY","City":"PENSACOLA","Zip":"32514","COUNTY":"ESCAMBIA","X":-87.218489439999999,"Y":30.549181489999999,"LONGLAT":"-87.21848944,30.54918149","USNG":"16R DU 79044 79661","DESCRIPT":null,"PARCELID":"051S300100000000","FACILITY_TYPE":"COLLEGE"}},{"type":"Feature","id":197,"geometry":{"type":"Point","coordinates":[-82.735836818949338,27.966026969420575]},"properties":{"OBJECTID":197,"Name":"SPC CLEARWATER CAMPUS","Address":"2465 DREW ST","City":"ST PETERSBURG","Zip":"33765","COUNTY":"PINELLAS","X":null,"Y":null,"LONGLAT":null,"USNG":null,"DESCRIPT":null,"PARCELID":null,"FACILITY_TYPE":"COLLEGE"}},{"type":"Feature","id":198,"geometry":{"type":"Point","coordinates":[-80.123510088343494,26.101045685597899]},"properties":{"OBJECTID":198,"Name":"ART INSTITUTE OF FORT LAUDERDALE","Address":"1799 SE 17TH ST","City":"FORT LAUDERDALE","Zip":"33316","COUNTY":"BROWARD","X":-80.123510089999996,"Y":26.101045689999999,"LONGLAT":"-80.12351009,26.10104569","USNG":"17R NJ 87643 87169","DESCRIPT":null,"PARCELID":"504214410010","FACILITY_TYPE":"COLLEGE"}},{"type":"Feature","id":199,"geometry":{"type":"Point","coordinates":[-81.395428672999799,28.684835265521311]},"properties":{"OBJECTID":199,"Name":"WEBSTER UNIVERSITY","Address":"2180 W STATE ROAD 434 SUE 5100","City":"LONGWOOD","Zip":"32779","COUNTY":"SEMINOLE","X":-81.395428670000001,"Y":28.684835270000001,"LONGLAT":"-81.39542867,28.68483527","USNG":"17R MM 61368 73132","DESCRIPT":null,"PARCELID":null,"FACILITY_TYPE":"COLLEGE"}},{"type":"Feature","id":200,"geometry":{"type":"Point","coordinates":[-80.325487407160679,25.783542651101509]},"properties":{"OBJECTID":200,"Name":"ITT TECHNICAL INSTITUTE","Address":"7955 NW 12TH ST STE 119","City":"MIAMI","Zip":"33126","COUNTY":"MIAMI-DADE","X":-80.325487409999994,"Y":25.783542650000001,"LONGLAT":"-80.32548741,25.78354265","USNG":"17R NJ 67627 51886","DESCRIPT":null,"PARCELID":"3530340040060","FACILITY_TYPE":"COLLEGE"}},{"type":"Feature","id":201,"geometry":{"type":"Point","coordinates":[-82.445424349593864,27.383627417084792]},"properties":{"OBJECTID":201,"Name":"EVERGLADES UNIVERSITY","Address":"6001 LAKE OSPREY DR","City":"SARASOTA","Zip":"34240","COUNTY":"SARASOTA","X":-82.445424349999996,"Y":27.38362742,"LONGLAT":"-82.44542435,27.38362742","USNG":"17R LL 57072 29755","DESCRIPT":null,"PARCELID":"0189-05-0001","FACILITY_TYPE":"COLLEGE"}},{"type":"Feature","id":202,"geometry":{"type":"Point","coordinates":[-81.435513591445982,26.460788391510945]},"properties":{"OBJECTID":202,"Name":"UNIVERSITY OF FLORIDA - INSTITUTE OF FOOD & AGRI SCIENCES","Address":"2686 STATE ROAD 29","City":"IMMOKALEE","Zip":" ","COUNTY":"COLLIER","X":-81.435513589999999,"Y":26.460788390000001,"LONGLAT":"-81.43551359,26.46078839","USNG":"17R MK 56586 26788","DESCRIPT":null,"PARCELID":null,"FACILITY_TYPE":"COLLEGE"}},{"type":"Feature","id":203,"geometry":{"type":"Point","coordinates":[-80.38250854756491,25.791367411335994]},"properties":{"OBJECTID":203,"Name":"Strayer University - Doral Campus ","Address":"11430 NW 20TH ST","City":"MIAMI","Zip":"33172","COUNTY":"MIAMI-DADE","X":-80.382508549999997,"Y":25.791367409999999,"LONGLAT":"-80.38250855,25.79136741","USNG":"17R NJ 61906 52724","DESCRIPT":null,"PARCELID":null,"FACILITY_TYPE":"COLLEGE"}},{"type":"Feature","id":204,"geometry":{"type":"Point","coordinates":[-80.190968955818335,25.763179642330066]},"properties":{"OBJECTID":204,"Name":"FLORIDA INTERNATIONAL UNIVERSITY BRICKELL","Address":"1101 BRICKELL AVE","City":"MIAMI","Zip":"33131","COUNTY":"MIAMI-DADE","X":null,"Y":null,"LONGLAT":null,"USNG":null,"DESCRIPT":null,"PARCELID":null,"FACILITY_TYPE":"COLLEGE"}},{"type":"Feature","id":205,"geometry":{"type":"Point","coordinates":[-81.399054065458316,28.449797189108029]},"properties":{"OBJECTID":205,"Name":"BARRY UNIVERSITY","Address":"1650 SAND LAKE RD","City":"ORLANDO","Zip":"32809","COUNTY":"ORANGE","X":null,"Y":null,"LONGLAT":null,"USNG":null,"DESCRIPT":null,"PARCELID":null,"FACILITY_TYPE":"COLLEGE"}},{"type":"Feature","id":206,"geometry":{"type":"Point","coordinates":[-80.297731494511041,25.93309123111008]},"properties":{"OBJECTID":206,"Name":"KEISER CAREER COLLEGE","Address":"17395 NW 59TH AVE","City":"HIALEAH","Zip":"33015","COUNTY":"MIAMI-DADE","X":-80.297731490000004,"Y":25.933091229999999,"LONGLAT":"-80.29773149,25.93309123","USNG":"17R NJ 70322 68462","DESCRIPT":null,"PARCELID":"3020120340010","FACILITY_TYPE":"COLLEGE"}},{"type":"Feature","id":207,"geometry":{"type":"Point","coordinates":[-82.433071092832705,27.44423145228944]},"properties":{"OBJECTID":207,"Name":"MANATEE TECHNICAL INSTITUTE EAST","Address":"5520 LAKWOOD RANCH BLVD","City":"BRADENTON","Zip":"34211","COUNTY":"MANATEE","X":-82.433071089999999,"Y":27.44423145,"LONGLAT":"-82.43307109,27.44423145","USNG":"17R LL 58371 36455","DESCRIPT":null,"PARCELID":"583502109","FACILITY_TYPE":"COLLEGE"}},{"type":"Feature","id":208,"geometry":{"type":"Point","coordinates":[-81.208691629446676,28.572621940419932]},"properties":{"OBJECTID":208,"Name":"BARRY UNIVERSITY","Address":"2000 N Alafaya Trail","City":"ORLANDO","Zip":"32826","COUNTY":"ORANGE","X":-81.208691630000004,"Y":28.572621940000001,"LONGLAT":"-81.20869163,28.57262194","USNG":"17R MM 79590 60655","DESCRIPT":null,"PARCELID":null,"FACILITY_TYPE":"COLLEGE"}},{"type":"Feature","id":209,"geometry":{"type":"Point","coordinates":[-81.579419517190814,30.231815984484331]},"properties":{"OBJECTID":209,"Name":"THE ART INSTITUTE OF JACKSONVILLE","Address":"8775 BAYPINE ROAD","City":"JACKSONVILLE","Zip":"32256","COUNTY":"DUVAL","X":-81.579419520000002,"Y":30.231815990000001,"LONGLAT":"-81.57941952,30.23181599","USNG":"17R MP 44246 44614","DESCRIPT":null,"PARCELID":null,"FACILITY_TYPE":"COLLEGE"}},{"type":"Feature","id":210,"geometry":{"type":"Point","coordinates":[-81.200421453707435,28.601922292644179]},"properties":{"OBJECTID":210,"Name":"UNIVERSITY OF CENTRAL FLORIDA","Address":"4000 CENTRAL FLORIDA BLVD","City":"ORLANDO","Zip":"32826","COUNTY":"ORANGE","X":-81.200421449999993,"Y":28.601922290000001,"LONGLAT":"-81.20042145,28.60192229","USNG":"17R MM 80404 63899","DESCRIPT":"STATE","PARCELID":"312203000000005","FACILITY_TYPE":"COLLEGE"}},{"type":"Feature","id":211,"geometry":{"type":"Point","coordinates":[-82.558407484104748,27.383416113336608]},"properties":{"OBJECTID":211,"Name":"FSU - ASOLO CONSERVATORY","Address":"5555 N TAMIAMI TR","City":"SARASOTA","Zip":"34243","COUNTY":"SARASOTA","X":-82.55840748,"Y":27.383416109999999,"LONGLAT":"-82.55840748,27.38341611","USNG":"17R LL 45899 29867","DESCRIPT":"STATE","PARCELID":"0001-11-0002","FACILITY_TYPE":"COLLEGE"}},{"type":"Feature","id":212,"geometry":{"type":"Point","coordinates":[-80.825026000947915,28.634834413978407]},"properties":{"OBJECTID":212,"Name":"EASTERN FLORIDA STATE COLLEGE - TITUSVILLE CAMPUS","Address":"1311 N US HWY 1","City":"TITUSVILLE","Zip":"32796","COUNTY":"BREVARD","X":-80.825025999999994,"Y":28.63483441,"LONGLAT":"-80.82502600,28.63483441","USNG":"17R NM 17102 67542","DESCRIPT":null,"PARCELID":null,"FACILITY_TYPE":"COLLEGE"}},{"type":"Feature","id":213,"geometry":{"type":"Point","coordinates":[-80.338944335836487,25.743007186851781]},"properties":{"OBJECTID":213,"Name":"ST JOHN VIANNEY SEMINARY COLLEGE","Address":"2900 SW 87TH AVE","City":"MIAMI","Zip":"33165","COUNTY":"MIAMI-DADE","X":-80.338944339999998,"Y":25.74300719,"LONGLAT":"-80.33894434,25.74300719","USNG":"17R NJ 66301 47390","DESCRIPT":null,"PARCELID":"3040160030010","FACILITY_TYPE":"COLLEGE"}},{"type":"Feature","id":214,"geometry":{"type":"Point","coordinates":[-84.317630705424278,30.419955984650866]},"properties":{"OBJECTID":214,"Name":"FAMU-FSU COLLEGE OF ENGINEERING","Address":"2525 POTTSDAMER ST","City":"TALLAHASSEE","Zip":" ","COUNTY":"LEON","X":-84.317630710000003,"Y":30.419955989999998,"LONGLAT":"-84.31763071,30.41995599","USNG":"16R GU 57658 68376","DESCRIPT":null,"PARCELID":null,"FACILITY_TYPE":"COLLEGE"}},{"type":"Feature","id":215,"geometry":{"type":"Point","coordinates":[-80.249386959668996,26.082977541855282]},"properties":{"OBJECTID":215,"Name":"NOVA SE UNIVERSITY - COLLEGE OF DENTAL MEDICENE","Address":"3200 S UNIVERSITY DR","City":"FORT LAUDERDALE","Zip":"33328","COUNTY":"BROWARD","X":-80.249386959999995,"Y":26.082977540000002,"LONGLAT":"-80.24938696,26.08297754","USNG":"17R NJ 75068 85089","DESCRIPT":null,"PARCELID":"504121130030","FACILITY_TYPE":"COLLEGE"}},{"type":"Feature","id":216,"geometry":{"type":"Point","coordinates":[-80.27076176183877,25.806844893535629]},"properties":{"OBJECTID":216,"Name":"EMBRY-RIDDLE AERONAUTICAL UNIVERSITY","Address":"4800 NW 36TH ST","City":"MIAMI","Zip":"33122","COUNTY":"MIAMI-DADE","X":-80.270761759999999,"Y":25.806844890000001,"LONGLAT":"-80.27076176,25.80684489","USNG":"17R NJ 73100 54495","DESCRIPT":null,"PARCELID":null,"FACILITY_TYPE":"COLLEGE"}},{"type":"Feature","id":217,"geometry":{"type":"Point","coordinates":[-80.184428361585915,26.201800245404897]},"properties":{"OBJECTID":217,"Name":"ATI CAREER TRAINING CENTER","Address":"2890 NW 62ND ST","City":"FORT LAUDERDALE","Zip":"33309","COUNTY":"BROWARD","X":-80.184428359999998,"Y":26.201800250000002,"LONGLAT":"-80.18442836,26.20180025","USNG":"17R NJ 81482 98288","DESCRIPT":null,"PARCELID":"494208090011","FACILITY_TYPE":"COLLEGE"}},{"type":"Feature","id":218,"geometry":{"type":"Point","coordinates":[-85.553003101782977,30.773885795071511]},"properties":{"OBJECTID":218,"Name":"WASHINGTON-HOLMES TECHNICAL CENTER","Address":"757 HOYT ST","City":"CHIPLEY","Zip":"32428","COUNTY":"WASHINGTON","X":-85.553003099999998,"Y":30.773885799999999,"LONGLAT":"-85.55300310,30.77388580","USNG":"16R FV 38471 05437","DESCRIPT":"COUNTY","PARCELID":"00000000-00-1997-0003","FACILITY_TYPE":"COLLEGE"}},{"type":"Feature","id":219,"geometry":{"type":"Point","coordinates":[-80.314080101788875,25.770337678134837]},"properties":{"OBJECTID":219,"Name":"ABC BARTENDING SCHOOL","Address":"7329 W FLAGLER ST","City":"MIAMI-DADE","Zip":"33144","COUNTY":"MIAMI-DADE","X":null,"Y":null,"LONGLAT":null,"USNG":null,"DESCRIPT":null,"PARCELID":null,"FACILITY_TYPE":"COLLEGE"}},{"type":"Feature","id":220,"geometry":{"type":"Point","coordinates":[-81.402332053286059,28.471073021706843]},"properties":{"OBJECTID":220,"Name":"SANFORD-BROWN INSTITUTE/INTERNATIONAL ACADEMY OF DESIGN & TECHNOLOGY","Address":"5959 LAKE ELLENOR DRIVE ","City":"ORLANDO ","Zip":"32809","COUNTY":"ORANGE","X":-81.402332049999998,"Y":28.471073019999999,"LONGLAT":"-81.40233205,28.47107302","USNG":"17R MM 60614 49453","DESCRIPT":null,"PARCELID":null,"FACILITY_TYPE":"COLLEGE"}},{"type":"Feature","id":221,"geometry":{"type":"Point","coordinates":[-82.317725364441827,27.041960341661316]},"properties":{"OBJECTID":221,"Name":"STATE COLLEGE OF FLORIDA - VENICE CAMPUS","Address":"8000 S TAMIAMI TRL","City":"ENGLEWOOD","Zip":"34223","COUNTY":"SARASOTA","X":-82.317725359999997,"Y":27.041960339999999,"LONGLAT":"-82.31772536,27.04196034","USNG":"17R LK 69303 91766","DESCRIPT":"STATE","PARCELID":"0785-00-2000","FACILITY_TYPE":"COLLEGE"}},{"type":"Feature","id":222,"geometry":{"type":"Point","coordinates":[-80.14089564715816,26.119469938469745]},"properties":{"OBJECTID":222,"Name":"BROWARD COMMUNITY COLLEGE - WILLIS HOLCOMBE CENTER","Address":"225 E LAS OLAS BLVD","City":"FORT LAUDERDALE","Zip":"33301","COUNTY":"BROWARD","X":-80.140895650000004,"Y":26.119469939999998,"LONGLAT":"-80.14089565,26.11946994","USNG":"17R NJ 85891 89197","DESCRIPT":null,"PARCELID":"504210330010","FACILITY_TYPE":"COLLEGE"}},{"type":"Feature","id":223,"geometry":{"type":"Point","coordinates":[-80.10473475598215,26.715255589270303]},"properties":{"OBJECTID":223,"Name":"NORTHWOOD UNIVERSITY","Address":"2600 N MILITARY TRL","City":"WEST PALM BEACH","Zip":"33409","COUNTY":"PALM BEACH","X":-80.104734759999999,"Y":26.715255590000002,"LONGLAT":"-80.10473476,26.71525559","USNG":"17R NK 89048 55210","DESCRIPT":null,"PARCELID":null,"FACILITY_TYPE":"COLLEGE"}},{"type":"Feature","id":224,"geometry":{"type":"Point","coordinates":[-80.284590838188208,25.92444426542723]},"properties":{"OBJECTID":224,"Name":"CBT College - Miami Gardens Branch ","Address":"5190 NW 167th ST","City":"Miami Gardens","Zip":"33014","COUNTY":"MIAMI-DADE","X":-80.284590840000007,"Y":25.924444269999999,"LONGLAT":"-80.28459084,25.92444427","USNG":"17R NJ 71643 67512","DESCRIPT":null,"PARCELID":null,"FACILITY_TYPE":"COLLEGE"}},{"type":"Feature","id":225,"geometry":{"type":"Point","coordinates":[-81.310334922021681,28.569214831269058]},"properties":{"OBJECTID":225,"Name":"FLORIDA TECHNICAL COLLEGE, INC","Address":"1819 N SEMORAN BOULEVARD","City":"ORLANDO ","Zip":"32807","COUNTY":"ORANGE","X":-81.310334920000003,"Y":28.56921483,"LONGLAT":"-81.31033492,28.56921483","USNG":"17R MM 69648 60299","DESCRIPT":null,"PARCELID":null,"FACILITY_TYPE":"COLLEGE"}},{"type":"Feature","id":226,"geometry":{"type":"Point","coordinates":[-81.401780323610069,28.631945206396122]},"properties":{"OBJECTID":226,"Name":"Devry University","Address":"1800 Pembrook Dr","City":"Orlando","Zip":"32810","COUNTY":null,"X":-81.40178032,"Y":28.631945210000001,"LONGLAT":"-81.40178032,28.63194521","USNG":"17R MM 60728 67275","DESCRIPT":null,"PARCELID":null,"FACILITY_TYPE":"COLLEGE"}},{"type":"Feature","id":227,"geometry":{"type":"Point","coordinates":[-81.821362907504707,26.610762754212701]},"properties":{"OBJECTID":227,"Name":"HODGES UNIVERSITY","Address":"4501 COLONIAL BLVD","City":"FORT MYERS","Zip":"33912","COUNTY":"LEE","X":-81.821362910000005,"Y":26.610762749999999,"LONGLAT":"-81.82136291,26.61076275","USNG":"17R MK 18227 43587","DESCRIPT":null,"PARCELID":null,"FACILITY_TYPE":"COLLEGE"}},{"type":"Feature","id":228,"geometry":{"type":"Point","coordinates":[-81.580247510104414,30.232626003724242]},"properties":{"OBJECTID":228,"Name":"FLORIDA COASTAL SCHOOL OF LAW","Address":"8787 BAYPINE RD","City":"JACKSONVILLE","Zip":"32256","COUNTY":"DUVAL","X":-81.580247510000007,"Y":30.232626,"LONGLAT":"-81.58024751,30.23262600","USNG":"17R MP 44166 44705","DESCRIPT":null,"PARCELID":"1526122200R","FACILITY_TYPE":"COLLEGE"}},{"type":"Feature","id":229,"geometry":{"type":"Point","coordinates":[-81.427107972486553,28.492685902035984]},"properties":{"OBJECTID":229,"Name":"DEVRY UNIVERSITY","Address":"4000 MILLENIA BLVD","City":"ORLANDO","Zip":"32839","COUNTY":"ORANGE","X":-81.427107969999994,"Y":28.492685900000001,"LONGLAT":"-81.42710797,28.49268590","USNG":"17R MM 58198 51856","DESCRIPT":null,"PARCELID":"292317566200010","FACILITY_TYPE":"COLLEGE"}},{"type":"Feature","id":230,"geometry":{"type":"Point","coordinates":[-87.240574797653494,30.473387478314443]},"properties":{"OBJECTID":230,"Name":"PENSACOLA CHRISTIAN COLLEGE INC","Address":"123 CUMMINGS ST","City":"PENSACOLA","Zip":"32503","COUNTY":"ESCAMBIA","X":-87.240574800000005,"Y":30.47338748,"LONGLAT":"-87.24057480,30.47338748","USNG":"16R DU 76908 71267","DESCRIPT":null,"PARCELID":null,"FACILITY_TYPE":"COLLEGE"}},{"type":"Feature","id":231,"geometry":{"type":"Point","coordinates":[-81.301299686790486,28.596555112684932]},"properties":{"OBJECTID":231,"Name":"FULL SAIL REAL WORLD EDUCATION","Address":"3300 UNIVERSITY BLVD STE 160","City":"WINTER PARK","Zip":"32792","COUNTY":"ORANGE","X":-81.301299689999993,"Y":28.596555110000001,"LONGLAT":"-81.30129969,28.59655511","USNG":"17R MM 70540 63325","DESCRIPT":null,"PARCELID":"302210881900010","FACILITY_TYPE":"COLLEGE"}},{"type":"Feature","id":232,"geometry":{"type":"Point","coordinates":[-81.66125262161377,30.335252099312438]},"properties":{"OBJECTID":232,"Name":"FLORIDA STATE COLLEGE - JACKSONVILLE","Address":"501 STATE ST W","City":"JACKSONVILLE","Zip":"32202","COUNTY":"DUVAL","X":-81.661252619999999,"Y":30.335252100000002,"LONGLAT":"-81.66125262,30.33525210","USNG":"17R MP 36438 56120","DESCRIPT":"STATE","PARCELID":"0707801002R","FACILITY_TYPE":"COLLEGE"}},{"type":"Feature","id":233,"geometry":{"type":"Point","coordinates":[-80.253370214257089,26.076908297331336]},"properties":{"OBJECTID":233,"Name":"BARRY UNIVERSITY","Address":"8001 SW 36TH ST","City":"FORT LAUDERDALE","Zip":"33328","COUNTY":"BROWARD","X":-80.25337021,"Y":26.076908299999999,"LONGLAT":"-80.25337021,26.07690830","USNG":"17R NJ 74673 84414","DESCRIPT":null,"PARCELID":"504121070021","FACILITY_TYPE":"COLLEGE"}},{"type":"Feature","id":234,"geometry":{"type":"Point","coordinates":[-80.155417870180202,25.923914441288751]},"properties":{"OBJECTID":234,"Name":"SAE INSTITUTE - MIAMI","Address":"16051 W DIXIE HWY SUITE 200","City":"NORTH MIAMI BEACH","Zip":"33160","COUNTY":"MIAMI-DADE","X":null,"Y":null,"LONGLAT":null,"USNG":null,"DESCRIPT":null,"PARCELID":null,"FACILITY_TYPE":"COLLEGE"}},{"type":"Feature","id":235,"geometry":{"type":"Point","coordinates":[-81.776613302669219,26.463669337170995]},"properties":{"OBJECTID":235,"Name":"FLORIDA GULF COAST UNIVERSITY","Address":"10501 FGCU BLVD S","City":"FORT MYERS","Zip":"33913","COUNTY":"LEE","X":-81.776613299999994,"Y":26.463669339999999,"LONGLAT":"-81.77661330,26.46366934","USNG":"17R MK 22584 27267","DESCRIPT":"STATE OF FLORIDA TIITF","PARCELID":"13462500000010010","FACILITY_TYPE":"COLLEGE"}},{"type":"Feature","id":236,"geometry":{"type":"Point","coordinates":[-81.338409536536673,28.442257141093773]},"properties":{"OBJECTID":236,"Name":"PINECREST PREPARATORY CHARTER SCHOOL","Address":"8503 DAETWYLER DR","City":"ORLANDO","Zip":" ","COUNTY":"ORANGE","X":-81.338409540000001,"Y":28.442257139999999,"LONGLAT":"-81.33840954,28.44225714","USNG":"17R MM 66863 46241","DESCRIPT":null,"PARCELID":null,"FACILITY_TYPE":"COLLEGE"}},{"type":"Feature","id":237,"geometry":{"type":"Point","coordinates":[-82.569025516197073,30.174121640123083]},"properties":{"OBJECTID":237,"Name":"FLORIDA GATEWAY COLLEGE","Address":"149 SE COLLEGE PL","City":"LAKE CITY","Zip":"32025","COUNTY":"COLUMBIA","X":-82.569025519999997,"Y":30.174121639999999,"LONGLAT":"-82.56902552,30.17412164","USNG":"17R LP 48926 39119","DESCRIPT":"COUNTY","PARCELID":"01-4S-17-07470-000","FACILITY_TYPE":"COLLEGE"}},{"type":"Feature","id":238,"geometry":{"type":"Point","coordinates":[-80.302188645491498,25.867106672846624]},"properties":{"OBJECTID":238,"Name":"COLLEGE OF BUSINESS TECHNOLOGIES - HIALEAH CAMPUS","Address":"935 W 49TH ST","City":"HIALEAH","Zip":"33012","COUNTY":"MIAMI-DADE","X":-80.302188650000005,"Y":25.867106669999998,"LONGLAT":"-80.30218865,25.86710667","USNG":"17R NJ 69914 61152","DESCRIPT":null,"PARCELID":null,"FACILITY_TYPE":"COLLEGE"}},{"type":"Feature","id":239,"geometry":{"type":"Point","coordinates":[-82.730142138759675,27.838122107247326]},"properties":{"OBJECTID":239,"Name":"SPC HEALTH CENTER CAMPUS","Address":"7200 66 ST N","City":"ST PETERSBURG","Zip":"33781","COUNTY":"PINELLAS","X":null,"Y":null,"LONGLAT":null,"USNG":null,"DESCRIPT":null,"PARCELID":null,"FACILITY_TYPE":"COLLEGE"}},{"type":"Feature","id":240,"geometry":{"type":"Point","coordinates":[-82.019064564817597,26.92289088987711]},"properties":{"OBJECTID":240,"Name":"FLORIDA SOUTHWESTREN STATE COLLEGE - CHARLOTTE CAMPUS","Address":"26300 AIRPORT RD","City":"PUNTA GORDA","Zip":"33950","COUNTY":"CHARLOTTE","X":-82.019064560000004,"Y":26.922890890000001,"LONGLAT":"-82.01906456,26.92289089","USNG":"17R LK 98821 78302","DESCRIPT":"SPECIAL TAXING DISTRICT","PARCELID":"412309300001","FACILITY_TYPE":"COLLEGE"}},{"type":"Feature","id":241,"geometry":{"type":"Point","coordinates":[-82.361888435439838,27.98007509586504]},"properties":{"OBJECTID":241,"Name":"FORTIS COLLEGE","Address":"3910 N US HIGHWAY 301 STE 200","City":"TAMPA","Zip":"33619","COUNTY":"HILLSBOROUGH","X":-82.361888440000001,"Y":27.980075100000001,"LONGLAT":"-82.36188844,27.98007510","USNG":"17R LL 66063 95742","DESCRIPT":null,"PARCELID":"192912ZZZ000001469700U","FACILITY_TYPE":"COLLEGE"}},{"type":"Feature","id":242,"geometry":{"type":"Point","coordinates":[-81.360377218747203,28.597415014211645]},"properties":{"OBJECTID":242,"Name":"VALENCIA COMMUNITY COLLEGE - WINTER PARK CAMPUS","Address":"212 S DENNING DR","City":"WINTER PARK","Zip":"32789","COUNTY":"ORANGE","X":-81.360377220000004,"Y":28.59741502,"LONGLAT":"-81.36037722,28.59741502","USNG":"17R MM 64764 63437","DESCRIPT":"STATE","PARCELID":"302205940045060","FACILITY_TYPE":"COLLEGE"}},{"type":"Feature","id":243,"geometry":{"type":"Point","coordinates":[-80.340413711335515,27.273499599463886]},"properties":{"OBJECTID":243,"Name":"BARRY COLLEGE - TREASURE COAST CAMPUS","Address":"337 SE PORT ST LUCIE BLVD","City":"PORT SAINT LUCIE","Zip":"34984","COUNTY":"ST. LUCIE","X":-80.340413710000007,"Y":27.273499600000001,"LONGLAT":"-80.34041371,27.27349960","USNG":"17R NL 65282 16900","DESCRIPT":null,"PARCELID":"4409-501-0001-000-2","FACILITY_TYPE":"COLLEGE"}},{"type":"Feature","id":244,"geometry":{"type":"Point","coordinates":[-80.417933899194253,25.682609310337526]},"properties":{"OBJECTID":244,"Name":"EVEREST INSTITUTE","Address":"9020 SW 137TH AVE","City":"MIAMI","Zip":"33186","COUNTY":"MIAMI-DADE","X":-80.417933899999994,"Y":25.68260931,"LONGLAT":"-80.41793390,25.68260931","USNG":"17R NJ 58408 40664","DESCRIPT":null,"PARCELID":"3059030080010","FACILITY_TYPE":"COLLEGE"}},{"type":"Feature","id":245,"geometry":{"type":"Point","coordinates":[-81.42948226709062,28.440995615187596]},"properties":{"OBJECTID":245,"Name":"LE CORDON BLEU COLLEGE OF CULLINARY ARTS IN ORLANDO","Address":"8511 COMMODITY CIRCLE SUITE 100 ","City":"ORLANDO ","Zip":"32819","COUNTY":"ORANGE","X":-81.429482269999994,"Y":28.440995619999999,"LONGLAT":"-81.42948227,28.44099562","USNG":"17R MM 57945 46130","DESCRIPT":null,"PARCELID":null,"FACILITY_TYPE":"COLLEGE"}},{"type":"Feature","id":246,"geometry":{"type":"Point","coordinates":[-80.393421376236574,25.662649870518081]},"properties":{"OBJECTID":246,"Name":"AMERICAN MEDICAL ACADEMY","Address":"12215 SW 112TH ST","City":"MIAMI-DADE","Zip":"33186","COUNTY":"MIAMI-DADE","X":null,"Y":null,"LONGLAT":null,"USNG":null,"DESCRIPT":null,"PARCELID":null,"FACILITY_TYPE":"COLLEGE"}},{"type":"Feature","id":247,"geometry":{"type":"Point","coordinates":[-82.175525629986737,29.166019076115024]},"properties":{"OBJECTID":247,"Name":"CENTRAL FLORIDA COMMUNITY COLLEGE","Address":"3001 SW COLLEGE RD","City":"OCALA","Zip":"34474","COUNTY":"MARION","X":-82.175525629999996,"Y":29.166019080000002,"LONGLAT":"-82.17552563,29.16601908","USNG":"17R LN 85683 26950","DESCRIPT":"OTHER PUBLIC","PARCELID":"23459-000-02","FACILITY_TYPE":"COLLEGE"}},{"type":"Feature","id":248,"geometry":{"type":"Point","coordinates":[-81.432191191232334,28.497424639147056]},"properties":{"OBJECTID":248,"Name":"TROY UNIVERSITY","Address":"4525 VINELAND RD","City":"ORLANDO","Zip":"32811","COUNTY":"ORANGE","X":null,"Y":null,"LONGLAT":null,"USNG":null,"DESCRIPT":null,"PARCELID":null,"FACILITY_TYPE":"COLLEGE"}},{"type":"Feature","id":249,"geometry":{"type":"Point","coordinates":[-82.217600844282032,28.379762230411458]},"properties":{"OBJECTID":249,"Name":"PASCO HERNANDO COMMUNITY COLLEGE-EAST CAMPUS","Address":"36727 BLANTON RD","City":"DADE CITY","Zip":"33523","COUNTY":"PASCO","X":-82.217600840000003,"Y":28.379762230000001,"LONGLAT":"-82.21760084,28.37976223","USNG":"17R LM 80699 39874","DESCRIPT":null,"PARCELID":"2124210000018000010","FACILITY_TYPE":"COLLEGE"}},{"type":"Feature","id":250,"geometry":{"type":"Point","coordinates":[-81.312692096059166,28.615721934929127]},"properties":{"OBJECTID":250,"Name":"HERZING UNIVERSITY","Address":"1865 STATE ROAD 436","City":"WINTER PARK","Zip":"32792","COUNTY":"SEMINOLE","X":-81.312692100000007,"Y":28.61572194,"LONGLAT":"-81.31269210,28.61572194","USNG":"17R MM 69431 65452","DESCRIPT":null,"PARCELID":"332130515000000K0","FACILITY_TYPE":"COLLEGE"}},{"type":"Feature","id":251,"geometry":{"type":"Point","coordinates":[-81.20014909572518,28.574045971009191]},"properties":{"OBJECTID":251,"Name":"FLORIDA TECHNICAL COLLEGE","Address":"12689 CHALLENGER PKWY STE 130","City":"ORLANDO","Zip":"32826","COUNTY":"ORANGE","X":-81.200149100000004,"Y":28.57404597,"LONGLAT":"-81.20014910,28.57404597","USNG":"17R MM 80426 60811","DESCRIPT":null,"PARCELID":"312215125500050","FACILITY_TYPE":"COLLEGE"}},{"type":"Feature","id":252,"geometry":{"type":"Point","coordinates":[-80.14112965358602,26.119741330504272]},"properties":{"OBJECTID":252,"Name":"FLORIDA ATLANTIC UNIVERSITY","Address":"220 SE 2ND AVE","City":"FORT LAUDERDALE","Zip":"33301","COUNTY":"BROWARD","X":-80.141129649999996,"Y":26.11974133,"LONGLAT":"-80.14112965,26.11974133","USNG":"17R NJ 85868 89227","DESCRIPT":null,"PARCELID":"504210330190","FACILITY_TYPE":"COLLEGE"}},{"type":"Feature","id":253,"geometry":{"type":"Point","coordinates":[-82.533726938537527,27.942371680208911]},"properties":{"OBJECTID":253,"Name":"EMBRY-RIDDLE AERONAUTICAL UNIVERSITY","Address":"200 S HOOVER BLVD ","City":"TAMPA","Zip":"33609","COUNTY":"HILLSBOROUGH","X":-82.533726939999994,"Y":27.942371680000001,"LONGLAT":"-82.53372694,27.94237168","USNG":"17R LL 49109 91765","DESCRIPT":null,"PARCELID":null,"FACILITY_TYPE":"COLLEGE"}},{"type":"Feature","id":254,"geometry":{"type":"Point","coordinates":[-81.441667085754617,28.428254596968721]},"properties":{"OBJECTID":254,"Name":"UNIVERSITY OF CENTRAL FLORIDA","Address":"9907 UNIVERSAL BLVD","City":"ORLANDO","Zip":"32819","COUNTY":"ORANGE","X":null,"Y":null,"LONGLAT":null,"USNG":null,"DESCRIPT":null,"PARCELID":null,"FACILITY_TYPE":"COLLEGE"}},{"type":"Feature","id":255,"geometry":{"type":"Point","coordinates":[-82.54870439093871,27.992262382109143]},"properties":{"OBJECTID":255,"Name":"INTERNATIONAL ACADEMY OF DESIGN & TECHNOLOGY","Address":"5104 EISENHOWER BLVD","City":"TAMPA","Zip":"33634","COUNTY":"HILLSBOROUGH","X":-82.548704389999997,"Y":27.99226238,"LONGLAT":"-82.54870439,27.99226238","USNG":"17R LL 47706 97311","DESCRIPT":null,"PARCELID":"182906ZZZ000001065300U","FACILITY_TYPE":"COLLEGE"}},{"type":"Feature","id":256,"geometry":{"type":"Point","coordinates":[-80.227706195536783,25.927778799999913]},"properties":{"OBJECTID":256,"Name":"ATI CAREER TRAINING CENTER","Address":"1525 NW 167TH ST","City":"MIAMI","Zip":"33169","COUNTY":"MIAMI-DADE","X":-80.2277062,"Y":25.927778799999999,"LONGLAT":"-80.22770620,25.92777880","USNG":"17R NJ 77338 67913","DESCRIPT":null,"PARCELID":null,"FACILITY_TYPE":"COLLEGE"}},{"type":"Feature","id":257,"geometry":{"type":"Point","coordinates":[-82.161493684435101,29.166847675795562]},"properties":{"OBJECTID":257,"Name":"WEBSTER COLLEGE","Address":"2221 SW 19TH AVENUE RD","City":"OCALA","Zip":"34474","COUNTY":"MARION","X":-82.161493680000007,"Y":29.16684768,"LONGLAT":"-82.16149368,29.16684768","USNG":"17R LN 87048 27029","DESCRIPT":null,"PARCELID":"23721-005-00","FACILITY_TYPE":"COLLEGE"}},{"type":"Feature","id":258,"geometry":{"type":"Point","coordinates":[-82.697356514538015,27.964414782746353]},"properties":{"OBJECTID":258,"Name":"CLEARWATER CHRISTIAN COLLEGE","Address":"3400 GULF TO BAY BLVD","City":"CLEARWATER","Zip":"33759","COUNTY":"PINELLAS","X":-82.697356510000006,"Y":27.964414779999998,"LONGLAT":"-82.69735651,27.96441478","USNG":"17R LL 33043 94420","DESCRIPT":null,"PARCELID":"16 29 16 00000 110 0100","FACILITY_TYPE":"COLLEGE"}},{"type":"Feature","id":259,"geometry":{"type":"Point","coordinates":[-80.253470874184416,25.921099113304649]},"properties":{"OBJECTID":259,"Name":"ST THOMAS UNIVERSITY","Address":"16400 NW 32ND AVE","City":"OPA LOCKA","Zip":"33054","COUNTY":"MIAMI-DADE","X":-80.253470870000001,"Y":25.92109911,"LONGLAT":"-80.25347087,25.92109911","USNG":"17R NJ 74762 67159","DESCRIPT":null,"PARCELID":"3421160000050","FACILITY_TYPE":"COLLEGE"}},{"type":"Feature","id":260,"geometry":{"type":"Point","coordinates":[-80.196521616706221,25.878545839145222]},"properties":{"OBJECTID":260,"Name":"BARRY UNIVERSITY","Address":"11300 NE 2ND AVE","City":"MIAMI","Zip":"33161","COUNTY":"MIAMI-DADE","X":-80.196521619999999,"Y":25.878545840000001,"LONGLAT":"-80.19652162,25.87854584","USNG":"17R NJ 80494 62480","DESCRIPT":null,"PARCELID":"1121360000050","FACILITY_TYPE":"COLLEGE"}},{"type":"Feature","id":261,"geometry":{"type":"Point","coordinates":[-81.187796535128413,28.65743118080777]},"properties":{"OBJECTID":261,"Name":"REFORMED THEOLOGICAL SEMINARY","Address":"1231 REFORMATION DR","City":"OVIEDO","Zip":"32765","COUNTY":"SEMINOLE","X":-81.187796539999994,"Y":28.65743118,"LONGLAT":"-81.18779654,28.65743118","USNG":"17R MM 81648 70047","DESCRIPT":null,"PARCELID":"14213150500000010","FACILITY_TYPE":"COLLEGE"}},{"type":"Feature","id":262,"geometry":{"type":"Point","coordinates":[-80.384720910308829,25.808454772742316]},"properties":{"OBJECTID":262,"Name":"Miami-Dade College - West Campus","Address":"3800 Northwest 115th Avenue","City":"Doral","Zip":"33178","COUNTY":"MIAMI-DADE","X":-80.384720909999999,"Y":25.808454770000001,"LONGLAT":"-80.38472091,25.80845477","USNG":"17R NJ 61675 54615","DESCRIPT":null,"PARCELID":null,"FACILITY_TYPE":"COLLEGE"}},{"type":"Feature","id":263,"geometry":{"type":"Point","coordinates":[-80.326243427514015,25.808579951721907]},"properties":{"OBJECTID":263,"Name":"Florida Medical Training Institute ","Address":"7902 NW 36TH ST","City":"DORAL","Zip":"33166","COUNTY":"MIAMI-DADE","X":-80.326243430000005,"Y":25.808579949999999,"LONGLAT":"-80.32624343,25.80857995","USNG":"17R NJ 67537 54658","DESCRIPT":null,"PARCELID":null,"FACILITY_TYPE":"COLLEGE"}},{"type":"Feature","id":264,"geometry":{"type":"Point","coordinates":[-81.389760772961097,28.660250657928835]},"properties":{"OBJECTID":264,"Name":"MOUNTAIN STATE UNIVERSITY","Address":"151 S WYMORE RD STE 200","City":"ALTAMONTE SPRINGS","Zip":"32714","COUNTY":"SEMINOLE","X":-81.389760769999995,"Y":28.660250659999999,"LONGLAT":"-81.38976077,28.66025066","USNG":"17R MM 61913 70407","DESCRIPT":null,"PARCELID":null,"FACILITY_TYPE":"COLLEGE"}},{"type":"Feature","id":265,"geometry":{"type":"Point","coordinates":[-81.585378681268921,30.2176081789306]},"properties":{"OBJECTID":265,"Name":"EVEREST UNIVERSITY","Address":"8226 PHILLIPS HWY","City":"JACKSONVILLE ","Zip":"32256","COUNTY":"DUVAL","X":-81.585378680000005,"Y":30.217608179999999,"LONGLAT":"-81.58537868,30.21760818","USNG":"17R MP 43664 43043","DESCRIPT":null,"PARCELID":null,"FACILITY_TYPE":"COLLEGE"}},{"type":"Feature","id":266,"geometry":{"type":"Point","coordinates":[-81.441571104581456,28.481607244494839]},"properties":{"OBJECTID":266,"Name":"NOVA SOUTHEASTERN UNIVERSITY","Address":"4850 MILLENIA BLVD","City":"ORLANDO","Zip":"32839","COUNTY":"ORANGE","X":null,"Y":null,"LONGLAT":null,"USNG":null,"DESCRIPT":null,"PARCELID":null,"FACILITY_TYPE":"COLLEGE"}},{"type":"Feature","id":267,"geometry":{"type":"Point","coordinates":[-80.277735885131733,25.719880398720949]},"properties":{"OBJECTID":267,"Name":"UNIVERSITY OF MIAMI CORAL GABLES","Address":"1306 STANFORD DR","City":"CORAL GABLES","Zip":"33146","COUNTY":"MIAMI-DADE","X":-80.277735890000002,"Y":25.719880400000001,"LONGLAT":"-80.27773589,25.71988040","USNG":"17R NJ 72454 44861","DESCRIPT":null,"PARCELID":"0341300020900","FACILITY_TYPE":"COLLEGE"}},{"type":"Feature","id":268,"geometry":{"type":"Point","coordinates":[-81.245195340209335,28.384284435213779]},"properties":{"OBJECTID":268,"Name":"VALENCIA COMMUNITY COLLEGE - LAKE NONA CAMPUS","Address":"12350 NARCOOSSEE RD","City":"ORLANDO","Zip":"32832","COUNTY":"ORANGE","X":-81.245195339999995,"Y":28.384284439999998,"LONGLAT":"-81.24519534,28.38428444","USNG":"17R MM 75977 39797","DESCRIPT":null,"PARCELID":null,"FACILITY_TYPE":"COLLEGE"}},{"type":"Feature","id":269,"geometry":{"type":"Point","coordinates":[-81.279839049708244,28.772396989868117]},"properties":{"OBJECTID":269,"Name":"SOUTHERN TECHNICAL COLLEGE","Address":"2910 S ORLANDO DR","City":"SANFORD","Zip":"32773","COUNTY":"SEMINOLE","X":-81.279839050000007,"Y":28.772396990000001,"LONGLAT":"-81.27983905,28.77239699","USNG":"17R MM 72684 82801","DESCRIPT":null,"PARCELID":null,"FACILITY_TYPE":"COLLEGE"}},{"type":"Feature","id":270,"geometry":{"type":"Point","coordinates":[-80.188642490062222,25.789946576988115]},"properties":{"OBJECTID":270,"Name":"MIAMI INTERNATIONAL UNIVERSITY OF ART & DESIGN","Address":"1501 BISCAYNE BLVD STE 100","City":"MIAMI","Zip":"33132","COUNTY":"MIAMI-DADE","X":-80.188642490000007,"Y":25.789946579999999,"LONGLAT":"-80.18864249,25.78994658","USNG":"17R NJ 81344 52672","DESCRIPT":"COUNTY","PARCELID":"0132310070080","FACILITY_TYPE":"COLLEGE"}},{"type":"Feature","id":271,"geometry":{"type":"Point","coordinates":[-82.551571406420763,27.368452532452132]},"properties":{"OBJECTID":271,"Name":"EAST WEST COLLEGE OF NATURAL MEDICINE","Address":"3808 N TAMIAMI TRL","City":"SARASOTA","Zip":"34234","COUNTY":"SARASOTA","X":-82.551571409999994,"Y":27.368452529999999,"LONGLAT":"-82.55157141,27.36845253","USNG":"17R LL 46554 28201","DESCRIPT":null,"PARCELID":"2004-15-0052","FACILITY_TYPE":"COLLEGE"}},{"type":"Feature","id":272,"geometry":{"type":"Point","coordinates":[-81.345830411006204,29.924371849893319]},"properties":{"OBJECTID":272,"Name":"First Coast Technical College - Main Campus","Address":"2980 COLLINS AVE","City":"SAINT AUGUSTINE","Zip":"32084","COUNTY":"ST. JOHNS","X":-81.345830410000005,"Y":29.92437185,"LONGLAT":"-81.34583041,29.92437185","USNG":"17R MP 66620 10455","DESCRIPT":"COUNTY","PARCELID":"1028700000","FACILITY_TYPE":"COLLEGE"}},{"type":"Feature","id":273,"geometry":{"type":"Point","coordinates":[-80.314488631694175,25.798191803743961]},"properties":{"OBJECTID":273,"Name":"ATI CAREER TRAINING CENTER","Address":"7265 NW 25TH ST","City":"MIAMI","Zip":"33122","COUNTY":"MIAMI-DADE","X":-80.31448863,"Y":25.798191800000001,"LONGLAT":"-80.31448863,25.79819180","USNG":"17R NJ 68722 53514","DESCRIPT":null,"PARCELID":"3030260130122","FACILITY_TYPE":"COLLEGE"}},{"type":"Feature","id":274,"geometry":{"type":"Point","coordinates":[-81.049219818311343,29.188078821181559]},"properties":{"OBJECTID":274,"Name":"EMBRY-RIDDLE AERONAUTICAL UNIVERSITY","Address":"600 S CLYDE MORRIS BLVD","City":"DAYTONA BEACH","Zip":"32114","COUNTY":"VOLUSIA","X":-81.049219820000005,"Y":29.188078820000001,"LONGLAT":"-81.04921982,29.18807882","USNG":"17R MN 95214 28824","DESCRIPT":"SPECIAL TAXING DISTRICT","PARCELID":"32153948000010","FACILITY_TYPE":"COLLEGE"}},{"type":"Feature","id":275,"geometry":{"type":"Point","coordinates":[-80.252283098662787,26.07892640738633]},"properties":{"OBJECTID":275,"Name":"ITT TECHNICAL INSTITUTE","Address":"3401 S UNIVERSITY DR","City":"FORT LAUDERDALE","Zip":"33328","COUNTY":"BROWARD","X":-80.2522831,"Y":26.078926410000001,"LONGLAT":"-80.25228310,26.07892641","USNG":"17R NJ 74781 84639","DESCRIPT":null,"PARCELID":"504121070021","FACILITY_TYPE":"COLLEGE"}},{"type":"Feature","id":276,"geometry":{"type":"Point","coordinates":[-82.678348535577456,28.194729254980079]},"properties":{"OBJECTID":276,"Name":"TRINITY COLLEGE","Address":"2430 WELBILT BLVD","City":"NEW PORT RICHEY","Zip":"34655","COUNTY":"PASCO","X":-82.678348540000002,"Y":28.194729259999999,"LONGLAT":"-82.67834854,28.19472926","USNG":"17R LM 35265 19914","DESCRIPT":null,"PARCELID":"1626260000002000000","FACILITY_TYPE":"COLLEGE"}},{"type":"Feature","id":277,"geometry":{"type":"Point","coordinates":[-80.358288101739461,27.423067608834781]},"properties":{"OBJECTID":277,"Name":"INDIAN RIVER STATE COLLEGE - MAIN CAMPUS","Address":"3209 VIRGINIA AVE","City":"FORT PIERCE","Zip":"34981","COUNTY":"ST. LUCIE","X":-80.358288099999996,"Y":27.42306761,"LONGLAT":"-80.35828810,27.42306761","USNG":"17R NL 63428 33458","DESCRIPT":"COUNTY","PARCELID":"2420-121-0002-000-2","FACILITY_TYPE":"COLLEGE"}},{"type":"Feature","id":278,"geometry":{"type":"Point","coordinates":[-81.81098919523491,26.391312155522581]},"properties":{"OBJECTID":278,"Name":"SOUTHWEST FLORIDA COLLEGE","Address":"24301 WALDEN CENTER DR","City":"BONITA SPRINGS","Zip":"34134","COUNTY":"LEE","X":-81.810989199999995,"Y":26.391312159999998,"LONGLAT":"-81.81098920,26.39131216","USNG":"17R MK 19107 19274","DESCRIPT":null,"PARCELID":"094725230000B0000","FACILITY_TYPE":"COLLEGE"}},{"type":"Feature","id":279,"geometry":{"type":"Point","coordinates":[-80.165177210636912,25.929850146275371]},"properties":{"OBJECTID":279,"Name":"NOVA SOUTHEASTERN UNIVERSITY","Address":"1775 NE 167TH ST","City":"MIAMI","Zip":"33162","COUNTY":"MIAMI-DADE","X":-80.165177209999996,"Y":25.92985015,"LONGLAT":"-80.16517721,25.92985015","USNG":"17R NJ 83598 68181","DESCRIPT":null,"PARCELID":"0722080022350","FACILITY_TYPE":"COLLEGE"}},{"type":"Feature","id":280,"geometry":{"type":"Point","coordinates":[-85.282950514424613,29.777599400294473]},"properties":{"OBJECTID":280,"Name":"GULF COAST STATE COLLEGE - GULF/FRANKLIN CAMPUS","Address":"3800 GARRISON AVE","City":"PORT SAINT JOE","Zip":"32456","COUNTY":"GULF","X":-85.282950510000006,"Y":29.7775994,"LONGLAT":"-85.28295051,29.77759940","USNG":"16R FT 65986 95377","DESCRIPT":null,"PARCELID":"03040-150R","FACILITY_TYPE":"COLLEGE"}},{"type":"Feature","id":281,"geometry":{"type":"Point","coordinates":[-81.374039923573321,28.552937042914756]},"properties":{"OBJECTID":281,"Name":"FLORIDA STATE UNIVERSITY - ORLANDO","Address":"250 E COLONIAL DR","City":"ORLANDO","Zip":"32801","COUNTY":"ORANGE","X":null,"Y":null,"LONGLAT":null,"USNG":null,"DESCRIPT":null,"PARCELID":null,"FACILITY_TYPE":"COLLEGE"}},{"type":"Feature","id":282,"geometry":{"type":"Point","coordinates":[-80.321962773879463,25.861760921171108]},"properties":{"OBJECTID":282,"Name":"FLORIDA NATIONAL COLLEGE","Address":"4425 W 20TH AVE","City":"HIALEAH","Zip":"33012","COUNTY":"MIAMI-DADE","X":-80.321962769999999,"Y":25.861760919999998,"LONGLAT":"-80.32196277,25.86176092","USNG":"17R NJ 67936 60550","DESCRIPT":null,"PARCELID":null,"FACILITY_TYPE":"COLLEGE"}},{"type":"Feature","id":283,"geometry":{"type":"Point","coordinates":[-82.645895856464847,27.860710707603143]},"properties":{"OBJECTID":283,"Name":"ITT TECHNICAL INSTITUTE - ST. PETERSBURGH","Address":"877 WEST EXECUTIVE CENTER DR SUITE 100 ","City":"SAINT PETERSBURG ","Zip":"33702","COUNTY":"PINELLAS","X":-82.645895859999996,"Y":27.860710709999999,"LONGLAT":"-82.64589586,27.86071071","USNG":"17R LL 37951 82860","DESCRIPT":null,"PARCELID":null,"FACILITY_TYPE":"COLLEGE"}},{"type":"Feature","id":284,"geometry":{"type":"Point","coordinates":[-80.669088537884292,28.170165165233868]},"properties":{"OBJECTID":284,"Name":"EASTERN FLORIDA STATE COLLEGE- MELBOURNE CAMPUS","Address":"3865 N WICKHAM RD","City":"MELBOURNE","Zip":"32935","COUNTY":"BREVARD","X":-80.669088540000004,"Y":28.170165170000001,"LONGLAT":"-80.66908854,28.17016517","USNG":"17R NM 32484 16096","DESCRIPT":"COUNTY","PARCELID":"27 370625  105","FACILITY_TYPE":"COLLEGE"}},{"type":"Feature","id":285,"geometry":{"type":"Point","coordinates":[-81.549162579596668,30.18302706380609]},"properties":{"OBJECTID":285,"Name":"ULTRASOUND DIAGNOSTIC SCHOOL","Address":"10255 FORTUNE PKWY STE 501","City":"JACKSONVILLE","Zip":"32256","COUNTY":"DUVAL","X":-81.549162580000001,"Y":30.183027060000001,"LONGLAT":"-81.54916258,30.18302706","USNG":"17R MP 47131 39193","DESCRIPT":null,"PARCELID":"1555481420R","FACILITY_TYPE":"COLLEGE"}},{"type":"Feature","id":286,"geometry":{"type":"Point","coordinates":[-82.445820600075322,27.384553122127997]},"properties":{"OBJECTID":286,"Name":"KEISER COLLEGE","Address":"6151 LAKE OSPREY DR","City":"SARASOTA","Zip":"34240","COUNTY":"SARASOTA","X":-82.445820600000005,"Y":27.38455312,"LONGLAT":"-82.44582060,27.38455312","USNG":"17R LL 57034 29859","DESCRIPT":null,"PARCELID":"0189-04-0001","FACILITY_TYPE":"COLLEGE"}},{"type":"Feature","id":287,"geometry":{"type":"Point","coordinates":[-82.489382408202289,28.808682281930125]},"properties":{"OBJECTID":287,"Name":"COLLEGE OF CENTRAL FLORIDA - CITRUS CAMPUS","Address":"3800 S LECANTO HWY","City":"LECANTO","Zip":"34461","COUNTY":"CITRUS","X":-82.489382410000005,"Y":28.808682279999999,"LONGLAT":"-82.48938241,28.80868228","USNG":"17R LM 54659 87699","DESCRIPT":null,"PARCELID":"18E19S21      13000","FACILITY_TYPE":"COLLEGE"}},{"type":"Feature","id":288,"geometry":{"type":"Point","coordinates":[-81.509788104111522,27.569860816709785]},"properties":{"OBJECTID":288,"Name":"SOUTH FLORIDA COMMUNITY COLLEGE","Address":"600 W COLLEGE DR","City":"AVON PARK","Zip":"33825","COUNTY":"HIGHLANDS","X":-81.509788099999994,"Y":27.569860819999999,"LONGLAT":"-81.50978810,27.56986082","USNG":"17R ML 49678 49658","DESCRIPT":"SPECIAL TAXING DISTRICT","PARCELID":"C343328A0000400000","FACILITY_TYPE":"COLLEGE"}},{"type":"Feature","id":289,"geometry":{"type":"Point","coordinates":[-81.599972901587705,27.825762541876848]},"properties":{"OBJECTID":289,"Name":"WARNER UNIVERSITY","Address":"13895 US HWY 27","City":"LAKE WALES","Zip":"33859","COUNTY":"POLK","X":-81.599972899999997,"Y":27.825762539999999,"LONGLAT":"-81.59997290,27.82576254","USNG":"17R ML 40913 78045","DESCRIPT":null,"PARCELID":"273034000000012020","FACILITY_TYPE":"COLLEGE"}},{"type":"Feature","id":290,"geometry":{"type":"Point","coordinates":[-80.123874782346547,26.384323844155261]},"properties":{"OBJECTID":290,"Name":"LYNN UNIVERSITY","Address":"3601 N MILITARY TRL","City":"BOCA RATON","Zip":"33431","COUNTY":"PALM BEACH","X":-80.123874779999994,"Y":26.38432384,"LONGLAT":"-80.12387478,26.38432384","USNG":"17R NK 87395 18543","DESCRIPT":null,"PARCELID":"06424711070000000","FACILITY_TYPE":"COLLEGE"}},{"type":"Feature","id":291,"geometry":{"type":"Point","coordinates":[-81.401751010920691,28.46360746854598]},"properties":{"OBJECTID":291,"Name":"FLORIDA COLLEGE OF INTEGRAVITE MEDICENE","Address":"7100 LAKE ELLENOR DR","City":"ORLANDO","Zip":"32809","COUNTY":"ORANGE","X":-81.401751009999998,"Y":28.463607469999999,"LONGLAT":"-81.40175101,28.46360747","USNG":"17R MM 60668 48626","DESCRIPT":"OTHER PUBLIC","PARCELID":"292327631102000","FACILITY_TYPE":"COLLEGE"}},{"type":"Feature","id":292,"geometry":{"type":"Point","coordinates":[-81.397067415889993,28.629878373915449]},"properties":{"OBJECTID":292,"Name":"ITT Technical Institute","Address":"2600 LAKE LUCIEN DR STE 140","City":"MAITLAND","Zip":"32751","COUNTY":"ORANGE","X":-81.397067419999999,"Y":28.62987837,"LONGLAT":"-81.39706742,28.62987837","USNG":"17R MM 61188 67044","DESCRIPT":null,"PARCELID":"292127000000003","FACILITY_TYPE":"COLLEGE"}},{"type":"Feature","id":293,"geometry":{"type":"Point","coordinates":[-81.896358764099588,26.555115250143842]},"properties":{"OBJECTID":293,"Name":"INTERNATIONAL COLLEGE","Address":"8695 COLLEGE PKWY STE 217","City":"FORT MYERS","Zip":"33919","COUNTY":"LEE","X":-81.896358759999998,"Y":26.55511525,"LONGLAT":"-81.89635876,26.55511525","USNG":"17R MK 10718 37473","DESCRIPT":null,"PARCELID":"15452400000160050","FACILITY_TYPE":"COLLEGE"}},{"type":"Feature","id":294,"geometry":{"type":"Point","coordinates":[-80.125164770559351,26.517112305413868]},"properties":{"OBJECTID":294,"Name":"REGIONAL SEMINARY OF ST VINCENT DE PAUL","Address":"10701 S MILITARY TRL","City":"BOYNTON BEACH","Zip":"33437","COUNTY":"PALM BEACH","X":-80.125164769999998,"Y":26.517112310000002,"LONGLAT":"-80.12516477,26.51711231","USNG":"17R NK 87166 33249","DESCRIPT":null,"PARCELID":"00424526010050000","FACILITY_TYPE":"COLLEGE"}},{"type":"Feature","id":295,"geometry":{"type":"Point","coordinates":[-80.092512708658148,26.756046622499909]},"properties":{"OBJECTID":295,"Name":"LINCOLN INSTITUTE OF TECHNOLOGY","Address":"2410 METROCENTRE BLVD","City":"WEST PALM BEACH","Zip":"33407","COUNTY":"PALM BEACH","X":-80.092512709999994,"Y":26.756046619999999,"LONGLAT":"-80.09251271,26.75604662","USNG":"17R NK 90232 59737","DESCRIPT":null,"PARCELID":"74434306120000110","FACILITY_TYPE":"COLLEGE"}},{"type":"Feature","id":296,"geometry":{"type":"Point","coordinates":[-80.170107024819316,26.187504880848465]},"properties":{"OBJECTID":296,"Name":"CITY COLLEGE - FT LAUDERDALE","Address":"2000 W COMMERCIAL BLVD","City":"FORT LAUDERDALE","Zip":"33309","COUNTY":"BROWARD","X":-80.170107020000003,"Y":26.187504879999999,"LONGLAT":"-80.17010702,26.18750488","USNG":"17R NJ 82923 96714","DESCRIPT":null,"PARCELID":"494216130030","FACILITY_TYPE":"COLLEGE"}},{"type":"Feature","id":297,"geometry":{"type":"Point","coordinates":[-80.235270973160951,26.079889222193344]},"properties":{"OBJECTID":297,"Name":"FLORIDA ATLANTIC UNIVERSITY - DAVIE CAMPUS","Address":"2912 COLLEGE AVE","City":"FORT LAUDERDALE","Zip":"33314","COUNTY":"BROWARD","X":-80.235270970000002,"Y":26.079889219999998,"LONGLAT":"-80.23527097,26.07988922","USNG":"17R NJ 76481 84755","DESCRIPT":null,"PARCELID":"504137011622","FACILITY_TYPE":"COLLEGE"}},{"type":"Feature","id":298,"geometry":{"type":"Point","coordinates":[-80.60195962772228,28.221366852972331]},"properties":{"OBJECTID":298,"Name":"EMBRY RIDDLE AERONAUTICAL UNIVERSITY","Address":"1020 CENTRAL AVE","City":"PATRICK AFB","Zip":"32925","COUNTY":"BREVARD","X":-80.601959629999996,"Y":28.221366849999999,"LONGLAT":"-80.60195963,28.22136685","USNG":"17R NM 39056 21788","DESCRIPT":null,"PARCELID":null,"FACILITY_TYPE":"COLLEGE"}},{"type":"Feature","id":299,"geometry":{"type":"Point","coordinates":[-87.202220804084419,30.480510753893483]},"properties":{"OBJECTID":299,"Name":"PENSACOLA STATE COLLEGE","Address":"1000 COLLEGE BLVD","City":"PENSACOLA","Zip":"32504","COUNTY":"ESCAMBIA","X":-87.202220800000006,"Y":30.480510750000001,"LONGLAT":"-87.20222080,30.48051075","USNG":"16R DU 80590 72049","DESCRIPT":"SPECIAL TAXING DISTRICT","PARCELID":"331S305101000001","FACILITY_TYPE":"COLLEGE"}},{"type":"Feature","id":300,"geometry":{"type":"Point","coordinates":[-80.622992352493426,28.094834069563959]},"properties":{"OBJECTID":300,"Name":"KEISER COLLEGE TECHNOLOGY","Address":"900 S BABCOCK ST","City":"MELBOURNE","Zip":"32901","COUNTY":"BREVARD","X":-80.622992350000004,"Y":28.094834070000001,"LONGLAT":"-80.62299235,28.09483407","USNG":"17R NM 37035 07765","DESCRIPT":null,"PARCELID":null,"FACILITY_TYPE":"COLLEGE"}},{"type":"Feature","id":301,"geometry":{"type":"Point","coordinates":[-82.383482268705322,28.033174167459187]},"properties":{"OBJECTID":301,"Name":"FLORIDA COLLEGE","Address":"119 N GLEN ARVEN AVE","City":"TAMPA","Zip":"33617","COUNTY":"HILLSBOROUGH","X":-82.383482270000002,"Y":28.033174169999999,"LONGLAT":"-82.38348227,28.03317417","USNG":"17R LM 64006 01648","DESCRIPT":null,"PARCELID":"192823ZZZ000005953200T","FACILITY_TYPE":"COLLEGE"}},{"type":"Feature","id":302,"geometry":{"type":"Point","coordinates":[-82.311227502009515,27.887021835969584]},"properties":{"OBJECTID":302,"Name":"HILLSBOROUGH COMMUNITY COLLEGE AT THE REGENT","Address":"6437 WATSON RD","City":"RIVERVIEW","Zip":"33569","COUNTY":"HILLSBOROUGH","X":-82.311227500000001,"Y":27.887021839999999,"LONGLAT":"-82.31122750,27.88702184","USNG":"17R LL 70936 85378","DESCRIPT":"STATE","PARCELID":"203009ZZZ00000284090AU","FACILITY_TYPE":"COLLEGE"}},{"type":"Feature","id":303,"geometry":{"type":"Point","coordinates":[-80.325487407160679,25.783542651101509]},"properties":{"OBJECTID":303,"Name":"ITT TECHNICAL INSTITUTE","Address":"7955 NW 12TH ST STE 119","City":"MIAMI","Zip":"33126","COUNTY":"MIAMI-DADE","X":-80.325487409999994,"Y":25.783542650000001,"LONGLAT":"-80.32548741,25.78354265","USNG":"17R NJ 67627 51886","DESCRIPT":null,"PARCELID":"3530340040060","FACILITY_TYPE":"COLLEGE"}},{"type":"Feature","id":304,"geometry":{"type":"Point","coordinates":[-81.420347500055996,28.447196999219628]},"properties":{"OBJECTID":304,"Name":"OPTUM","Address":"8301 SOUTH PARK CIRCLE","City":"ORLANDO","Zip":"32819","COUNTY":"ORANGE","X":-81.420347500000005,"Y":28.447196999999999,"LONGLAT":"-81.42034750,28.44719700","USNG":"17R MM 58842 46814","DESCRIPT":null,"PARCELID":null,"FACILITY_TYPE":"COLLEGE"}},{"type":"Feature","id":305,"geometry":{"type":"Point","coordinates":[-81.77443086304099,30.118635807821203]},"properties":{"OBJECTID":305,"Name":"ST. JOHNS RIVER STATE COLLEGE","Address":"283 COLLEGE DR","City":"ORANGE PARK","Zip":"32065","COUNTY":"CLAY","X":-81.774430859999995,"Y":30.118635810000001,"LONGLAT":"-81.77443086,30.11863581","USNG":"17R MP 25395 32184","DESCRIPT":"STATE","PARCELID":"06-04-26-010672-001-02","FACILITY_TYPE":"COLLEGE"}},{"type":"Feature","id":306,"geometry":{"type":"Point","coordinates":[-81.890535705153823,30.250367932632958]},"properties":{"OBJECTID":306,"Name":"FLORIDA STATE COLLEGE AT JACKSONVILLE CECIL CENTER","Address":"5640 NEW WORLD AVE","City":"JACKSONVILLE","Zip":" ","COUNTY":"DUVAL","X":-81.890535709999995,"Y":30.250367929999999,"LONGLAT":"-81.89053571,30.25036793","USNG":"17R MP 14324 46864","DESCRIPT":null,"PARCELID":null,"FACILITY_TYPE":"COLLEGE"}},{"type":"Feature","id":307,"geometry":{"type":"Point","coordinates":[-81.400364814009151,28.469302550708665]},"properties":{"OBJECTID":307,"Name":"INTERNATIONAL ACADEMY OF DESIGN & TECH","Address":"6039 RIO GRANDE AVE","City":"ORLANDO","Zip":"32809","COUNTY":"ORANGE","X":null,"Y":null,"LONGLAT":null,"USNG":null,"DESCRIPT":null,"PARCELID":null,"FACILITY_TYPE":"COLLEGE"}},{"type":"Feature","id":308,"geometry":{"type":"Point","coordinates":[-81.684910145810449,30.344777826425624]},"properties":{"OBJECTID":308,"Name":"EDWARD WATERS COLLEGE","Address":"1658 KINGS RD","City":"JACKSONVILLE","Zip":"32209","COUNTY":"DUVAL","X":-81.684910149999993,"Y":30.344777830000002,"LONGLAT":"-81.68491015,30.34477783","USNG":"17R MP 34170 57189","DESCRIPT":null,"PARCELID":"0525460000R","FACILITY_TYPE":"COLLEGE"}},{"type":"Feature","id":309,"geometry":{"type":"Point","coordinates":[-80.359720338184303,25.590221467956951]},"properties":{"OBJECTID":309,"Name":"BARRY UNIVERSITY SOUTH","Address":"18958 S DIXIE HWY","City":"CUTLER BAY","Zip":"33157","COUNTY":"MIAMI-DADE","X":null,"Y":null,"LONGLAT":null,"USNG":null,"DESCRIPT":null,"PARCELID":null,"FACILITY_TYPE":"COLLEGE"}},{"type":"Feature","id":310,"geometry":{"type":"Point","coordinates":[-80.13962482806096,25.910226618287826]},"properties":{"OBJECTID":310,"Name":"FLORIDA INTERNATIONAL UNIVERSITY - BISCAYNE BAY CAMPUS","Address":"3000 NE 151ST ST","City":"NORTH MIAMI","Zip":"33181","COUNTY":"MIAMI-DADE","X":-80.139624830000002,"Y":25.91022662,"LONGLAT":"-80.13962483,25.91022662","USNG":"17R NJ 86171 66024","DESCRIPT":null,"PARCELID":"0622220000020","FACILITY_TYPE":"COLLEGE"}},{"type":"Feature","id":311,"geometry":{"type":"Point","coordinates":[-80.203485874797892,25.94294736944785]},"properties":{"OBJECTID":311,"Name":"EVEREST INSTITUTE - NORTH MIAMI","Address":"111 NW 183RD ST STE 200","City":"MIAMI","Zip":"33169","COUNTY":"MIAMI-DADE","X":-80.203485869999994,"Y":25.942947369999999,"LONGLAT":"-80.20348587,25.94294737","USNG":"17R NJ 79753 69608","DESCRIPT":null,"PARCELID":null,"FACILITY_TYPE":"COLLEGE"}},{"type":"Feature","id":312,"geometry":{"type":"Point","coordinates":[-81.591895842355868,30.250920754629625]},"properties":{"OBJECTID":312,"Name":"THE UNIVERSITY OF PHOENIX - NORTH FLORIDA CAMPUS","Address":"4500 SALISBURY ROAD","City":"JACKSONVILLE","Zip":"32216","COUNTY":"DUVAL","X":-81.591895840000007,"Y":30.25092076,"LONGLAT":"-81.59189584,30.25092076","USNG":"17R MP 43056 46738","DESCRIPT":null,"PARCELID":null,"FACILITY_TYPE":"COLLEGE"}},{"type":"Feature","id":313,"geometry":{"type":"Point","coordinates":[-80.079642841823159,26.842477164159924]},"properties":{"OBJECTID":313,"Name":"PALM BEACH STATE COLLEGE","Address":"3160 PGA BLVD","City":"PALM BEACH GARDENS","Zip":"33410","COUNTY":"PALM BEACH","X":-80.079642840000005,"Y":26.842477160000001,"LONGLAT":"-80.07964284,26.84247716","USNG":"17R NK 91442 69319","DESCRIPT":null,"PARCELID":"52434205000007030","FACILITY_TYPE":"COLLEGE"}},{"type":"Feature","id":314,"geometry":{"type":"Point","coordinates":[-80.367604046446928,25.756574685972087]},"properties":{"OBJECTID":314,"Name":"FLORIDA CAREER COLLEGE","Address":"1321 SW 107TH AVE STE 201B","City":"MIAMI","Zip":"33174","COUNTY":"MIAMI-DADE","X":-80.367604049999997,"Y":25.756574690000001,"LONGLAT":"-80.36760405,25.75657469","USNG":"17R NJ 63419 48878","DESCRIPT":null,"PARCELID":"3040080430010","FACILITY_TYPE":"COLLEGE"}},{"type":"Feature","id":315,"geometry":{"type":"Point","coordinates":[-80.130655675690505,27.064081438830186]},"properties":{"OBJECTID":315,"Name":"HOBE SOUND BIBLE COLLEGE","Address":"11298 SE GOMEZ AVE","City":"HOBE SOUND","Zip":"33455","COUNTY":"MARTIN","X":-80.130655680000004,"Y":27.064081439999999,"LONGLAT":"-80.13065568,27.06408144","USNG":"17R NK 86205 93830","DESCRIPT":null,"PARCELID":"343842000077001605","FACILITY_TYPE":"COLLEGE"}},{"type":"Feature","id":316,"geometry":{"type":"Point","coordinates":[-80.240195636587345,26.078845179268498]},"properties":{"OBJECTID":316,"Name":"NOVA SOUTHEASTERN UNIVERSITY - MAIN CAMPUS","Address":"3301 COLLEGE AVE","City":"FORT LAUDERDALE","Zip":"33314","COUNTY":"BROWARD","X":-80.240195639999996,"Y":26.078845179999998,"LONGLAT":"-80.24019564,26.07884518","USNG":"17R NJ 75989 84636","DESCRIPT":null,"PARCELID":"504122060010","FACILITY_TYPE":"COLLEGE"}},{"type":"Feature","id":317,"geometry":{"type":"Point","coordinates":[-81.307438627258421,28.744367732934954]},"properties":{"OBJECTID":317,"Name":"SEMINOLE STATE COLLEGE","Address":"100 WELDON BLVD","City":"LAKE MARY","Zip":"32746","COUNTY":"SEMINOLE","X":-81.307438629999993,"Y":28.74436773,"LONGLAT":"-81.30743863,28.74436773","USNG":"17R MM 69982 79703","DESCRIPT":null,"PARCELID":"1520305AO00000520","FACILITY_TYPE":"COLLEGE"}},{"type":"Feature","id":318,"geometry":{"type":"Point","coordinates":[-80.142107956961027,26.12191509266189]},"properties":{"OBJECTID":318,"Name":"ATLANTIC INSTITUTE OF ORIENTAL MEDICENE","Address":"100 E BROWARD BLVD","City":"FORT LAUDERDALE","Zip":"33301","COUNTY":"BROWARD","X":-80.142107960000004,"Y":26.121915090000002,"LONGLAT":"-80.14210796,26.12191509","USNG":"17R NJ 85768 89468","DESCRIPT":null,"PARCELID":"504210060030","FACILITY_TYPE":"COLLEGE"}},{"type":"Feature","id":319,"geometry":{"type":"Point","coordinates":[-82.19735325005513,29.140127811581998]},"properties":{"OBJECTID":319,"Name":"RASMUSSEN COLLEGE - FLORIDA","Address":"4755 SW 46TH COURT","City":"OCALA","Zip":"34474","COUNTY":"MARION","X":-82.197353250000006,"Y":29.140127809999999,"LONGLAT":"-82.19735325,29.14012781","USNG":"17R LN 83531 24103","DESCRIPT":null,"PARCELID":null,"FACILITY_TYPE":"COLLEGE"}},{"type":"Feature","id":320,"geometry":{"type":"Point","coordinates":[-81.834676874746748,26.597921714240776]},"properties":{"OBJECTID":320,"Name":"KEISER UNIVERSITY","Address":"3800 COLONIAL BLVD","City":"FORT MYERS","Zip":"33966","COUNTY":"LEE","X":-81.834676869999996,"Y":26.597921710000001,"LONGLAT":"-81.83467687,26.59792171","USNG":"17R MK 16893 42173","DESCRIPT":null,"PARCELID":null,"FACILITY_TYPE":"COLLEGE"}},{"type":"Feature","id":321,"geometry":{"type":"Point","coordinates":[-82.403732819859783,28.595025801607434]},"properties":{"OBJECTID":321,"Name":"PASCO HERNANDO COMMUNITY COLLEGE","Address":"11415 PONCE DE LEON BLVD","City":"BROOKSVILLE","Zip":"34601","COUNTY":"HERNANDO","X":-82.403732820000002,"Y":28.595025799999998,"LONGLAT":"-82.40373282,28.59502580","USNG":"17R LM 62739 63924","DESCRIPT":"SPECIAL TAXING DISTRICT","PARCELID":"R04 422 19 0000 0070 0031","FACILITY_TYPE":"COLLEGE"}},{"type":"Feature","id":322,"geometry":{"type":"Point","coordinates":[-80.926960415911907,28.99995780265559]},"properties":{"OBJECTID":322,"Name":"DAYTONA STATE COLLEGE - EDGEWATER CAMPUS","Address":"940 10TH ST","City":"NEW SMYRNA BEACH","Zip":"32168","COUNTY":"VOLUSIA","X":-80.92696042,"Y":28.999957800000001,"LONGLAT":"-80.92696042,28.99995780","USNG":"17R NN 07114 07983","DESCRIPT":"SPECIAL TAXING DISTRICT","PARCELID":"34173000000100","FACILITY_TYPE":"COLLEGE"}},{"type":"Feature","id":323,"geometry":{"type":"Point","coordinates":[-80.307798975317581,25.859848206250959]},"properties":{"OBJECTID":323,"Name":"FLORIDA NATIONAL COLLEGE","Address":"4162 W 12TH AVE","City":"HIALEAH","Zip":"33012","COUNTY":"MIAMI-DADE","X":-80.307798980000001,"Y":25.859848209999999,"LONGLAT":"-80.30779898,25.85984821","USNG":"17R NJ 69356 60345","DESCRIPT":null,"PARCELID":"0430021020010","FACILITY_TYPE":"COLLEGE"}},{"type":"Feature","id":324,"geometry":{"type":"Point","coordinates":[-81.532241642984502,27.838738772491983]},"properties":{"OBJECTID":324,"Name":"WEBBER INTERNATIONAL UNIVERSITY","Address":"1201 SCENIC HWY N","City":"BABSON PARK","Zip":"33827","COUNTY":"POLK","X":-81.532241639999995,"Y":27.838738769999999,"LONGLAT":"-81.53224164,27.83873877","USNG":"17R ML 47590 79452","DESCRIPT":null,"PARCELID":"283029000000021010","FACILITY_TYPE":"COLLEGE"}},{"type":"Feature","id":325,"geometry":{"type":"Point","coordinates":[-80.238220110122569,25.76648602893475]},"properties":{"OBJECTID":325,"Name":"MIAMI DADE COLLEGE INTERAMERICAN","Address":"627 SW 27TH AVE","City":"MIAMI","Zip":"33135","COUNTY":"MIAMI-DADE","X":null,"Y":null,"LONGLAT":null,"USNG":null,"DESCRIPT":null,"PARCELID":null,"FACILITY_TYPE":"COLLEGE"}},{"type":"Feature","id":326,"geometry":{"type":"Point","coordinates":[-80.353860919809847,25.733491610004844]},"properties":{"OBJECTID":326,"Name":"JUSTILANGUAGE AUDIO VISUAL CENTER","Address":"9811 SW 40TH ST","City":"MIAMI-DADE","Zip":"33165","COUNTY":"MIAMI-DADE","X":null,"Y":null,"LONGLAT":null,"USNG":null,"DESCRIPT":null,"PARCELID":null,"FACILITY_TYPE":"COLLEGE"}},{"type":"Feature","id":327,"geometry":{"type":"Point","coordinates":[-81.706134750162164,30.188826317603962]},"properties":{"OBJECTID":327,"Name":"EVEREST UNIVERSITY","Address":"805 WELLS RD","City":"ORANGE PARK","Zip":"32073","COUNTY":"CLAY","X":-81.706134750000004,"Y":30.18882632,"LONGLAT":"-81.70613475,30.18882632","USNG":"17R MP 32023 39919","DESCRIPT":null,"PARCELID":null,"FACILITY_TYPE":"COLLEGE"}},{"type":"Feature","id":328,"geometry":{"type":"Point","coordinates":[-81.300631965782088,29.009127942804252]},"properties":{"OBJECTID":328,"Name":"FLORIDA TECHNICAL COLLEGE","Address":"1199 S WOODLAND BLVD","City":"DELAND","Zip":"32724","COUNTY":"VOLUSIA","X":-81.300631969999998,"Y":29.009127939999999,"LONGLAT":"-81.30063197,29.00912794","USNG":"17R MN 70720 09034","DESCRIPT":"SPECIAL TAXING DISTRICT","PARCELID":"30172100000502","FACILITY_TYPE":"COLLEGE"}},{"type":"Feature","id":329,"geometry":{"type":"Point","coordinates":[-82.724405365790489,28.189887701691024]},"properties":{"OBJECTID":329,"Name":"WEBSTER COLLEGE","Address":"2127 GRAND BLVD","City":"HOLIDAY","Zip":"34690","COUNTY":"PASCO","X":-82.724405369999999,"Y":28.1898877,"LONGLAT":"-82.72440537,28.18988770","USNG":"17R LM 30736 19440","DESCRIPT":null,"PARCELID":"1626290010060000050","FACILITY_TYPE":"COLLEGE"}},{"type":"Feature","id":330,"geometry":{"type":"Point","coordinates":[-81.414576818449035,28.451688771139597]},"properties":{"OBJECTID":330,"Name":"FLORIDA METROPOLITAN UNIVERSITY","Address":"2411 SAND LAKE RD","City":"ORLANDO","Zip":"32809","COUNTY":"ORANGE","X":null,"Y":null,"LONGLAT":null,"USNG":null,"DESCRIPT":null,"PARCELID":null,"FACILITY_TYPE":"COLLEGE"}},{"type":"Feature","id":331,"geometry":{"type":"Point","coordinates":[-80.688282152343149,26.676712726531289]},"properties":{"OBJECTID":331,"Name":"PALM BEACH STATE COLLEGE","Address":"1977 COLLEGE DR","City":"BELLE GLADE","Zip":"33430","COUNTY":"PALM BEACH","X":-80.688282150000006,"Y":26.676712729999998,"LONGLAT":"-80.68828215,26.67671273","USNG":"17R NK 31015 50666","DESCRIPT":null,"PARCELID":null,"FACILITY_TYPE":"COLLEGE"}},{"type":"Feature","id":332,"geometry":{"type":"Point","coordinates":[-81.822294225989765,27.604075175635948]},"properties":{"OBJECTID":332,"Name":"SOUTH FLORIDA STATE COLLEGE","Address":"2968 US 17 N","City":"BOWLING GREEN","Zip":"33834","COUNTY":"HARDEE","X":-81.822294229999997,"Y":27.604075179999999,"LONGLAT":"-81.82229423,27.60407518","USNG":"17R ML 18854 53614","DESCRIPT":null,"PARCELID":"16-33-25-0000-03400-0000","FACILITY_TYPE":"COLLEGE"}},{"type":"Feature","id":333,"geometry":{"type":"Point","coordinates":[-81.743939420994593,24.582519356065205]},"properties":{"OBJECTID":333,"Name":"FLORIDA KEYS COMMUNITY COLLEGE","Address":"5901 COLLEGE RD","City":"KEY WEST","Zip":"33040","COUNTY":"MONROE","X":-81.743939420000004,"Y":24.582519359999999,"LONGLAT":"-81.74393942,24.58251936","USNG":"17R MH 24676 18925","DESCRIPT":"OTHER PUBLIC","PARCELID":"2667 25 00072080000900","FACILITY_TYPE":"COLLEGE"}},{"type":"Feature","id":334,"geometry":{"type":"Point","coordinates":[-80.373876142095938,25.756984650335099]},"properties":{"OBJECTID":334,"Name":"FLORIDA INTERNATIONAL UNIVERSITY - UNIVERSITY PARK CAMPUS","Address":"11200 SW 8TH ST","City":"MIAMI","Zip":"33199","COUNTY":"MIAMI-DADE","X":-80.373876139999993,"Y":25.75698465,"LONGLAT":"-80.37387614,25.75698465","USNG":"17R NJ 62790 48920","DESCRIPT":"STATE OF FLORIDA TIITF","PARCELID":"3040070000050","FACILITY_TYPE":"COLLEGE"}},{"type":"Feature","id":335,"geometry":{"type":"Point","coordinates":[-82.027510131188677,27.982437304508831]},"properties":{"OBJECTID":335,"Name":"Sun'N Fun Fly-In Inc","Address":"4175 Medulla Road","City":"Lakeland","Zip":"33811","COUNTY":"POLK","X":-82.027510129999996,"Y":27.982437310000002,"LONGLAT":"-82.02751013,27.98243731","USNG":"17R LL 98953 95682","DESCRIPT":null,"PARCELID":null,"FACILITY_TYPE":"COLLEGE"}},{"type":"Feature","id":336,"geometry":{"type":"Point","coordinates":[-81.362509144282797,29.93983265936572]},"properties":{"OBJECTID":336,"Name":"FIRST COAST TECHNICAL COLLEGE - NORTH CAMPUS","Address":"3640 GAINES RD","City":"SAINT AUGUSTINE","Zip":"32084","COUNTY":"ST. JOHNS","X":-81.36250914,"Y":29.93983266,"LONGLAT":"-81.36250914,29.93983266","USNG":"17R MP 65015 12173","DESCRIPT":"COUNTY","PARCELID":"0730300000","FACILITY_TYPE":"COLLEGE"}},{"type":"Feature","id":337,"geometry":{"type":"Point","coordinates":[-81.016882738190674,29.123801853719627]},"properties":{"OBJECTID":337,"Name":"PALMER COLLEGE","Address":"4777 CITY CENTER PKWY","City":"PORT ORANGE","Zip":"32129","COUNTY":"VOLUSIA","X":-81.01688274,"Y":29.12380185,"LONGLAT":"-81.01688274,29.12380185","USNG":"17R MN 98357 21702","DESCRIPT":"SPECIAL TAXING DISTRICT","PARCELID":"33160826000010","FACILITY_TYPE":"COLLEGE"}},{"type":"Feature","id":338,"geometry":{"type":"Point","coordinates":[-82.108640820363931,29.944076837940507]},"properties":{"OBJECTID":338,"Name":"SANTA FE COMMUNITY COLLEGE","Address":"209 W CALL ST","City":"STARKE","Zip":"32091","COUNTY":"BRADFORD","X":-82.108640820000005,"Y":29.944076840000001,"LONGLAT":"-82.10864082,29.94407684","USNG":"17R LP 93010 13105","DESCRIPT":null,"PARCELID":null,"FACILITY_TYPE":"COLLEGE"}},{"type":"Feature","id":339,"geometry":{"type":"Point","coordinates":[-81.208691629446676,28.572621940419932]},"properties":{"OBJECTID":339,"Name":"BARRY UNIVERSITY","Address":"2000 N Alafaya Trail","City":"ORLANDO","Zip":"32826","COUNTY":"ORANGE","X":-81.208691630000004,"Y":28.572621940000001,"LONGLAT":"-81.20869163,28.57262194","USNG":"17R MM 79590 60655","DESCRIPT":null,"PARCELID":null,"FACILITY_TYPE":"COLLEGE"}},{"type":"Feature","id":340,"geometry":{"type":"Point","coordinates":[-82.687070254284791,27.715786635673378]},"properties":{"OBJECTID":340,"Name":"ECKERD COLLEGE","Address":"4200 54TH AVE S","City":"SAINT PETERSBURG","Zip":"33711","COUNTY":"PINELLAS","X":-82.687070250000005,"Y":27.715786640000001,"LONGLAT":"-82.68707025,27.71578664","USNG":"17R LL 33676 66858","DESCRIPT":null,"PARCELID":"16 32 10 00000 120 0200","FACILITY_TYPE":"COLLEGE"}},{"type":"Feature","id":341,"geometry":{"type":"Point","coordinates":[-80.132307544896634,25.790425928559273]},"properties":{"OBJECTID":341,"Name":"Florida International University Miami Beach","Address":"420 LINCOLN RD","City":"MIAMI BEACH","Zip":"33139","COUNTY":"MIAMI-DADE","X":-80.132307539999999,"Y":25.790425930000001,"LONGLAT":"-80.13230754,25.79042593","USNG":"17R NJ 86992 52761","DESCRIPT":null,"PARCELID":null,"FACILITY_TYPE":"COLLEGE"}},{"type":"Feature","id":342,"geometry":{"type":"Point","coordinates":[-81.301894186252156,29.034998083094923]},"properties":{"OBJECTID":342,"Name":"STETSON UNIVERSITY","Address":"421 N WOODLAND BLVD","City":"DELAND","Zip":"32724","COUNTY":"VOLUSIA","X":-81.301894189999999,"Y":29.034998080000001,"LONGLAT":"-81.30189419,29.03499808","USNG":"17R MN 70605 11900","DESCRIPT":null,"PARCELID":"30170901130010","FACILITY_TYPE":"COLLEGE"}},{"type":"Feature","id":343,"geometry":{"type":"Point","coordinates":[-81.947046870082161,28.030998780193716]},"properties":{"OBJECTID":343,"Name":"FLORIDA SOUTHERN COLLEGE","Address":"111 LAKE HOLLINGSWORTH DR","City":"LAKELAND","Zip":"33803","COUNTY":"POLK","X":-81.947046869999994,"Y":28.030998780000001,"LONGLAT":"-81.94704687,28.03099878","USNG":"17R MM 06908 00997","DESCRIPT":null,"PARCELID":"242819000000023010","FACILITY_TYPE":"COLLEGE"}},{"type":"Feature","id":344,"geometry":{"type":"Point","coordinates":[-81.192619622642269,29.563497006510243]},"properties":{"OBJECTID":344,"Name":"EMBRY-RIDDLE AERONAUTICAL UNIVERSITY","Address":"1000 AVIATION DRIVE","City":"PALM COAST","Zip":"32137","COUNTY":"FLAGLER","X":-81.192619620000002,"Y":29.563497009999999,"LONGLAT":"-81.19261962,29.56349701","USNG":"17R MN 81341 70434","DESCRIPT":null,"PARCELID":null,"FACILITY_TYPE":"COLLEGE"}},{"type":"Feature","id":345,"geometry":{"type":"Point","coordinates":[-81.888373931142453,26.554019710173108]},"properties":{"OBJECTID":345,"Name":"BARRY UNIVERSITY","Address":"8099 COLLEGE PKWY","City":"FORT MYERS","Zip":"33919","COUNTY":"LEE","X":-81.88837393,"Y":26.554019709999999,"LONGLAT":"-81.88837393,26.55401971","USNG":"17R MK 11512 37347","DESCRIPT":null,"PARCELID":null,"FACILITY_TYPE":"COLLEGE"}},{"type":"Feature","id":346,"geometry":{"type":"Point","coordinates":[-81.379249298833386,28.540496181868068]},"properties":{"OBJECTID":346,"Name":"VALENCIA COMMUNITY COLLEGE - DOWNTOWN CENTER","Address":"190 S ORANGE AVE","City":"ORLANDO","Zip":"32801","COUNTY":"ORANGE","X":-81.379249299999998,"Y":28.540496180000002,"LONGLAT":"-81.37924930,28.54049618","USNG":"17R MM 62898 57136","DESCRIPT":"STATE","PARCELID":"292226735238011","FACILITY_TYPE":"COLLEGE"}},{"type":"Feature","id":347,"geometry":{"type":"Point","coordinates":[-80.104762808232991,26.402440284409071]},"properties":{"OBJECTID":347,"Name":"COLLEGE FOR PROFESSIONAL STUDIES","Address":"6409 CONGRESS AVE STE 100","City":"BOCA RATON","Zip":"33487","COUNTY":"PALM BEACH","X":-80.104762809999997,"Y":26.402440290000001,"LONGLAT":"-80.10476281,26.40244029","USNG":"17R NK 89287 20563","DESCRIPT":null,"PARCELID":"06434706190040000","FACILITY_TYPE":"COLLEGE"}},{"type":"Feature","id":348,"geometry":{"type":"Point","coordinates":[-80.451150003100494,27.633899879169544]},"properties":{"OBJECTID":348,"Name":"INDIAN RIVER COMMUNITY COLLEGE","Address":"6055 COLLEGE LN","City":"VERO BEACH","Zip":"32966","COUNTY":"INDIAN RIVER","X":-80.451149999999998,"Y":27.633899880000001,"LONGLAT":"-80.45115000,27.63389988","USNG":"17R NL 54146 56768","DESCRIPT":"SPECIAL TAXING DISTRICT","PARCELID":"33390500001015000001.1","FACILITY_TYPE":"COLLEGE"}},{"type":"Feature","id":349,"geometry":{"type":"Point","coordinates":[-82.416843050121045,29.77896333979858]},"properties":{"OBJECTID":349,"Name":"UNIVERSITY OF FLORIDA AGRICULTURAL EXPERIMENTAL FARM","Address":"13200 NW 59TH DR","City":"ALACHUA","Zip":"32615","COUNTY":"ALACHUA","X":-82.416843049999997,"Y":29.778963340000001,"LONGLAT":"-82.41684305,29.77896334","USNG":"17R LN 63039 95134","DESCRIPT":"SPECIAL TAXING DISTRICT","PARCELID":"05863 000 000","FACILITY_TYPE":"COLLEGE"}}]}