{"type":"FeatureCollection","features":[{"type":"Feature","id":1,"geometry":{"type":"Point","coordinates":[-81.444420083122893,27.494231668980817]},"properties":{"OBJECTID":1,"Name":"SEBRING CIVIC CENTER","Address":"355 W CENTER AVE","City":"SEBRING","Zip":" ","COUNTY":"HIGHLANDS","X":-81.44442008,"Y":27.494231670000001,"LONGLAT":"-81.44442008,27.49423167","USNG":"17R ML 56100 41256","OWNERSHIP":null,"PARCELID":null,"FACILITY_TYPE":"COMMUNITY CENTER"}},{"type":"Feature","id":2,"geometry":{"type":"Point","coordinates":[-81.966414290773699,27.898785245810416]},"properties":{"OBJECTID":2,"Name":"MULBERRY CIVIC CENTER","Address":"901 NE 5TH ST","City":"MULBERRY","Zip":" ","COUNTY":"POLK","X":-81.966414290000003,"Y":27.89878525,"LONGLAT":"-81.96641429,27.89878525","USNG":"17R ML 04888 86365","OWNERSHIP":null,"PARCELID":null,"FACILITY_TYPE":"COMMUNITY CENTER"}},{"type":"Feature","id":3,"geometry":{"type":"Point","coordinates":[-82.862539456337728,29.755789095617672]},"properties":{"OBJECTID":3,"Name":"BELL COMMUNITY CENTER","Address":"1180 N MAIN ST","City":"BELL","Zip":"32619","COUNTY":"GILCHRIST","X":-82.862539459999994,"Y":29.755789100000001,"LONGLAT":"-82.86253946,29.75578910","USNG":"17R LN 19907 93178","OWNERSHIP":null,"PARCELID":null,"FACILITY_TYPE":"COMMUNITY CENTER"}},{"type":"Feature","id":4,"geometry":{"type":"Point","coordinates":[-81.010348393078601,29.177673747019565]},"properties":{"OBJECTID":4,"Name":"JAMES PARK YOUTH ACTIVITY CENTER","Address":"1795 JAMES ST","City":"SOUTH DAYTONA","Zip":"32119","COUNTY":"VOLUSIA","X":-81.010348390000004,"Y":29.17767375,"LONGLAT":"-81.01034839,29.17767375","USNG":"17R MN 98993 27670","OWNERSHIP":null,"PARCELID":null,"FACILITY_TYPE":"COMMUNITY CENTER"}},{"type":"Feature","id":5,"geometry":{"type":"Point","coordinates":[-80.298553503593368,25.847710186836022]},"properties":{"OBJECTID":5,"Name":"JAMES S. WALKER COMMUNITY CENTER","Address":"800 W 29TH ST","City":"HIALEAH","Zip":"33012","COUNTY":"MIAMI-DADE","X":-80.298553499999997,"Y":25.847710190000001,"LONGLAT":"-80.29855350,25.84771019","USNG":"17R NJ 70290 59006","OWNERSHIP":null,"PARCELID":null,"FACILITY_TYPE":"COMMUNITY CENTER"}},{"type":"Feature","id":6,"geometry":{"type":"Point","coordinates":[-80.398901926968065,27.641672565710127]},"properties":{"OBJECTID":6,"Name":"VERO BEACH COMMUNITY CENTER","Address":"2266 14TH AVE","City":"VERO BEACH","Zip":" ","COUNTY":"INDIAN RIVER","X":-80.398901929999994,"Y":27.641672570000001,"LONGLAT":"-80.39890193,27.64167257","USNG":"17R NL 59296 57653","OWNERSHIP":null,"PARCELID":null,"FACILITY_TYPE":"COMMUNITY CENTER"}},{"type":"Feature","id":7,"geometry":{"type":"Point","coordinates":[-80.464430372624165,25.476520599758569]},"properties":{"OBJECTID":7,"Name":"HOMESTEAD YMCA","Address":"1034 NE 8TH ST","City":"HOMESTEAD","Zip":" ","COUNTY":"MIAMI-DADE","X":-80.464430370000002,"Y":25.476520600000001,"LONGLAT":"-80.46443037,25.47652060","USNG":"17R NJ 53834 17822","OWNERSHIP":null,"PARCELID":null,"FACILITY_TYPE":"COMMUNITY CENTER"}},{"type":"Feature","id":8,"geometry":{"type":"Point","coordinates":[-81.640808840821805,29.391945953397116]},"properties":{"OBJECTID":8,"Name":"GEORGETOWN COMMUNITY CENTER","Address":"1413 COUNTY ROAD 309 ","City":"GEORGETOWN","Zip":" ","COUNTY":"PUTNAM","X":-81.640808840000005,"Y":29.39194595,"LONGLAT":"-81.64080884,29.39194595","USNG":"17R MN 37821 51581","OWNERSHIP":null,"PARCELID":null,"FACILITY_TYPE":"COMMUNITY CENTER"}},{"type":"Feature","id":9,"geometry":{"type":"Point","coordinates":[-80.254180428561924,25.906298583014816]},"properties":{"OBJECTID":9,"Name":"SHERBONDY VILLAGE COMMUNITY CENTER","Address":"215 N PERVIZ AVE","City":"OPA LOCKA","Zip":"33054","COUNTY":"MIAMI-DADE","X":-80.254180430000005,"Y":25.906298580000001,"LONGLAT":"-80.25418043,25.90629858","USNG":"17R NJ 74700 65519","OWNERSHIP":null,"PARCELID":null,"FACILITY_TYPE":"COMMUNITY CENTER"}},{"type":"Feature","id":10,"geometry":{"type":"Point","coordinates":[-87.479600584765805,30.90166381693399]},"properties":{"OBJECTID":10,"Name":"WALNUT HILL COMMUNITY CENTER","Address":"7850 HIGHWAY 97","City":"MC DAVID","Zip":"32568","COUNTY":"ESCAMBIA","X":-87.479600579999996,"Y":30.90166382,"LONGLAT":"-87.47960058,30.90166382","USNG":"16R DV 54167 18802","OWNERSHIP":"COUNTY","PARCELID":"384N321000000000","FACILITY_TYPE":"COMMUNITY CENTER"}},{"type":"Feature","id":11,"geometry":{"type":"Point","coordinates":[-82.434161007204935,28.070428573674075]},"properties":{"OBJECTID":11,"Name":"WHITLEY-BOWERS CAREER CENTER","Address":"13609 N 22ND ST","City":"TAMPA","Zip":" ","COUNTY":"HILLSBOROUGH","X":-82.434161009999997,"Y":28.070428570000001,"LONGLAT":"-82.43416101,28.07042857","USNG":"17R LM 59073 05834","OWNERSHIP":null,"PARCELID":null,"FACILITY_TYPE":"COMMUNITY CENTER"}},{"type":"Feature","id":12,"geometry":{"type":"Point","coordinates":[-81.465420913301756,28.542788715421857]},"properties":{"OBJECTID":12,"Name":"ORLO VISTA COMMUNITY CENTER","Address":"1 N POWERS DR","City":"ORLANDO","Zip":"32835","COUNTY":"ORANGE","X":-81.465420910000006,"Y":28.542788720000001,"LONGLAT":"-81.46542091,28.54278872","USNG":"17R MM 54469 57420","OWNERSHIP":"STATE","PARCELID":"282225000000034","FACILITY_TYPE":"COMMUNITY CENTER"}},{"type":"Feature","id":13,"geometry":{"type":"Point","coordinates":[-81.835477383383619,27.226279326082125]},"properties":{"OBJECTID":13,"Name":"TURNER CENTER EXHIBIT HALL (SN) ","Address":"2260 NE ROAN ST","City":"ARCADIA","Zip":"34266","COUNTY":"DESOTO","X":-81.83547738,"Y":27.226279330000001,"LONGLAT":"-81.83547738,27.22627933","USNG":"17R ML 17272 11774","OWNERSHIP":null,"PARCELID":null,"FACILITY_TYPE":"COMMUNITY CENTER"}},{"type":"Feature","id":14,"geometry":{"type":"Point","coordinates":[-86.11642035617119,30.726741794543944]},"properties":{"OBJECTID":14,"Name":"DEFUNIAK SPRINGS CIVIC CENTER","Address":"361 N 10TH ST","City":"DEFUNIAK SPRINGS","Zip":" ","COUNTY":"WALTON","X":-86.116420360000006,"Y":30.726741799999999,"LONGLAT":"-86.11642036,30.72674180","USNG":"16R EU 84593 99651","OWNERSHIP":null,"PARCELID":null,"FACILITY_TYPE":"COMMUNITY CENTER"}},{"type":"Feature","id":15,"geometry":{"type":"Point","coordinates":[-82.29525163336001,28.749828726008577]},"properties":{"OBJECTID":15,"Name":"FLORAL CITY COMMUNITY CENTER","Address":"8370 E ORANGE AVE","City":"FLORAL CITY","Zip":"34436","COUNTY":"CITRUS","X":-82.295251629999996,"Y":28.749828730000001,"LONGLAT":"-82.29525163,28.74982873","USNG":"17R LM 73534 80956","OWNERSHIP":null,"PARCELID":null,"FACILITY_TYPE":"COMMUNITY CENTER"}},{"type":"Feature","id":16,"geometry":{"type":"Point","coordinates":[-81.213988295944375,26.706682162813234]},"properties":{"OBJECTID":16,"Name":"PIONEER PLANTATION COMMUNITY CENTER","Address":"900 PANAMA AVE","City":"CLEWISTON","Zip":" ","COUNTY":"HENDRY","X":-81.213988299999997,"Y":26.70668216,"LONGLAT":"-81.21398830,26.70668216","USNG":"17R MK 78714 53966","OWNERSHIP":null,"PARCELID":null,"FACILITY_TYPE":"COMMUNITY CENTER"}},{"type":"Feature","id":17,"geometry":{"type":"Point","coordinates":[-81.615160946066382,30.226112213695501]},"properties":{"OBJECTID":17,"Name":"JEWISH COMMUNITY ALLIANCE","Address":"8505 SAN JOSE BOULEVARD","City":"JACKSONVILLE","Zip":"32217","COUNTY":"DUVAL","X":-81.615160950000003,"Y":30.22611221,"LONGLAT":"-81.61516095,30.22611221","USNG":"17R MP 40803 44000","OWNERSHIP":null,"PARCELID":null,"FACILITY_TYPE":"COMMUNITY CENTER"}},{"type":"Feature","id":18,"geometry":{"type":"Point","coordinates":[-81.691091183444684,29.985960714543857]},"properties":{"OBJECTID":18,"Name":"Carl Pugh Park","Address":"301 S West St","City":"GREEN COVE SPRINGS","Zip":"32043","COUNTY":"CLAY","X":-81.691091180000001,"Y":29.985960720000001,"LONGLAT":"-81.69109118,29.98596072","USNG":"17R MP 33335 17430","OWNERSHIP":null,"PARCELID":null,"FACILITY_TYPE":"COMMUNITY CENTER"}},{"type":"Feature","id":19,"geometry":{"type":"Point","coordinates":[-80.905654201717127,28.980501322789735]},"properties":{"OBJECTID":19,"Name":"EDGEWATER YMCA","Address":"148 W TURGOT AVE","City":"EDGEWATER","Zip":" ","COUNTY":"VOLUSIA","X":-80.905654200000001,"Y":28.980501319999998,"LONGLAT":"-80.90565420,28.98050132","USNG":"17R NN 09191 05828","OWNERSHIP":null,"PARCELID":null,"FACILITY_TYPE":"COMMUNITY CENTER"}},{"type":"Feature","id":20,"geometry":{"type":"Point","coordinates":[-87.234085704702053,30.413588665176466]},"properties":{"OBJECTID":20,"Name":"LEGION FIELD COMMUNITY CENTER","Address":"1301 W GREGORY ST","City":"PENSACOLA","Zip":"32502","COUNTY":"ESCAMBIA","X":-87.234085699999994,"Y":30.413588669999999,"LONGLAT":"-87.23408570,30.41358867","USNG":"16R DU 77517 64639","OWNERSHIP":null,"PARCELID":null,"FACILITY_TYPE":"COMMUNITY CENTER"}},{"type":"Feature","id":21,"geometry":{"type":"Point","coordinates":[-80.141081219144041,26.559954635085166]},"properties":{"OBJECTID":21,"Name":"WEST BOYNTON RECREATION CENTER","Address":"6000 NORTHTREE BLVD","City":"LAKE WORTH","Zip":" ","COUNTY":"PALM BEACH","X":-80.141081220000004,"Y":26.559954640000001,"LONGLAT":"-80.14108122,26.55995464","USNG":"17R NK 85548 37984","OWNERSHIP":null,"PARCELID":null,"FACILITY_TYPE":"COMMUNITY CENTER"}},{"type":"Feature","id":22,"geometry":{"type":"Point","coordinates":[-81.514821112653863,26.827228144602014]},"properties":{"OBJECTID":22,"Name":"MUSE COMMUNITY CENTER","Address":"25695 LOBLOLLY BAY RD","City":"MOORE HAVEN","Zip":" ","COUNTY":"GLADES","X":-81.51482111,"Y":26.82722815,"LONGLAT":"-81.51482111,26.82722815","USNG":"17R MK 48843 67403","OWNERSHIP":null,"PARCELID":null,"FACILITY_TYPE":"COMMUNITY CENTER"}},{"type":"Feature","id":23,"geometry":{"type":"Point","coordinates":[-80.812390002605071,28.607685723229313]},"properties":{"OBJECTID":23,"Name":"ISAAC CAMPBELL SENIOR COMMUNITY PARK","Address":"701 SOUTH ST","City":"TITUSVILLE","Zip":" ","COUNTY":"BREVARD","X":-80.812389999999994,"Y":28.607685719999999,"LONGLAT":"-80.81239000,28.60768572","USNG":"17R NM 18341 64536","OWNERSHIP":null,"PARCELID":null,"FACILITY_TYPE":"COMMUNITY CENTER"}},{"type":"Feature","id":24,"geometry":{"type":"Point","coordinates":[-81.018635557034003,29.126655751735981]},"properties":{"OBJECTID":24,"Name":"PORT ORANGE YMCA","Address":"4701 CITY CENTER PKWY","City":"PORT ORANGE","Zip":" ","COUNTY":"VOLUSIA","X":-81.018635560000007,"Y":29.126655750000001,"LONGLAT":"-81.01863556,29.12665575","USNG":"17R MN 98187 22018","OWNERSHIP":null,"PARCELID":null,"FACILITY_TYPE":"COMMUNITY CENTER"}},{"type":"Feature","id":25,"geometry":{"type":"Point","coordinates":[-81.856202234344664,27.9000659262264]},"properties":{"OBJECTID":25,"Name":"POLK STREET COMMUNITY CENTER","Address":"1255 W POLK ST","City":"BARTOW","Zip":" ","COUNTY":"POLK","X":-81.856202229999994,"Y":27.90006593,"LONGLAT":"-81.85620223,27.90006593","USNG":"17R ML 15736 86426","OWNERSHIP":null,"PARCELID":null,"FACILITY_TYPE":"COMMUNITY CENTER"}},{"type":"Feature","id":26,"geometry":{"type":"Point","coordinates":[-80.069099943503488,26.727950209251009]},"properties":{"OBJECTID":26,"Name":"GAINES PARK COMMUNITY CENTER","Address":"1501 N AUSTRALIAN AVE","City":"WEST PALM BEACH","Zip":" ","COUNTY":"PALM BEACH","X":-80.069099940000001,"Y":26.727950209999999,"LONGLAT":"-80.06909994,26.72795021","USNG":"17R NK 92583 56642","OWNERSHIP":null,"PARCELID":null,"FACILITY_TYPE":"COMMUNITY CENTER"}},{"type":"Feature","id":27,"geometry":{"type":"Point","coordinates":[-84.297176021405193,30.404870522712763]},"properties":{"OBJECTID":27,"Name":"JAKE GAITHER COMMUNITY CENTER","Address":"801 TANNER DR","City":"TALLAHASSEE","Zip":" ","COUNTY":"LEON","X":-84.297176019999995,"Y":30.404870519999999,"LONGLAT":"-84.29717602,30.40487052","USNG":"16R GU 59663 66750","OWNERSHIP":null,"PARCELID":null,"FACILITY_TYPE":"COMMUNITY CENTER"}},{"type":"Feature","id":28,"geometry":{"type":"Point","coordinates":[-81.038365775555533,29.245681174118328]},"properties":{"OBJECTID":28,"Name":"SICA HALL COMMUNITY CENTER","Address":"1065 DAYTONA AVE","City":"DAYTONA BEACH","Zip":" ","COUNTY":"VOLUSIA","X":-81.038365780000007,"Y":29.245681170000001,"LONGLAT":"-81.03836578,29.24568117","USNG":"17R MN 96272 35206","OWNERSHIP":null,"PARCELID":null,"FACILITY_TYPE":"COMMUNITY CENTER"}},{"type":"Feature","id":29,"geometry":{"type":"Point","coordinates":[-81.310027231733571,29.504436373623072]},"properties":{"OBJECTID":29,"Name":"ESPANOLA COMMUNITY CENTER","Address":"3570 CR 205","City":"BUNNELL","Zip":"32110","COUNTY":"FLAGLER","X":null,"Y":null,"LONGLAT":null,"USNG":null,"OWNERSHIP":null,"PARCELID":null,"FACILITY_TYPE":"COMMUNITY CENTER"}},{"type":"Feature","id":30,"geometry":{"type":"Point","coordinates":[-81.589083615115598,28.412191183250687]},"properties":{"OBJECTID":30,"Name":"GRAND FLORIDIAN CONVENTION CENTER","Address":"4401 FLORIDIAN WAY","City":"ORLANDO","Zip":"32830","COUNTY":"ORANGE","X":-81.589083619999997,"Y":28.412191180000001,"LONGLAT":"-81.58908362,28.41219118","USNG":"17R MM 42301 43005","OWNERSHIP":null,"PARCELID":"272411000000004","FACILITY_TYPE":"COMMUNITY CENTER"}},{"type":"Feature","id":31,"geometry":{"type":"Point","coordinates":[-81.354033996828804,28.506803953611396]},"properties":{"OBJECTID":31,"Name":"FORT GATLIN RECREATION CENTER","Address":"2009 LAKE MARGARET DR","City":"ORLANDO","Zip":"32806","COUNTY":"ORANGE","X":-81.354033999999999,"Y":28.506803949999998,"LONGLAT":"-81.35403400,28.50680395","USNG":"17R MM 65354 53396","OWNERSHIP":null,"PARCELID":null,"FACILITY_TYPE":"COMMUNITY CENTER"}},{"type":"Feature","id":32,"geometry":{"type":"Point","coordinates":[-82.816785457007612,29.611058192599518]},"properties":{"OBJECTID":32,"Name":"TRENTON COMMUNITY CENTER","Address":"110 SE 3RD AVE","City":"TRENTON","Zip":"32693","COUNTY":"GILCHRIST","X":-82.816785460000006,"Y":29.611058190000001,"LONGLAT":"-82.81678546,29.61105819","USNG":"17R LN 24080 77067","OWNERSHIP":"COUNTY","PARCELID":" ","FACILITY_TYPE":"COMMUNITY CENTER"}},{"type":"Feature","id":33,"geometry":{"type":"Point","coordinates":[-80.667879380427394,28.161989761511904]},"properties":{"OBJECTID":33,"Name":"WICKHAM PARK COMMUNITY CENTER","Address":"2815 LEISURE WAY","City":"MELBOURNE","Zip":"32935","COUNTY":"BREVARD","X":-80.667879380000002,"Y":28.161989760000001,"LONGLAT":"-80.66787938,28.16198976","USNG":"17R NM 32606 15191","OWNERSHIP":null,"PARCELID":null,"FACILITY_TYPE":"COMMUNITY CENTER"}},{"type":"Feature","id":34,"geometry":{"type":"Point","coordinates":[-80.141180988404827,27.05563269996906]},"properties":{"OBJECTID":34,"Name":"BANNER LAKE CIVIC CENTER","Address":"12212 SE LANTANA AVE","City":"HOBE SOUND","Zip":" ","COUNTY":"MARTIN","X":-80.141180989999995,"Y":27.0556327,"LONGLAT":"-80.14118099,27.05563270","USNG":"17R NK 85167 92887","OWNERSHIP":null,"PARCELID":null,"FACILITY_TYPE":"COMMUNITY CENTER"}},{"type":"Feature","id":35,"geometry":{"type":"Point","coordinates":[-82.111939926856181,28.664464116837806]},"properties":{"OBJECTID":35,"Name":"Bushnell Community Center","Address":"219 N MARKET ST","City":"BUSHNELL","Zip":"33513","COUNTY":"SUMTER","X":-82.111939930000005,"Y":28.664464120000002,"LONGLAT":"-82.11193993,28.66446412","USNG":"17R LM 91345 71317","OWNERSHIP":"MUNICIPAL","PARCELID":"N09E062","FACILITY_TYPE":"COMMUNITY CENTER"}},{"type":"Feature","id":36,"geometry":{"type":"Point","coordinates":[-80.501099778673435,27.859333012872654]},"properties":{"OBJECTID":36,"Name":"SOUTH MAINLAND COMMUNITY CENTER","Address":"3700 ALLEN AVE","City":"SEBASTIAN","Zip":"32976","COUNTY":"BREVARD","X":-80.501099780000004,"Y":27.85933301,"LONGLAT":"-80.50109978,27.85933301","USNG":"17R NL 49117 81720","OWNERSHIP":"COUNTY","PARCELID":"30 382300  259","FACILITY_TYPE":"COMMUNITY CENTER"}},{"type":"Feature","id":37,"geometry":{"type":"Point","coordinates":[-80.142126814904302,26.1751983287235]},"properties":{"OBJECTID":37,"Name":"COLLINS COMMUNITY CENTER","Address":"3900 NW 3RD AVE","City":"FORT LAUDERDALE","Zip":"33334","COUNTY":"BROWARD","X":-80.142126809999993,"Y":26.175198330000001,"LONGLAT":"-80.14212681,26.17519833","USNG":"17R NJ 85728 95369","OWNERSHIP":null,"PARCELID":null,"FACILITY_TYPE":"COMMUNITY CENTER"}},{"type":"Feature","id":38,"geometry":{"type":"Point","coordinates":[-82.793468558656372,27.945052811187566]},"properties":{"OBJECTID":38,"Name":"ROSS NORTON RECREATION CENTER","Address":"1426 S MARTIN LUTHER KING JR AVE","City":"CLEARWATER","Zip":"33756","COUNTY":"PINELLAS","X":-82.793468559999994,"Y":27.94505281,"LONGLAT":"-82.79346856,27.94505281","USNG":"17R LL 23556 92410","OWNERSHIP":null,"PARCELID":null,"FACILITY_TYPE":"COMMUNITY CENTER"}},{"type":"Feature","id":39,"geometry":{"type":"Point","coordinates":[-82.618229361639195,30.357475501037126]},"properties":{"OBJECTID":39,"Name":"DEEP CREEK COMMUNITY CENTER","Address":"11934 N US HWY 441","City":"LAKE CITY","Zip":" ","COUNTY":"COLUMBIA","X":-82.618229360000001,"Y":30.3574755,"LONGLAT":"-82.61822936,30.35747550","USNG":"17R LP 44477 59507","OWNERSHIP":null,"PARCELID":null,"FACILITY_TYPE":"COMMUNITY CENTER"}},{"type":"Feature","id":40,"geometry":{"type":"Point","coordinates":[-81.442642286662888,28.560852880990531]},"properties":{"OBJECTID":40,"Name":"GORDON BARNETT PARK COMMUNITY CENTER","Address":"4801 W COLONIAL DR","City":"ORLANDO","Zip":"32808","COUNTY":"ORANGE","X":-81.442642289999995,"Y":28.560852879999999,"LONGLAT":"-81.44264229,28.56085288","USNG":"17R MM 56705 59413","OWNERSHIP":null,"PARCELID":null,"FACILITY_TYPE":"COMMUNITY CENTER"}},{"type":"Feature","id":41,"geometry":{"type":"Point","coordinates":[-80.805810570294909,28.474578328423945]},"properties":{"OBJECTID":41,"Name":"PORT SAINT JOHN COMMUNITY CENTER","Address":"6650 CORTO RD","City":"COCOA","Zip":" ","COUNTY":"BREVARD","X":-80.805810570000006,"Y":28.47457833,"LONGLAT":"-80.80581057,28.47457833","USNG":"17R NM 19008 49791","OWNERSHIP":null,"PARCELID":null,"FACILITY_TYPE":"COMMUNITY CENTER"}},{"type":"Feature","id":42,"geometry":{"type":"Point","coordinates":[-81.74802770050978,26.343309583284793]},"properties":{"OBJECTID":42,"Name":"BONITA SPRINGS YMCA ","Address":"27200 KENT RD","City":"BONITA SPRINGS","Zip":" ","COUNTY":"LEE","X":-81.748027699999994,"Y":26.34330958,"LONGLAT":"-81.74802770,26.34330958","USNG":"17R MK 25356 13920","OWNERSHIP":null,"PARCELID":null,"FACILITY_TYPE":"COMMUNITY CENTER"}},{"type":"Feature","id":43,"geometry":{"type":"Point","coordinates":[-81.633157302033183,29.771678330081322]},"properties":{"OBJECTID":43,"Name":"BOSTWICK COMMUNITY CENTER","Address":"125-2 TILLMAN ST","City":"BOSTWICK","Zip":"32007","COUNTY":"PUTNAM","X":-81.633157299999993,"Y":29.77167833,"LONGLAT":"-81.63315730,29.77167833","USNG":"17R MN 38793 93653","OWNERSHIP":null,"PARCELID":null,"FACILITY_TYPE":"COMMUNITY CENTER"}},{"type":"Feature","id":44,"geometry":{"type":"Point","coordinates":[-82.0791360682842,26.49602312614897]},"properties":{"OBJECTID":44,"Name":"ST. JAMES CITY CIVIC CENTER","Address":"3300 FOURTH AVE","City":"SAINT JAMES CITY","Zip":"33956","COUNTY":"LEE","X":-82.079136070000004,"Y":26.496023130000001,"LONGLAT":"-82.07913607,26.49602313","USNG":"17R LK 92456 31069","OWNERSHIP":null,"PARCELID":null,"FACILITY_TYPE":"COMMUNITY CENTER"}},{"type":"Feature","id":45,"geometry":{"type":"Point","coordinates":[-81.703609829576706,30.163861391915855]},"properties":{"OBJECTID":45,"Name":"ORANGE PARK SENIOR CENTER","Address":"414 STOWE AVE","City":"ORANGE PARK","Zip":"32073","COUNTY":"CLAY","X":-81.703609830000005,"Y":30.163861390000001,"LONGLAT":"-81.70360983,30.16386139","USNG":"17R MP 32249 37151","OWNERSHIP":"COUNTY","PARCELID":"41-04-26-018923-000-00","FACILITY_TYPE":"COMMUNITY CENTER"}},{"type":"Feature","id":46,"geometry":{"type":"Point","coordinates":[-80.185364969210397,26.243689193311546]},"properties":{"OBJECTID":46,"Name":"COCONUT CREEK COMMUNITY CENTER","Address":"1100 LYONS RD","City":"COCONUT CREEK","Zip":"33063","COUNTY":"BROWARD","X":-80.185364969999995,"Y":26.243689190000001,"LONGLAT":"-80.18536497,26.24368919","USNG":"17R NK 81359 02927","OWNERSHIP":"MUNICIPAL","PARCELID":"484231320010","FACILITY_TYPE":"COMMUNITY CENTER"}},{"type":"Feature","id":47,"geometry":{"type":"Point","coordinates":[-80.078874197186479,26.786318012329605]},"properties":{"OBJECTID":47,"Name":"LINDSEY DAVIS COMMUNITY CENTER","Address":"1550 W 28TH ST","City":"WEST PALM BEACH","Zip":" ","COUNTY":"PALM BEACH","X":-80.078874200000001,"Y":26.786318009999999,"LONGLAT":"-80.07887420,26.78631801","USNG":"17R NK 91564 63100","OWNERSHIP":null,"PARCELID":null,"FACILITY_TYPE":"COMMUNITY CENTER"}},{"type":"Feature","id":48,"geometry":{"type":"Point","coordinates":[-80.236665471623354,26.137436427355766]},"properties":{"OBJECTID":48,"Name":"JCC OF FORT LAUDERDALE","Address":"6501 W. SUNRISE BLVD.","City":"FT. LAUDERDALE","Zip":"33313","COUNTY":"BROWARD","X":-80.236665470000005,"Y":26.137436430000001,"LONGLAT":"-80.23666547,26.13743643","USNG":"17R NJ 76305 91128","OWNERSHIP":null,"PARCELID":null,"FACILITY_TYPE":"COMMUNITY CENTER"}},{"type":"Feature","id":49,"geometry":{"type":"Point","coordinates":[-87.048574500195244,30.639492286704527]},"properties":{"OBJECTID":49,"Name":"MILTON COMMUNITY CENTER","Address":"5629 BYROM ST","City":"MILTON","Zip":"32570","COUNTY":"SANTA ROSA","X":-87.048574500000001,"Y":30.63949229,"LONGLAT":"-87.04857450,30.63949229","USNG":"16R DU 95345 89650","OWNERSHIP":null,"PARCELID":null,"FACILITY_TYPE":"COMMUNITY CENTER"}},{"type":"Feature","id":50,"geometry":{"type":"Point","coordinates":[-85.194247494608604,30.062064491424458]},"properties":{"OBJECTID":50,"Name":"HONEYVILLE COMMUNITY CENTER","Address":"240 HONEYVILLE PARK DR","City":"WEWAHITCHKA","Zip":" ","COUNTY":"GULF","X":-85.194247489999995,"Y":30.062064490000001,"LONGLAT":"-85.19424749,30.06206449","USNG":"16R FU 74066 27036","OWNERSHIP":null,"PARCELID":null,"FACILITY_TYPE":"COMMUNITY CENTER"}},{"type":"Feature","id":51,"geometry":{"type":"Point","coordinates":[-82.105750520730723,28.668226668271018]},"properties":{"OBJECTID":51,"Name":"BUSHNELL COMMUNITY CENTER","Address":"407 E BELT AVE","City":"BUSHNELL","Zip":"33513","COUNTY":"SUMTER","X":-82.105750520000001,"Y":28.668226669999999,"LONGLAT":"-82.10575052,28.66822667","USNG":"17R LM 91954 71729","OWNERSHIP":null,"PARCELID":null,"FACILITY_TYPE":"COMMUNITY CENTER"}},{"type":"Feature","id":52,"geometry":{"type":"Point","coordinates":[-82.456724057169339,27.941963190320607]},"properties":{"OBJECTID":52,"Name":"TAMPA CONVENTION CENTER","Address":" ","City":"TAMPA","Zip":"33602","COUNTY":"HILLSBOROUGH","X":-82.456724059999999,"Y":27.941963189999999,"LONGLAT":"-82.45672406,27.94196319","USNG":"17R LL 56685 91627","OWNERSHIP":"MUNICIPAL","PARCELID":"1829244ZM000104000080A","FACILITY_TYPE":"COMMUNITY CENTER"}},{"type":"Feature","id":53,"geometry":{"type":"Point","coordinates":[-82.599486255856789,30.039987438672547]},"properties":{"OBJECTID":53,"Name":"MASON CITY COMMUNITY CENTER","Address":"11110 S US HWY 41","City":"LAKE CITY","Zip":" ","COUNTY":"COLUMBIA","X":-82.599486260000006,"Y":30.039987440000001,"LONGLAT":"-82.59948626,30.03998744","USNG":"17R LP 45785 24294","OWNERSHIP":null,"PARCELID":null,"FACILITY_TYPE":"COMMUNITY CENTER"}},{"type":"Feature","id":54,"geometry":{"type":"Point","coordinates":[-83.03710459969119,29.138207541580464]},"properties":{"OBJECTID":54,"Name":"CEDAR KEY COMMUNITY CENTER","Address":"809 6TH ST","City":"CEDAR KEY","Zip":" ","COUNTY":"LEVY","X":-83.037104600000006,"Y":29.13820754,"LONGLAT":"-83.03710460,29.13820754","USNG":"17R LN 01828 25013","OWNERSHIP":null,"PARCELID":null,"FACILITY_TYPE":"COMMUNITY CENTER"}},{"type":"Feature","id":55,"geometry":{"type":"Point","coordinates":[-80.812625296834184,27.250100026779073]},"properties":{"OBJECTID":55,"Name":"DOUGLAS BROWN COMMUNITY CENTER","Address":"627 NE 16TH AVE","City":"OKEECHOBEE","Zip":" ","COUNTY":"OKEECHOBEE","X":-80.812625299999993,"Y":27.250100029999999,"LONGLAT":"-80.81262530,27.25010003","USNG":"17R NL 18549 14150","OWNERSHIP":null,"PARCELID":null,"FACILITY_TYPE":"COMMUNITY CENTER"}},{"type":"Feature","id":56,"geometry":{"type":"Point","coordinates":[-81.023930033216729,29.124314518638503]},"properties":{"OBJECTID":56,"Name":"ALLEN GREEN CIVIC CENTER","Address":"4705 CLYDE MORRIS BLVD","City":"PORT ORANGE","Zip":" ","COUNTY":"VOLUSIA","X":-81.023930030000002,"Y":29.124314519999999,"LONGLAT":"-81.02393003,29.12431452","USNG":"17R MN 97672 21758","OWNERSHIP":null,"PARCELID":null,"FACILITY_TYPE":"COMMUNITY CENTER"}},{"type":"Feature","id":57,"geometry":{"type":"Point","coordinates":[-81.264671634744474,28.812936089220102]},"properties":{"OBJECTID":57,"Name":"SANFORD CIVIC CENTER","Address":"401 E SEMINOLE BLVD","City":"SANFORD","Zip":"32771","COUNTY":"SEMINOLE","X":-81.264671629999995,"Y":28.812936090000001,"LONGLAT":"-81.26467163,28.81293609","USNG":"17R MM 74174 87289","OWNERSHIP":null,"PARCELID":null,"FACILITY_TYPE":"COMMUNITY CENTER"}},{"type":"Feature","id":58,"geometry":{"type":"Point","coordinates":[-80.877664874373053,27.14419066657403]},"properties":{"OBJECTID":58,"Name":"BUCKHEAD RIDGE COMMUNITY CENTER","Address":"30076 E STATE ROAD 78","City":"BUCKHEAD RIDGE","Zip":"34974","COUNTY":"GLADES","X":-80.877664870000004,"Y":27.14419067,"LONGLAT":"-80.87766487,27.14419067","USNG":"17R NL 12121 02411","OWNERSHIP":null,"PARCELID":null,"FACILITY_TYPE":"COMMUNITY CENTER"}},{"type":"Feature","id":59,"geometry":{"type":"Point","coordinates":[-82.280459698941314,27.942055863779075]},"properties":{"OBJECTID":59,"Name":"BRANDON COMMUNITY CENTER","Address":"502 E SADIE ST","City":"BRANDON","Zip":"33510","COUNTY":"HILLSBOROUGH","X":-82.280459699999994,"Y":27.94205586,"LONGLAT":"-82.28045970,27.94205586","USNG":"17R LL 74028 91443","OWNERSHIP":null,"PARCELID":null,"FACILITY_TYPE":"COMMUNITY CENTER"}},{"type":"Feature","id":60,"geometry":{"type":"Point","coordinates":[-80.342568134569532,25.923907075477011]},"properties":{"OBJECTID":60,"Name":"ROYAL OAKS PARK COMMUNITY CENTER","Address":"16500 NW 87TH AVE","City":"MIAMI LAKES","Zip":"33018","COUNTY":"MIAMI-DADE","X":-80.342568130000004,"Y":25.923907079999999,"LONGLAT":"-80.34256813,25.92390708","USNG":"17R NJ 65837 67422","OWNERSHIP":null,"PARCELID":null,"FACILITY_TYPE":"COMMUNITY CENTER"}},{"type":"Feature","id":61,"geometry":{"type":"Point","coordinates":[-81.782843304047859,26.267290993485709]},"properties":{"OBJECTID":61,"Name":"VETERANS COMMUNITY PARK COMMUNITY CENTER","Address":"1895 VETERANS PARK DR","City":"NAPLES","Zip":" ","COUNTY":"COLLIER","X":-81.782843299999996,"Y":26.267290989999999,"LONGLAT":"-81.78284330,26.26729099","USNG":"17R MK 21831 05521","OWNERSHIP":null,"PARCELID":null,"FACILITY_TYPE":"COMMUNITY CENTER"}},{"type":"Feature","id":62,"geometry":{"type":"Point","coordinates":[-81.819959750673547,27.892916255638976]},"properties":{"OBJECTID":62,"Name":"CARVER RECREATION CENTER","Address":"700 OAKLAWN DR","City":"BARTOW","Zip":" ","COUNTY":"POLK","X":-81.819959749999995,"Y":27.89291626,"LONGLAT":"-81.81995975,27.89291626","USNG":"17R ML 19298 85610","OWNERSHIP":null,"PARCELID":null,"FACILITY_TYPE":"COMMUNITY CENTER"}},{"type":"Feature","id":63,"geometry":{"type":"Point","coordinates":[-82.511570000338054,27.958349999383994]},"properties":{"OBJECTID":63,"Name":"PHILLIS BUSANSKY SENIOR CENTER","Address":"4102 W SPRUCE ST","City":" ","Zip":" ","COUNTY":"HILLSBOROUGH","X":-82.511570000000006,"Y":27.958349999999999,"LONGLAT":"-82.51157000,27.95835000","USNG":"17R LL 51311 93508","OWNERSHIP":null,"PARCELID":null,"FACILITY_TYPE":"COMMUNITY CENTER"}},{"type":"Feature","id":64,"geometry":{"type":"Point","coordinates":[-80.230069995033944,26.704028735703815]},"properties":{"OBJECTID":64,"Name":"ROYAL PALM BEACH CULTURAL CENTER","Address":"151 CIVIC CENTER WAY","City":"WEST PALM BEACH","Zip":" ","COUNTY":"PALM BEACH","X":-80.230069999999998,"Y":26.704028739999998,"LONGLAT":"-80.23007000,26.70402874","USNG":"17R NK 76589 53885","OWNERSHIP":null,"PARCELID":null,"FACILITY_TYPE":"COMMUNITY CENTER"}},{"type":"Feature","id":65,"geometry":{"type":"Point","coordinates":[-81.467726316105171,29.98977574544897]},"properties":{"OBJECTID":65,"Name":"WORLD GOLF VILLAGE CONVENTION CENTER","Address":"500 S LEGACY TRL","City":"SAINT AUGUSTINE","Zip":"32092","COUNTY":"ST. JOHNS","X":-81.467726319999997,"Y":29.98977575,"LONGLAT":"-81.46772632,29.98977575","USNG":"17R MP 54884 17744","OWNERSHIP":"COUNTY","PARCELID":"0270100080","FACILITY_TYPE":"COMMUNITY CENTER"}},{"type":"Feature","id":66,"geometry":{"type":"Point","coordinates":[-82.561650356181815,27.514987294735558]},"properties":{"OBJECTID":66,"Name":"MANATEE COUNTY CONVENTION AND CIVIC CENTER","Address":"1 HABEN BLVD","City":"PALMETTO","Zip":"34221","COUNTY":"MANATEE","X":-82.561650360000002,"Y":27.514987300000001,"LONGLAT":"-82.56165036,27.51498730","USNG":"17R LL 45761 44448","OWNERSHIP":"COUNTY","PARCELID":"2604500005","FACILITY_TYPE":"COMMUNITY CENTER"}},{"type":"Feature","id":67,"geometry":{"type":"Point","coordinates":[-83.292071893589195,30.195714268207961]},"properties":{"OBJECTID":67,"Name":"DAY COMMUNITY CENTER","Address":"4673 N COUNTY ROAD 53","City":"DAY","Zip":"32013","COUNTY":"LAFAYETTE","X":-83.292071890000003,"Y":30.19571427,"LONGLAT":"-83.29207189,30.19571427","USNG":"17R KP 79340 42693","OWNERSHIP":"COUNTY","PARCELID":"2603100005001000010","FACILITY_TYPE":"COMMUNITY CENTER"}},{"type":"Feature","id":68,"geometry":{"type":"Point","coordinates":[-80.943710497326236,26.736510492726438]},"properties":{"OBJECTID":68,"Name":"HARLEM COMMUNITY CIVIC CENTER","Address":"2000 7TH ST","City":"CLEWISTON","Zip":"33440","COUNTY":"HENDRY","X":-80.943710499999995,"Y":26.736510490000001,"LONGLAT":"-80.94371050,26.73651049","USNG":"17R NK 05597 57253","OWNERSHIP":null,"PARCELID":null,"FACILITY_TYPE":"COMMUNITY CENTER"}},{"type":"Feature","id":69,"geometry":{"type":"Point","coordinates":[-86.134410642258601,30.498214359836034]},"properties":{"OBJECTID":69,"Name":"FREEPORT COMMUNITY CENTER","Address":"120 HWY 20 W","City":"FREEPORT","Zip":"32439","COUNTY":"WALTON","X":-86.134410639999999,"Y":30.498214359999999,"LONGLAT":"-86.13441064,30.49821436","USNG":"16R EU 83065 74312","OWNERSHIP":null,"PARCELID":null,"FACILITY_TYPE":"COMMUNITY CENTER"}},{"type":"Feature","id":70,"geometry":{"type":"Point","coordinates":[-82.376133256135958,28.909268772456471]},"properties":{"OBJECTID":70,"Name":"V.F.W. - LEROY ROKKS","Address":"3190 N CARL G ROSE HWY","City":"HERNANDO","Zip":"34442","COUNTY":"CITRUS","X":-82.376133260000003,"Y":28.909268770000001,"LONGLAT":"-82.37613326,28.90926877","USNG":"17R LM 65840 98712","OWNERSHIP":null,"PARCELID":null,"FACILITY_TYPE":"COMMUNITY CENTER"}},{"type":"Feature","id":71,"geometry":{"type":"Point","coordinates":[-82.239413831094566,30.061661612550612]},"properties":{"OBJECTID":71,"Name":"RAIFORD COMMUNITY CENTER","Address":"N COUNTY ROAD 121 & WHITTEN ST","City":"RAIFORD","Zip":"32083","COUNTY":"UNION","X":-82.239413830000004,"Y":30.061661610000002,"LONGLAT":"-82.23941383,30.06166161","USNG":"17R LP 80530 26265","OWNERSHIP":"MUNICIPAL","PARCELID":"18-05-21-00-000-0780-0","FACILITY_TYPE":"COMMUNITY CENTER"}},{"type":"Feature","id":72,"geometry":{"type":"Point","coordinates":[-81.359660368993502,28.285484691087806]},"properties":{"OBJECTID":72,"Name":"BARNEY E. VEAL CENTER","Address":"700 GENERATION POINT","City":"KISSIMMEE","Zip":"34744","COUNTY":"OSCEOLA","X":-81.35966037,"Y":28.285484690000001,"LONGLAT":"-81.35966037,28.28548469","USNG":"17R MM 64730 28880","OWNERSHIP":null,"PARCELID":null,"FACILITY_TYPE":"COMMUNITY CENTER"}},{"type":"Feature","id":73,"geometry":{"type":"Point","coordinates":[-82.569541270874012,27.483808874573878]},"properties":{"OBJECTID":73,"Name":"ONE STOP RESOURCE CENTER","Address":"701 17TH AVE. W","City":"BRADENTON","Zip":"34205","COUNTY":"MANATEE","X":-82.569541270000002,"Y":27.483808880000002,"LONGLAT":"-82.56954127,27.48380888","USNG":"17R LL 44938 41003","OWNERSHIP":null,"PARCELID":"4500810009","FACILITY_TYPE":"COMMUNITY CENTER"}},{"type":"Feature","id":74,"geometry":{"type":"Point","coordinates":[-80.24158701045279,27.189749832742624]},"properties":{"OBJECTID":74,"Name":"TENTH STREET RECREATION CENTER","Address":"724 E 10TH ST","City":"STUART","Zip":" ","COUNTY":"MARTIN","X":-80.241587010000003,"Y":27.18974983,"LONGLAT":"-80.24158701,27.18974983","USNG":"17R NL 75120 07679","OWNERSHIP":null,"PARCELID":null,"FACILITY_TYPE":"COMMUNITY CENTER"}},{"type":"Feature","id":75,"geometry":{"type":"Point","coordinates":[-81.702791892679457,26.184239684638662]},"properties":{"OBJECTID":75,"Name":"GOLDEN GATE COMMUNITY CENTER","Address":"4701 GOLDEN GATE PARKWAY","City":"NAPLES","Zip":"34116","COUNTY":"COLLIER","X":-81.70279189,"Y":26.184239689999998,"LONGLAT":"-81.70279189,26.18423969","USNG":"17R MJ 29775 96277","OWNERSHIP":null,"PARCELID":null,"FACILITY_TYPE":"COMMUNITY CENTER"}},{"type":"Feature","id":76,"geometry":{"type":"Point","coordinates":[-81.975663661481121,27.96806046259896]},"properties":{"OBJECTID":76,"Name":"MEDULLA COMMUNITY CENTER","Address":"1049 PARKER RD","City":"LAKELAND","Zip":"33801","COUNTY":"POLK","X":-81.975663659999995,"Y":27.96806046,"LONGLAT":"-81.97566366,27.96806046","USNG":"17R ML 04039 94047","OWNERSHIP":null,"PARCELID":null,"FACILITY_TYPE":"COMMUNITY CENTER"}},{"type":"Feature","id":77,"geometry":{"type":"Point","coordinates":[-81.468465454273513,28.42399392744365]},"properties":{"OBJECTID":77,"Name":"DAYS INN ORLANDO CONVENTION CENTER","Address":"9800 INTERNATIONAL DR","City":"ORLANDO","Zip":"32819","COUNTY":"ORANGE","X":-81.468465449999997,"Y":28.423993930000002,"LONGLAT":"-81.46846545,28.42399393","USNG":"17R MM 54120 44261","OWNERSHIP":"COUNTY","PARCELID":"282401715001000","FACILITY_TYPE":"COMMUNITY CENTER"}},{"type":"Feature","id":78,"geometry":{"type":"Point","coordinates":[-81.083652916102722,28.134344477638852]},"properties":{"OBJECTID":78,"Name":"HOLOPAW HOA COMMUNITY CENTER","Address":"8801 COMMUNITY CENTER RD","City":"SAINT CLOUD","Zip":"34773","COUNTY":"OSCEOLA","X":-81.083652920000006,"Y":28.134344479999999,"LONGLAT":"-81.08365292,28.13434448","USNG":"17R MM 91785 12087","OWNERSHIP":"COUNTY","PARCELID":"14-27-32-0000-0117-0000","FACILITY_TYPE":"COMMUNITY CENTER"}},{"type":"Feature","id":79,"geometry":{"type":"Point","coordinates":[-81.507921341867998,29.712714044984597]},"properties":{"OBJECTID":79,"Name":"HASTINGS COMMUNITY CENTER","Address":"6150 S MAIN ST","City":"HASTINGS","Zip":" ","COUNTY":"ST. JOHNS","X":-81.507921339999996,"Y":29.712714049999999,"LONGLAT":"-81.50792134,29.71271405","USNG":"17R MN 50871 87060","OWNERSHIP":null,"PARCELID":null,"FACILITY_TYPE":"COMMUNITY CENTER"}},{"type":"Feature","id":80,"geometry":{"type":"Point","coordinates":[-85.515090756163914,30.948207540713131]},"properties":{"OBJECTID":80,"Name":"GRACEVILLE CIVIC CENTER","Address":"5224 BROWN ST","City":"GRACEVILLE","Zip":"32440","COUNTY":"JACKSON","X":-85.515090760000007,"Y":30.948207539999999,"LONGLAT":"-85.51509076,30.94820754","USNG":"16R FV 41842 24807","OWNERSHIP":null,"PARCELID":null,"FACILITY_TYPE":"COMMUNITY CENTER"}},{"type":"Feature","id":81,"geometry":{"type":"Point","coordinates":[-82.322416080527901,28.50984361174412]},"properties":{"OBJECTID":81,"Name":"ARC NATURE COAST EDUCATION CENTER","Address":"5283 NEFF LAKE RD","City":"BROOKSVILLE","Zip":" ","COUNTY":"HERNANDO","X":-82.322416079999996,"Y":28.509843610000001,"LONGLAT":"-82.32241608,28.50984361","USNG":"17R LM 70587 54395","OWNERSHIP":null,"PARCELID":null,"FACILITY_TYPE":"COMMUNITY CENTER"}},{"type":"Feature","id":82,"geometry":{"type":"Point","coordinates":[-81.997223710286391,28.648451696831]},"properties":{"OBJECTID":82,"Name":"CENTER HILL COMMUNITY CENTER","Address":"74 S VIRGINIA AVE","City":"CENTER HILL","Zip":" ","COUNTY":"SUMTER","X":-81.99722371,"Y":28.648451699999999,"LONGLAT":"-81.99722371,28.64845170","USNG":"17R MM 02540 69444","OWNERSHIP":null,"PARCELID":null,"FACILITY_TYPE":"COMMUNITY CENTER"}},{"type":"Feature","id":83,"geometry":{"type":"Point","coordinates":[-87.177592429963809,30.354778388046331]},"properties":{"OBJECTID":83,"Name":"GULF BREEZE RECREATION CENTER","Address":"800 SHORELINE DR","City":"GULF BREEZE","Zip":"32561","COUNTY":"SANTA ROSA","X":-87.177592430000004,"Y":30.35477839,"LONGLAT":"-87.17759243,30.35477839","USNG":"16R DU 82932 58112","OWNERSHIP":"MUNICIPAL","PARCELID":"09-3S-29-0000-00200-0000","FACILITY_TYPE":"COMMUNITY CENTER"}},{"type":"Feature","id":84,"geometry":{"type":"Point","coordinates":[-80.158433770265276,25.993665021747297]},"properties":{"OBJECTID":84,"Name":"AUSTIN HEPBURN COMMUNITY CENTER","Address":"750 NW 8TH AVE","City":"HALLANDALE","Zip":"33009","COUNTY":"BROWARD","X":-80.158433770000002,"Y":25.993665020000002,"LONGLAT":"-80.15843377,25.99366502","USNG":"17R NJ 84228 75253","OWNERSHIP":null,"PARCELID":null,"FACILITY_TYPE":"COMMUNITY CENTER"}},{"type":"Feature","id":85,"geometry":{"type":"Point","coordinates":[-80.564157978735494,28.067990511766361]},"properties":{"OBJECTID":85,"Name":"MELBOURNE BEACH COMMUNITY CENTER","Address":"507 OCEAN AVE","City":"MELBOURNE BEACH","Zip":"32951","COUNTY":"BREVARD","X":-80.564157980000004,"Y":28.067990510000001,"LONGLAT":"-80.56415798,28.06799051","USNG":"17R NM 42826 04810","OWNERSHIP":null,"PARCELID":null,"FACILITY_TYPE":"COMMUNITY CENTER"}},{"type":"Feature","id":86,"geometry":{"type":"Point","coordinates":[-81.498068328525846,27.510442173348803]},"properties":{"OBJECTID":86,"Name":"SEBRING COUNTRY ESTATES CIVIC ASSOCIATION","Address":"3240 GRAND PRIX DR","City":"SEBRING","Zip":" ","COUNTY":"HIGHLANDS","X":-81.498068329999995,"Y":27.510442170000001,"LONGLAT":"-81.49806833,27.51044217","USNG":"17R ML 50808 43072","OWNERSHIP":null,"PARCELID":null,"FACILITY_TYPE":"COMMUNITY CENTER"}},{"type":"Feature","id":87,"geometry":{"type":"Point","coordinates":[-84.270671295317044,30.407730471351879]},"properties":{"OBJECTID":87,"Name":"JACK L. MCLEAN JR COMMUNITY CENTER","Address":"700 PAUL RUSSELL RD","City":"TALLAHASSEE","Zip":" ","COUNTY":"LEON","X":-84.270671300000004,"Y":30.407730470000001,"LONGLAT":"-84.27067130,30.40773047","USNG":"16R GU 62203 67129","OWNERSHIP":null,"PARCELID":null,"FACILITY_TYPE":"COMMUNITY CENTER"}},{"type":"Feature","id":88,"geometry":{"type":"Point","coordinates":[-81.672555587371576,30.327692000107316]},"properties":{"OBJECTID":88,"Name":"PRIME OSBOURNE CONVENTION CENTER","Address":"1000 WATER ST","City":"JACKSONVILLE","Zip":"32204","COUNTY":"DUVAL","X":-81.672555590000002,"Y":30.327691999999999,"LONGLAT":"-81.67255559,30.32769200","USNG":"17R MP 35347 55288","OWNERSHIP":null,"PARCELID":null,"FACILITY_TYPE":"COMMUNITY CENTER"}},{"type":"Feature","id":89,"geometry":{"type":"Point","coordinates":[-82.773065638813563,28.036454724496984]},"properties":{"OBJECTID":89,"Name":"DUNEDIN COMMUNITY CENTER","Address":"1940 ED ECKERT DR","City":"DUNEDIN","Zip":"34698","COUNTY":"PINELLAS","X":-82.773065639999999,"Y":28.036454729999999,"LONGLAT":"-82.77306564,28.03645473","USNG":"17R LM 25710 02508","OWNERSHIP":null,"PARCELID":null,"FACILITY_TYPE":"COMMUNITY CENTER"}},{"type":"Feature","id":90,"geometry":{"type":"Point","coordinates":[-82.6469028944488,30.170339991041256]},"properties":{"OBJECTID":90,"Name":"SOUTHSIDE COMMUNITY CENTER","Address":"527 SAINT MARGARETS ST SW","City":"LAKE CITY","Zip":" ","COUNTY":"COLUMBIA","X":-82.646902890000007,"Y":30.170339989999999,"LONGLAT":"-82.64690289,30.17033999","USNG":"17R LP 41421 38806","OWNERSHIP":null,"PARCELID":null,"FACILITY_TYPE":"COMMUNITY CENTER"}},{"type":"Feature","id":91,"geometry":{"type":"Point","coordinates":[-80.838767961207552,28.621218637658945]},"properties":{"OBJECTID":91,"Name":"SANDRIFT RECREATION CENTER","Address":"585 N SINGLETON AVE","City":"TITUSVILLE","Zip":" ","COUNTY":"BREVARD","X":-80.838767959999998,"Y":28.621218639999999,"LONGLAT":"-80.83876796,28.62121864","USNG":"17R NM 15760 66031","OWNERSHIP":null,"PARCELID":null,"FACILITY_TYPE":"COMMUNITY CENTER"}},{"type":"Feature","id":92,"geometry":{"type":"Point","coordinates":[-84.37778456236839,30.193936842283915]},"properties":{"OBJECTID":92,"Name":"WAKULLA SENIOR CITIZENS CENTER","Address":"33 MICHAEL DR","City":"CRAWFORDVILLE","Zip":"32327","COUNTY":"WAKULLA","X":-84.377784559999995,"Y":30.193936839999999,"LONGLAT":"-84.37778456,30.19393684","USNG":"16R GU 52457 43182","OWNERSHIP":null,"PARCELID":null,"FACILITY_TYPE":"COMMUNITY CENTER"}},{"type":"Feature","id":93,"geometry":{"type":"Point","coordinates":[-81.334251670935842,29.34295376263114]},"properties":{"OBJECTID":93,"Name":"HAW CREEK COMMUNITY CENTER","Address":"9257  COUNTY RD 304","City":"BUNNELL","Zip":"32110","COUNTY":"FLAGLER","X":-81.33425167,"Y":29.34295376,"LONGLAT":"-81.33425167,29.34295376","USNG":"17R MN 67551 46029","OWNERSHIP":null,"PARCELID":null,"FACILITY_TYPE":"COMMUNITY CENTER"}},{"type":"Feature","id":94,"geometry":{"type":"Point","coordinates":[-80.309907037788633,25.778563712883283]},"properties":{"OBJECTID":94,"Name":"RADISSON MART CONVENTION CENTER","Address":"711 NW 72ND AVE","City":"MIAMI","Zip":"33126","COUNTY":"MIAMI-DADE","X":-80.309907039999999,"Y":25.77856371,"LONGLAT":"-80.30990704,25.77856371","USNG":"17R NJ 69192 51342","OWNERSHIP":null,"PARCELID":null,"FACILITY_TYPE":"COMMUNITY CENTER"}},{"type":"Feature","id":95,"geometry":{"type":"Point","coordinates":[-80.132390149577375,25.786211209142884]},"properties":{"OBJECTID":95,"Name":"Miami Beach Adult & Community Education Center","Address":"1420 WASHINGTON AVE","City":"MIAMI BEACH","Zip":"33139","COUNTY":"MIAMI-DADE","X":-80.132390150000006,"Y":25.786211210000001,"LONGLAT":"-80.13239015,25.78621121","USNG":"17R NJ 86987 52294","OWNERSHIP":"COUNTY","PARCELID":"0242030090010","FACILITY_TYPE":"COMMUNITY CENTER"}},{"type":"Feature","id":96,"geometry":{"type":"Point","coordinates":[-87.32515293152521,30.656061552316167]},"properties":{"OBJECTID":96,"Name":"QUINTETTE COMMUNITY CENTER","Address":"2490 QUINTETTE LN","City":"CANTONMENT","Zip":"32533","COUNTY":"ESCAMBIA","X":-87.325152930000002,"Y":30.65606155,"LONGLAT":"-87.32515293,30.65606155","USNG":"16R DU 68848 91531","OWNERSHIP":null,"PARCELID":null,"FACILITY_TYPE":"COMMUNITY CENTER"}},{"type":"Feature","id":97,"geometry":{"type":"Point","coordinates":[-80.604692343366082,28.184041065808756]},"properties":{"OBJECTID":97,"Name":"DAVID SCHECHTER COMMUNITY CENTER","Address":"1089 SOUTH PATRICK DR","City":"SATELLITE BEACH","Zip":"32937","COUNTY":"BREVARD","X":-80.60469234,"Y":28.184041069999999,"LONGLAT":"-80.60469234,28.18404107","USNG":"17R NM 38801 17653","OWNERSHIP":null,"PARCELID":null,"FACILITY_TYPE":"COMMUNITY CENTER"}},{"type":"Feature","id":98,"geometry":{"type":"Point","coordinates":[-80.73810320086487,28.332487016515632]},"properties":{"OBJECTID":98,"Name":"MCLARTY PARK","Address":"790 BARTON BLVD","City":"ROCKLEDGE","Zip":" ","COUNTY":"BREVARD","X":-80.738103199999998,"Y":28.332487019999999,"LONGLAT":"-80.73810320,28.33248702","USNG":"17R NM 25670 34062","OWNERSHIP":null,"PARCELID":null,"FACILITY_TYPE":"COMMUNITY CENTER"}},{"type":"Feature","id":99,"geometry":{"type":"Point","coordinates":[-87.230844524895019,30.421663677203693]},"properties":{"OBJECTID":99,"Name":"FRICKER COMMUNITY CENTER","Address":"900 N F ST","City":"PENSACOLA","Zip":"32507","COUNTY":"ESCAMBIA","X":-87.230844520000005,"Y":30.421663680000002,"LONGLAT":"-87.23084452,30.42166368","USNG":"16R DU 77830 65533","OWNERSHIP":null,"PARCELID":null,"FACILITY_TYPE":"COMMUNITY CENTER"}},{"type":"Feature","id":100,"geometry":{"type":"Point","coordinates":[-81.469790343463856,28.566266762226771]},"properties":{"OBJECTID":100,"Name":"PINE HILLS COMM CENTER","Address":"6408 JENNINGS RD","City":"ORLANDO","Zip":"32808","COUNTY":"ORANGE","X":null,"Y":null,"LONGLAT":null,"USNG":null,"OWNERSHIP":null,"PARCELID":null,"FACILITY_TYPE":"COMMUNITY CENTER"}},{"type":"Feature","id":101,"geometry":{"type":"Point","coordinates":[-80.374059719245679,25.665498078970277]},"properties":{"OBJECTID":101,"Name":"DAVE AND MARY ALPER JEWISH COMMUNITY CENTER","Address":"11155 SW 112 AVENUE","City":"MIAMI","Zip":"33176","COUNTY":"MIAMI-DADE","X":-80.374059720000005,"Y":25.665498079999999,"LONGLAT":"-80.37405972,25.66549808","USNG":"17R NJ 62819 38789","OWNERSHIP":null,"PARCELID":null,"FACILITY_TYPE":"COMMUNITY CENTER"}},{"type":"Feature","id":102,"geometry":{"type":"Point","coordinates":[-80.264269003827124,27.171750759696057]},"properties":{"OBJECTID":102,"Name":"LEIGHTON PARK RECREATION CENTER","Address":"2701 SW CORNELL AVE","City":"PALM CITY","Zip":" ","COUNTY":"MARTIN","X":-80.264268999999999,"Y":27.171750759999998,"LONGLAT":"-80.26426900,27.17175076","USNG":"17R NL 72885 05672","OWNERSHIP":null,"PARCELID":null,"FACILITY_TYPE":"COMMUNITY CENTER"}},{"type":"Feature","id":103,"geometry":{"type":"Point","coordinates":[-80.323593337463066,27.454059650615413]},"properties":{"OBJECTID":103,"Name":"FORT PIERCE COMMUNITY CENTER","Address":"700 N INDIAN RIVER DRIVE","City":"FORT PIERCE","Zip":"34945","COUNTY":"ST. LUCIE","X":-80.323593340000002,"Y":27.454059650000001,"LONGLAT":"-80.32359334,27.45405965","USNG":"17R NL 66839 36910","OWNERSHIP":null,"PARCELID":null,"FACILITY_TYPE":"COMMUNITY CENTER"}},{"type":"Feature","id":104,"geometry":{"type":"Point","coordinates":[-80.731655688192276,28.009248834684609]},"properties":{"OBJECTID":104,"Name":"PALM BAY REGIONAL PARK COMMUNITY CENTER","Address":"1951 NW MALABAR RD","City":"PALM BAY","Zip":"32907","COUNTY":"BREVARD","X":-80.731655689999997,"Y":28.009248840000001,"LONGLAT":"-80.73165569,28.00924884","USNG":"17R NL 26382 98255","OWNERSHIP":"MUNICIPAL","PARCELID":null,"FACILITY_TYPE":"COMMUNITY CENTER"}},{"type":"Feature","id":105,"geometry":{"type":"Point","coordinates":[-81.78653668075161,26.348573274475655]},"properties":{"OBJECTID":105,"Name":"BONITA SPRINGS RECREATIONAL CENTER","Address":"26740 PINE AVE","City":"BONITA SPRINGS","Zip":" ","COUNTY":"LEE","X":-81.786536679999998,"Y":26.34857328,"LONGLAT":"-81.78653668,26.34857328","USNG":"17R MK 21517 14526","OWNERSHIP":null,"PARCELID":null,"FACILITY_TYPE":"COMMUNITY CENTER"}},{"type":"Feature","id":106,"geometry":{"type":"Point","coordinates":[-81.308579189486451,26.943308701040209]},"properties":{"OBJECTID":106,"Name":"PALMDALE COMMUNITY CENTER","Address":"489 MAIN AVE ","City":"MOORE HAVEN","Zip":"33471","COUNTY":"GLADES","X":-81.308579190000003,"Y":26.943308699999999,"LONGLAT":"-81.30857919,26.94330870","USNG":"17R MK 69368 80193","OWNERSHIP":"COUNTY","PARCELID":"A27-42-32-A00-0020-0000","FACILITY_TYPE":"COMMUNITY CENTER"}},{"type":"Feature","id":107,"geometry":{"type":"Point","coordinates":[-81.863021957205163,30.070912272964382]},"properties":{"OBJECTID":107,"Name":"WEIGEL SENIOR CENTER","Address":"3916 SECTION ST","City":"MIDDLEBURG","Zip":"32068","COUNTY":"CLAY","X":-81.863021959999998,"Y":30.070912270000001,"LONGLAT":"-81.86302196,30.07091227","USNG":"17R MP 16821 26956","OWNERSHIP":"COUNTY","PARCELID":"11-05-24-006102-000-00","FACILITY_TYPE":"COMMUNITY CENTER"}},{"type":"Feature","id":108,"geometry":{"type":"Point","coordinates":[-80.071914406592398,26.832688319457599]},"properties":{"OBJECTID":108,"Name":"NORTH PALM BEACH COMMUNITY CENTER","Address":"1200 PROSPERITY FARMS ROAD","City":"NORTH PALM BEACH","Zip":"33408","COUNTY":"PALM BEACH","X":-80.071914410000005,"Y":26.832688319999999,"LONGLAT":"-80.07191441,26.83268832","USNG":"17R NK 92218 68241","OWNERSHIP":null,"PARCELID":null,"FACILITY_TYPE":"COMMUNITY CENTER"}},{"type":"Feature","id":109,"geometry":{"type":"Point","coordinates":[-80.222555355856215,26.066871021219008]},"properties":{"OBJECTID":109,"Name":"POLICE ATHLETIC LEAGUE","Address":"4300 SW 57TH TER","City":"FORT LAUDERDALE","Zip":" ","COUNTY":"BROWARD","X":-80.222555360000001,"Y":26.066871020000001,"LONGLAT":"-80.22255536,26.06687102","USNG":"17R NJ 77762 83321","OWNERSHIP":null,"PARCELID":null,"FACILITY_TYPE":"COMMUNITY CENTER"}},{"type":"Feature","id":110,"geometry":{"type":"Point","coordinates":[-80.332082678598226,25.911470240668553]},"properties":{"OBJECTID":110,"Name":"MIAMI LAKES COMMUNITY CENTER","Address":"15151 NW 82ND AVE","City":"MIAMI LAKES","Zip":"33016","COUNTY":"MIAMI-DADE","X":-80.332082679999999,"Y":25.91147024,"LONGLAT":"-80.33208268,25.91147024","USNG":"17R NJ 66894 66050","OWNERSHIP":null,"PARCELID":null,"FACILITY_TYPE":"COMMUNITY CENTER"}},{"type":"Feature","id":111,"geometry":{"type":"Point","coordinates":[-82.580550609934022,28.003286031562087]},"properties":{"OBJECTID":111,"Name":"JACKSON SPRINGS RECREATIONAL CENTER","Address":"8620 JACKSON SPRINGS ROAD","City":"TAMPA","Zip":"33615","COUNTY":"HILLSBOROUGH","X":-82.580550610000003,"Y":28.003286030000002,"LONGLAT":"-82.58055061,28.00328603","USNG":"17R LL 44589 98572","OWNERSHIP":null,"PARCELID":null,"FACILITY_TYPE":"COMMUNITY CENTER"}},{"type":"Feature","id":112,"geometry":{"type":"Point","coordinates":[-82.921886546483151,29.958761785229417]},"properties":{"OBJECTID":112,"Name":"BRANFORD COMMUNITY CENTER","Address":"403 SE CRAVEN ST","City":"BRANFORD","Zip":"32008","COUNTY":"SUWANNEE","X":-82.921886549999996,"Y":29.958761790000001,"LONGLAT":"-82.92188655,29.95876179","USNG":"17R LP 14544 15769","OWNERSHIP":null,"PARCELID":null,"FACILITY_TYPE":"COMMUNITY CENTER"}},{"type":"Feature","id":113,"geometry":{"type":"Point","coordinates":[-81.007558388076134,29.173499518402931]},"properties":{"OBJECTID":113,"Name":"PIGGOTTE COMMUNITY CENTER","Address":"504 BIG TREE RD","City":"DAYTONA BEACH","Zip":" ","COUNTY":"VOLUSIA","X":-81.00755839,"Y":29.17349952,"LONGLAT":"-81.00755839,29.17349952","USNG":"17R MN 99265 27208","OWNERSHIP":null,"PARCELID":null,"FACILITY_TYPE":"COMMUNITY CENTER"}},{"type":"Feature","id":114,"geometry":{"type":"Point","coordinates":[-81.68164921038202,29.993194607342566]},"properties":{"OBJECTID":114,"Name":"CLAY COUNTY SENIOR CENTER","Address":"604 WALNUT ST","City":"GREEN COVE SPRINGS","Zip":"32043","COUNTY":"CLAY","X":-81.681649210000003,"Y":29.99319461,"LONGLAT":"-81.68164921,29.99319461","USNG":"17R MP 34251 18226","OWNERSHIP":"COUNTY","PARCELID":"38-06-26-017342-000-00","FACILITY_TYPE":"COMMUNITY CENTER"}},{"type":"Feature","id":115,"geometry":{"type":"Point","coordinates":[-80.671259363031538,28.060185196886593]},"properties":{"OBJECTID":115,"Name":"MAX K RODES COMMUNITY CENTER","Address":"3410 FLANAGAN AVE","City":"WEST MELBOURNE","Zip":"32904","COUNTY":"BREVARD","X":-80.671259359999993,"Y":28.060185199999999,"LONGLAT":"-80.67125936,28.06018520","USNG":"17R NM 32304 03913","OWNERSHIP":null,"PARCELID":null,"FACILITY_TYPE":"COMMUNITY CENTER"}},{"type":"Feature","id":116,"geometry":{"type":"Point","coordinates":[-87.274436969298606,30.970722235491412]},"properties":{"OBJECTID":116,"Name":"CENTURY COMMUNITY CENTER","Address":"6001 A INDUSTRIAL BLVD","City":"CENTURY","Zip":"32535","COUNTY":"ESCAMBIA","X":-87.274436969999996,"Y":30.970722240000001,"LONGLAT":"-87.27443697,30.97072224","USNG":"16R DV 73792 26389","OWNERSHIP":null,"PARCELID":null,"FACILITY_TYPE":"COMMUNITY CENTER"}},{"type":"Feature","id":117,"geometry":{"type":"Point","coordinates":[-80.07504188958346,26.771872765431361]},"properties":{"OBJECTID":117,"Name":"TATE RECREATION CENTER","Address":"1420 W 10TH ST","City":"WEST PALM BEACH","Zip":" ","COUNTY":"PALM BEACH","X":-80.075041889999994,"Y":26.771872770000002,"LONGLAT":"-80.07504189,26.77187277","USNG":"17R NK 91956 61502","OWNERSHIP":null,"PARCELID":null,"FACILITY_TYPE":"COMMUNITY CENTER"}},{"type":"Feature","id":118,"geometry":{"type":"Point","coordinates":[-82.307974385480165,29.661268311809522]},"properties":{"OBJECTID":118,"Name":"MARTIN LUTHER KING CENTER","Address":"1028 NE 14TH ST","City":"GAINESVILLE","Zip":" ","COUNTY":"ALACHUA","X":-82.307974389999998,"Y":29.661268310000001,"LONGLAT":"-82.30797439,29.66126831","USNG":"17R LN 73417 81967","OWNERSHIP":null,"PARCELID":null,"FACILITY_TYPE":"COMMUNITY CENTER"}},{"type":"Feature","id":119,"geometry":{"type":"Point","coordinates":[-80.484452605648741,25.763425226867508]},"properties":{"OBJECTID":119,"Name":"MICCOSKEE RESORT CONVENTION CENTER","Address":"500 SW 177TH AVE","City":"MIAMI","Zip":"33194","COUNTY":"MIAMI-DADE","X":-80.484452610000005,"Y":25.763425229999999,"LONGLAT":"-80.48445261,25.76342523","USNG":"17R NJ 51698 49586","OWNERSHIP":null,"PARCELID":null,"FACILITY_TYPE":"COMMUNITY CENTER"}},{"type":"Feature","id":120,"geometry":{"type":"Point","coordinates":[-87.357428049998887,30.503114889522262]},"properties":{"OBJECTID":120,"Name":"BEULAH SENIOR CITIZEN CENTER","Address":"7425 WOODSIDE RD","City":"PENSACOLA","Zip":"32526","COUNTY":"ESCAMBIA","X":-87.357428049999996,"Y":30.503114889999999,"LONGLAT":"-87.35742805,30.50311489","USNG":"16R DU 65702 74591","OWNERSHIP":null,"PARCELID":null,"FACILITY_TYPE":"COMMUNITY CENTER"}},{"type":"Feature","id":121,"geometry":{"type":"Point","coordinates":[-80.06452981016092,26.782282826860278]},"properties":{"OBJECTID":121,"Name":"WELLS RECREATION CENTER","Address":"2409 W AVENUE H","City":"WEST PALM BEACH","Zip":" ","COUNTY":"PALM BEACH","X":-80.064529809999996,"Y":26.78228283,"LONGLAT":"-80.06452981,26.78228283","USNG":"17R NK 92993 62663","OWNERSHIP":null,"PARCELID":null,"FACILITY_TYPE":"COMMUNITY CENTER"}},{"type":"Feature","id":122,"geometry":{"type":"Point","coordinates":[-82.301877820118889,27.708870899034611]},"properties":{"OBJECTID":122,"Name":"WIMAUMA CIVIC CENTER","Address":"5705 HILLSBOROUGH ST","City":"WIMAUMA","Zip":" ","COUNTY":"HILLSBOROUGH","X":-82.301877820000001,"Y":27.708870900000001,"LONGLAT":"-82.30187782,27.70887090","USNG":"17R LL 71647 65631","OWNERSHIP":null,"PARCELID":null,"FACILITY_TYPE":"COMMUNITY CENTER"}},{"type":"Feature","id":123,"geometry":{"type":"Point","coordinates":[-81.202353648018772,28.565590089634377]},"properties":{"OBJECTID":123,"Name":"EAST ORANGE COMMUNITY CENTER","Address":"12050 E COLONIAL DR","City":"ORLANDO","Zip":" ","COUNTY":"ORANGE","X":-81.202353650000006,"Y":28.565590090000001,"LONGLAT":"-81.20235365,28.56559009","USNG":"17R MM 80208 59874","OWNERSHIP":null,"PARCELID":null,"FACILITY_TYPE":"COMMUNITY CENTER"}},{"type":"Feature","id":124,"geometry":{"type":"Point","coordinates":[-86.135157196636044,30.970607415004554]},"properties":{"OBJECTID":124,"Name":"NATURAL BRIDGE LODGE #106","Address":"17398 STATE ROAD 83","City":"DEFUNIAK SPRINGS","Zip":"32433","COUNTY":"WALTON","X":-86.135157199999995,"Y":30.97060742,"LONGLAT":"-86.13515720,30.97060742","USNG":"16R EV 82589 26665","OWNERSHIP":null,"PARCELID":"33-6N-19-22010-00M-0090","FACILITY_TYPE":"COMMUNITY CENTER"}},{"type":"Feature","id":125,"geometry":{"type":"Point","coordinates":[-82.79652381530309,27.855899527443025]},"properties":{"OBJECTID":125,"Name":"SEMINOLE RECREATION  CENTER","Address":"9100 113TH ST N","City":"SEMINOLE","Zip":" ","COUNTY":"PINELLAS","X":-82.796523820000004,"Y":27.855899529999999,"LONGLAT":"-82.79652382,27.85589953","USNG":"17R LL 23110 82535","OWNERSHIP":null,"PARCELID":null,"FACILITY_TYPE":"COMMUNITY CENTER"}},{"type":"Feature","id":126,"geometry":{"type":"Point","coordinates":[-80.121976430792685,25.881687589815161]},"properties":{"OBJECTID":126,"Name":"Surfside Community Center","Address":"9301 COLLINS AVE","City":"MIAMI BEACH","Zip":"33154","COUNTY":"MIAMI-DADE","X":-80.121976430000004,"Y":25.881687589999999,"LONGLAT":"-80.12197643,25.88168759","USNG":"17R NJ 87960 62875","OWNERSHIP":"MUNICIPAL","PARCELID":"1422350080010","FACILITY_TYPE":"COMMUNITY CENTER"}},{"type":"Feature","id":127,"geometry":{"type":"Point","coordinates":[-81.41836139786767,26.423099060443338]},"properties":{"OBJECTID":127,"Name":"IMMOKALEE COMMUNITY CENTER","Address":"321 N 1ST ST","City":"IMMOKALEE","Zip":" ","COUNTY":"COLLIER","X":-81.418361399999995,"Y":26.423099059999998,"LONGLAT":"-81.41836140,26.42309906","USNG":"17R MK 58282 22608","OWNERSHIP":null,"PARCELID":null,"FACILITY_TYPE":"COMMUNITY CENTER"}},{"type":"Feature","id":128,"geometry":{"type":"Point","coordinates":[-87.221726316153777,30.778611963483304]},"properties":{"OBJECTID":128,"Name":"CHUMUCKLA COMMUNITY CENTER","Address":"2355 COUNTY ROAD 182","City":"JAY","Zip":"32565","COUNTY":"SANTA ROSA","X":-87.221726320000002,"Y":30.778611959999999,"LONGLAT":"-87.22172632,30.77861196","USNG":"16R DV 78783 05088","OWNERSHIP":null,"PARCELID":null,"FACILITY_TYPE":"COMMUNITY CENTER"}},{"type":"Feature","id":129,"geometry":{"type":"Point","coordinates":[-81.387997128088998,30.163633060505557]},"properties":{"OBJECTID":129,"Name":"The Players Community Center","Address":"175 Landrum Ln","City":"Ponte Vedra","Zip":"32082","COUNTY":"ST. JOHNS","X":-81.387997130000002,"Y":30.163633059999999,"LONGLAT":"-81.38799713,30.16363306","USNG":"17R MP 62639 36981","OWNERSHIP":null,"PARCELID":null,"FACILITY_TYPE":"COMMUNITY CENTER"}},{"type":"Feature","id":130,"geometry":{"type":"Point","coordinates":[-81.725712287895746,30.396273775192217]},"properties":{"OBJECTID":130,"Name":"CITY OF JACKSONVILLE NW COMMUNITY CENTER","Address":"5130 SOUTEL DR","City":"JACKSONVILLE","Zip":" ","COUNTY":"DUVAL","X":-81.725712290000004,"Y":30.396273780000001,"LONGLAT":"-81.72571229,30.39627378","USNG":"17R MP 30285 62920","OWNERSHIP":null,"PARCELID":null,"FACILITY_TYPE":"COMMUNITY CENTER"}},{"type":"Feature","id":131,"geometry":{"type":"Point","coordinates":[-80.058772358185777,26.704546716124103]},"properties":{"OBJECTID":131,"Name":"PALM BEACH COUNTY CONVENTION CENTER","Address":" ","City":"WEST PALM BEACH","Zip":"33401","COUNTY":"PALM BEACH","X":-80.058772360000006,"Y":26.70454672,"LONGLAT":"-80.05877236,26.70454672","USNG":"17R NK 93629 54057","OWNERSHIP":null,"PARCELID":null,"FACILITY_TYPE":"COMMUNITY CENTER"}},{"type":"Feature","id":132,"geometry":{"type":"Point","coordinates":[-80.340966004145216,27.275284696619995]},"properties":{"OBJECTID":132,"Name":"PORT ST. LUCIE COMMUNITY CENTER","Address":"2195 SE AIROSO BLVD","City":"PORT SAINT LUCIE","Zip":"34953","COUNTY":"ST. LUCIE","X":-80.340965999999995,"Y":27.2752847,"LONGLAT":"-80.34096600,27.27528470","USNG":"17R NL 65227 17098","OWNERSHIP":null,"PARCELID":null,"FACILITY_TYPE":"COMMUNITY CENTER"}},{"type":"Feature","id":133,"geometry":{"type":"Point","coordinates":[-81.836694965649698,27.226861227230177]},"properties":{"OBJECTID":133,"Name":"TURNER AGRI-CIVIC CENTER","Address":"2250 NE ROAN ST","City":"ARCADIA","Zip":"34266","COUNTY":"DESOTO","X":-81.836694969999996,"Y":27.226861230000001,"LONGLAT":"-81.83669497,27.22686123","USNG":"17R ML 17152 11839","OWNERSHIP":null,"PARCELID":null,"FACILITY_TYPE":"COMMUNITY CENTER"}},{"type":"Feature","id":134,"geometry":{"type":"Point","coordinates":[-81.621581535880381,30.193195115431291]},"properties":{"OBJECTID":134,"Name":"JACKSONVILLE JEWISH CENTER","Address":"3662 CROWN POINT ROAD","City":"JACKSONVILLE","Zip":"32257","COUNTY":"DUVAL","X":-81.621581539999994,"Y":30.193195119999999,"LONGLAT":"-81.62158154,30.19319512","USNG":"17R MP 40165 40356","OWNERSHIP":null,"PARCELID":null,"FACILITY_TYPE":"COMMUNITY CENTER"}},{"type":"Feature","id":135,"geometry":{"type":"Point","coordinates":[-81.312856957386444,29.879182648730851]},"properties":{"OBJECTID":135,"Name":"Willie Galimore Community Center","Address":"399 Riberia St","City":"St Augustine","Zip":"32084","COUNTY":"ST. JOHNS","X":-81.312856960000005,"Y":29.879182650000001,"LONGLAT":"-81.31285696,29.87918265","USNG":"17R MP 69789 05439","OWNERSHIP":null,"PARCELID":null,"FACILITY_TYPE":"COMMUNITY CENTER"}},{"type":"Feature","id":136,"geometry":{"type":"Point","coordinates":[-80.256279781726789,27.201277546020528]},"properties":{"OBJECTID":136,"Name":"FLAGLER RECREATION CENTER","Address":"201 SW FLAGLER AVE","City":"STUART","Zip":" ","COUNTY":"MARTIN","X":-80.25627978,"Y":27.20127755,"LONGLAT":"-80.25627978,27.20127755","USNG":"17R NL 73657 08947","OWNERSHIP":null,"PARCELID":null,"FACILITY_TYPE":"COMMUNITY CENTER"}},{"type":"Feature","id":137,"geometry":{"type":"Point","coordinates":[-81.369861288098789,28.428990408397599]},"properties":{"OBJECTID":137,"Name":"TAFT COMMUNITY CENTER","Address":"9450 S ORANGE AVE","City":"ORLANDO","Zip":" ","COUNTY":"ORANGE","X":-81.369861290000003,"Y":28.428990410000001,"LONGLAT":"-81.36986129,28.42899041","USNG":"17R MM 63779 44780","OWNERSHIP":null,"PARCELID":null,"FACILITY_TYPE":"COMMUNITY CENTER"}},{"type":"Feature","id":138,"geometry":{"type":"Point","coordinates":[-84.594529777472076,30.589671165818871]},"properties":{"OBJECTID":138,"Name":"JOE FEROLITO RECREATIONAL CENTER","Address":"122 N GRAVES ST","City":"QUINCY","Zip":"32351","COUNTY":"GADSDEN","X":-84.594529780000002,"Y":30.589671169999999,"LONGLAT":"-84.59452978,30.58967117","USNG":"16R GU 30651 86593","OWNERSHIP":null,"PARCELID":null,"FACILITY_TYPE":"COMMUNITY CENTER"}},{"type":"Feature","id":139,"geometry":{"type":"Point","coordinates":[-80.318221253981335,25.871194144418805]},"properties":{"OBJECTID":139,"Name":"VICTOR WILDE COMMUNITY CENTER","Address":"1701 W 53RD TER","City":"HIALEAH","Zip":"33012","COUNTY":"MIAMI-DADE","X":-80.318221249999993,"Y":25.871194150000001,"LONGLAT":"-80.31822125,25.87119415","USNG":"17R NJ 68306 61596","OWNERSHIP":null,"PARCELID":null,"FACILITY_TYPE":"COMMUNITY CENTER"}},{"type":"Feature","id":140,"geometry":{"type":"Point","coordinates":[-82.763898113733646,30.292519571619639]},"properties":{"OBJECTID":140,"Name":"SPRINGVILLE COMMUNITY CENTER","Address":"3710 NW SUWANNEE VALLEY RD","City":"LAKE CITY","Zip":" ","COUNTY":"COLUMBIA","X":-82.76389811,"Y":30.29251957,"LONGLAT":"-82.76389811,30.29251957","USNG":"17R LP 30364 52517","OWNERSHIP":null,"PARCELID":null,"FACILITY_TYPE":"COMMUNITY CENTER"}},{"type":"Feature","id":141,"geometry":{"type":"Point","coordinates":[-82.4469625399596,27.095159785168306]},"properties":{"OBJECTID":141,"Name":"VENICE COMMUNITY CENTER","Address":"326 S NOKOMIS AVE ","City":"VENICE","Zip":"34285","COUNTY":"SARASOTA","X":-82.446962540000001,"Y":27.09515979,"LONGLAT":"-82.44696254,27.09515979","USNG":"17R LK 56551 97800","OWNERSHIP":null,"PARCELID":null,"FACILITY_TYPE":"COMMUNITY CENTER"}},{"type":"Feature","id":142,"geometry":{"type":"Point","coordinates":[-82.56199930941321,27.382436318035534]},"properties":{"OBJECTID":142,"Name":"FSU RINGLING CENTER FOR CULTURAL ARTS","Address":"5401 BAY SHORE RD","City":" ","Zip":"34243","COUNTY":"SARASOTA","X":-82.561999310000004,"Y":27.38243632,"LONGLAT":"-82.56199931,27.38243632","USNG":"17R LL 45542 29763","OWNERSHIP":null,"PARCELID":null,"FACILITY_TYPE":"COMMUNITY CENTER"}},{"type":"Feature","id":143,"geometry":{"type":"Point","coordinates":[-80.839354473024756,28.662072569841634]},"properties":{"OBJECTID":143,"Name":"CUYLER PARK","Address":"2329 HARRY T MOORE AVE","City":"MIMS","Zip":" ","COUNTY":"BREVARD","X":-80.839354470000004,"Y":28.662072569999999,"LONGLAT":"-80.83935447,28.66207257","USNG":"17R NM 15697 70557","OWNERSHIP":null,"PARCELID":null,"FACILITY_TYPE":"COMMUNITY CENTER"}},{"type":"Feature","id":144,"geometry":{"type":"Point","coordinates":[-80.845398798852855,28.65472728863535]},"properties":{"OBJECTID":144,"Name":"HARRY T MOORE CULTURAL CENTER","Address":"2180 FREEDOM AVE","City":"MIMS","Zip":" ","COUNTY":"BREVARD","X":-80.845398799999998,"Y":28.65472729,"LONGLAT":"-80.84539880,28.65472729","USNG":"17R NM 15107 69743","OWNERSHIP":null,"PARCELID":null,"FACILITY_TYPE":"COMMUNITY CENTER"}},{"type":"Feature","id":145,"geometry":{"type":"Point","coordinates":[-80.122732073075497,26.098416897477712]},"properties":{"OBJECTID":145,"Name":"FORT LAUDERDALE CONVENTION CENTER","Address":" ","City":"FORT LAUDERDALE","Zip":"33316","COUNTY":"BROWARD","X":-80.122732069999998,"Y":26.0984169,"LONGLAT":"-80.12273207,26.09841690","USNG":"17R NJ 87723 86878","OWNERSHIP":"COUNTY","PARCELID":"504214360010","FACILITY_TYPE":"COMMUNITY CENTER"}},{"type":"Feature","id":146,"geometry":{"type":"Point","coordinates":[-83.096850523175434,30.055901888562566]},"properties":{"OBJECTID":146,"Name":"AIRLINE COMMUNITY CENTER","Address":"263 SE COUNTY ROAD 354","City":"MAYO","Zip":"32066","COUNTY":"LAFAYETTE","X":-83.096850520000004,"Y":30.055901890000001,"LONGLAT":"-83.09685052,30.05590189","USNG":"17R KP 97854 26832","OWNERSHIP":null,"PARCELID":null,"FACILITY_TYPE":"COMMUNITY CENTER"}},{"type":"Feature","id":147,"geometry":{"type":"Point","coordinates":[-86.136723398817878,30.499539412167056]},"properties":{"OBJECTID":147,"Name":"FREEPORT COMMUNITY CENTER","Address":"16040 US HWY BUS 331 S","City":"FREEPORT","Zip":"32439","COUNTY":"WALTON","X":-86.136723399999994,"Y":30.499539410000001,"LONGLAT":"-86.13672340,30.49953941","USNG":"16R EU 82842 74457","OWNERSHIP":null,"PARCELID":null,"FACILITY_TYPE":"COMMUNITY CENTER"}},{"type":"Feature","id":148,"geometry":{"type":"Point","coordinates":[-80.860059169604824,27.2592906139507]},"properties":{"OBJECTID":148,"Name":"OKEECHOBEE COUNTY CIVIC CENTER","Address":"1750 US HWY 98 N","City":"OKEECHOBEE","Zip":" ","COUNTY":"OKEECHOBEE","X":-80.86005917,"Y":27.259290610000001,"LONGLAT":"-80.86005917,27.25929061","USNG":"17R NL 13852 15162","OWNERSHIP":null,"PARCELID":null,"FACILITY_TYPE":"COMMUNITY CENTER"}},{"type":"Feature","id":149,"geometry":{"type":"Point","coordinates":[-80.930721188673445,29.023513552672377]},"properties":{"OBJECTID":149,"Name":"BABE JAMES COMMUNITY CENTER","Address":"201 N MYRTLE AVE","City":"NEW SMYRNA BEACH","Zip":" ","COUNTY":"VOLUSIA","X":-80.93072119,"Y":29.023513550000001,"LONGLAT":"-80.93072119,29.02351355","USNG":"17R NN 06746 10592","OWNERSHIP":null,"PARCELID":null,"FACILITY_TYPE":"COMMUNITY CENTER"}},{"type":"Feature","id":150,"geometry":{"type":"Point","coordinates":[-87.271536990470423,30.492607878047338]},"properties":{"OBJECTID":150,"Name":"MARY K. YOUNG-WEDGEWOOD COMMUNITY CENTER","Address":"6405 WAGNER RD","City":"PENSACOLA","Zip":"32505","COUNTY":"ESCAMBIA","X":-87.271536990000001,"Y":30.492607880000001,"LONGLAT":"-87.27153699,30.49260788","USNG":"16R DU 73941 73403","OWNERSHIP":null,"PARCELID":null,"FACILITY_TYPE":"COMMUNITY CENTER"}},{"type":"Feature","id":151,"geometry":{"type":"Point","coordinates":[-81.80153956149276,26.428336835936619]},"properties":{"OBJECTID":151,"Name":"ESTERO COMMUNITY CENTER","Address":"9200 CORKSCREW PALMS BLVD","City":"ESTERO","Zip":" ","COUNTY":"LEE","X":-81.801539559999995,"Y":26.42833684,"LONGLAT":"-81.80153956,26.42833684","USNG":"17R MK 20075 23369","OWNERSHIP":null,"PARCELID":null,"FACILITY_TYPE":"COMMUNITY CENTER"}},{"type":"Feature","id":152,"geometry":{"type":"Point","coordinates":[-80.998831457149095,27.875951685342248]},"properties":{"OBJECTID":152,"Name":"KENANSVILLE COMMUNITY CENTER","Address":"1154 S CANOE CREEK RD","City":"KENANSVILLE","Zip":" ","COUNTY":"OSCEOLA","X":-80.998831460000005,"Y":27.875951690000001,"LONGLAT":"-80.99883146,27.87595169","USNG":"17R NL 00115 83461","OWNERSHIP":null,"PARCELID":null,"FACILITY_TYPE":"COMMUNITY CENTER"}},{"type":"Feature","id":153,"geometry":{"type":"Point","coordinates":[-87.232769546979213,30.440336621155797]},"properties":{"OBJECTID":153,"Name":"ENGLEWOOD COMMUNITY CENTER","Address":"2751 N H ST","City":"PENSACOLA","Zip":"32501","COUNTY":"ESCAMBIA","X":-87.232723930000006,"Y":30.440157509999999,"LONGLAT":"-87.23272393,30.44015751","USNG":"16R DU 77654 67583","OWNERSHIP":null,"PARCELID":null,"FACILITY_TYPE":"COMMUNITY CENTER"}},{"type":"Feature","id":154,"geometry":{"type":"Point","coordinates":[-82.204751332916601,27.073933217130197]},"properties":{"OBJECTID":154,"Name":"GEORGE MULLEN COMMUNITY CENTER","Address":"3001 CITY CENTER BLVD","City":"NORTH PORT","Zip":"34286","COUNTY":"SARASOTA","X":-82.204751329999993,"Y":27.073933220000001,"LONGLAT":"-82.20475133,27.07393322","USNG":"17R LK 80543 95195","OWNERSHIP":null,"PARCELID":null,"FACILITY_TYPE":"COMMUNITY CENTER"}},{"type":"Feature","id":155,"geometry":{"type":"Point","coordinates":[-82.277481984452805,28.659637858966526]},"properties":{"OBJECTID":155,"Name":"ISTACHATTA COMMUNITY CENTER","Address":"16246 LINGLE RD\r\n","City":"BROOKSVILLE","Zip":"34601","COUNTY":"HERNANDO","X":-82.277481980000005,"Y":28.65963786,"LONGLAT":"-82.27748198,28.65963786","USNG":"17R LM 75162 70944","OWNERSHIP":"COUNTY","PARCELID":"R14 121 20 0470 0010 0010","FACILITY_TYPE":"COMMUNITY CENTER"}},{"type":"Feature","id":156,"geometry":{"type":"Point","coordinates":[-80.679510187459201,26.682626033905485]},"properties":{"OBJECTID":156,"Name":"BILL BAILEY COMMUNITY CENTER","Address":"1101 MARTIN LUTHER KING","City":"BELLE GLADE","Zip":"33430","COUNTY":"PALM BEACH","X":-80.679510190000002,"Y":26.682626030000002,"LONGLAT":"-80.67951019,26.68262603","USNG":"17R NK 31886 51323","OWNERSHIP":null,"PARCELID":null,"FACILITY_TYPE":"COMMUNITY CENTER"}},{"type":"Feature","id":157,"geometry":{"type":"Point","coordinates":[-82.580312513262001,27.526864906638213]},"properties":{"OBJECTID":157,"Name":"MANATEE COUNTY FAIRGROUNDS","Address":"1303 17TH ST W","City":"PALMETTO","Zip":"34221","COUNTY":"MANATEE","X":-82.580312509999999,"Y":27.52686491,"LONGLAT":"-82.58031251,27.52686491","USNG":"17R LL 43934 45787","OWNERSHIP":"COUNTY","PARCELID":"2664900004","FACILITY_TYPE":"COMMUNITY CENTER"}},{"type":"Feature","id":158,"geometry":{"type":"Point","coordinates":[-80.430184603156832,27.681990600103344]},"properties":{"OBJECTID":158,"Name":"GIFFORD YOUTH ACTIVITY CENTER","Address":"4855 43RD AVE","City":"VERO BEACH","Zip":"32967","COUNTY":"INDIAN RIVER","X":-80.430184600000004,"Y":27.681990599999999,"LONGLAT":"-80.43018460,27.68199060","USNG":"17R NL 56189 62105","OWNERSHIP":"COUNTY","PARCELID":"32392100001009000001.1","FACILITY_TYPE":"COMMUNITY CENTER"}},{"type":"Feature","id":159,"geometry":{"type":"Point","coordinates":[-80.06087316004276,26.701388731089203]},"properties":{"OBJECTID":159,"Name":"HOWARD PARK COMMUNITY CENTER","Address":"1302 PARKER AVE","City":"WEST PALM BEACH","Zip":" ","COUNTY":"PALM BEACH","X":-80.06087316,"Y":26.701388730000001,"LONGLAT":"-80.06087316,26.70138873","USNG":"17R NK 93423 53706","OWNERSHIP":null,"PARCELID":null,"FACILITY_TYPE":"COMMUNITY CENTER"}},{"type":"Feature","id":160,"geometry":{"type":"Point","coordinates":[-80.934531078822559,26.755503991340646]},"properties":{"OBJECTID":160,"Name":"CLEWISTON YOUTH CENTER","Address":"110 W OSCEOLA AVENUE","City":"CLEWISTON","Zip":"33440","COUNTY":"HENDRY","X":-80.934531079999999,"Y":26.755503990000001,"LONGLAT":"-80.93453108,26.75550399","USNG":"17R NK 06509 59357","OWNERSHIP":null,"PARCELID":null,"FACILITY_TYPE":"COMMUNITY CENTER"}},{"type":"Feature","id":161,"geometry":{"type":"Point","coordinates":[-82.561650356181815,27.514987294735558]},"properties":{"OBJECTID":161,"Name":"MANATEE COUNTY CONVENTION AND CIVIC CENTER","Address":"1 HABEN BLVD","City":"PALMETTO","Zip":"34221","COUNTY":"MANATEE","X":-82.561650360000002,"Y":27.514987300000001,"LONGLAT":"-82.56165036,27.51498730","USNG":"17R LL 45761 44448","OWNERSHIP":"COUNTY","PARCELID":"2604500005","FACILITY_TYPE":"COMMUNITY CENTER"}},{"type":"Feature","id":162,"geometry":{"type":"Point","coordinates":[-80.102677497444816,26.829555609324579]},"properties":{"OBJECTID":162,"Name":"PALM BEACH GARDENS COMMUNITY CENTER","Address":"4404 BURNS RD","City":"PALM BEACH GARDENS","Zip":" ","COUNTY":"PALM BEACH","X":-80.102677499999999,"Y":26.82955561,"LONGLAT":"-80.10267750,26.82955561","USNG":"17R NK 89164 67872","OWNERSHIP":null,"PARCELID":null,"FACILITY_TYPE":"COMMUNITY CENTER"}},{"type":"Feature","id":163,"geometry":{"type":"Point","coordinates":[-84.296863642392353,30.4550632437616]},"properties":{"OBJECTID":163,"Name":"LAWRENCE-GREGORY COMMUNITY CENTER","Address":"1115 DADE ST","City":"TALLAHASSEE","Zip":" ","COUNTY":"LEON","X":-84.296863639999998,"Y":30.455063240000001,"LONGLAT":"-84.29686364,30.45506324","USNG":"16R GU 59560 72316","OWNERSHIP":null,"PARCELID":null,"FACILITY_TYPE":"COMMUNITY CENTER"}},{"type":"Feature","id":164,"geometry":{"type":"Point","coordinates":[-81.352965670526459,28.333225442933049]},"properties":{"OBJECTID":164,"Name":"BUENAVENTURA COMMUNITY CENTER","Address":"419 BUENAVENTURA BLVD","City":"KISSIMMEE","Zip":"34743","COUNTY":"OSCEOLA","X":-81.352965670000003,"Y":28.33322544,"LONGLAT":"-81.35296567,28.33322544","USNG":"17R MM 65402 34166","OWNERSHIP":"COUNTY","PARCELID":"07-25-30-2703-0114-0380","FACILITY_TYPE":"COMMUNITY CENTER"}},{"type":"Feature","id":165,"geometry":{"type":"Point","coordinates":[-80.258743480471651,26.047914132454927]},"properties":{"OBJECTID":165,"Name":"DAVID POSNACK JEWISH COMMUNITY CENTER","Address":"5850 S. PINE ISLAND ROAD","City":"DAVIE","Zip":"33328","COUNTY":"BROWARD","X":-80.258743480000007,"Y":26.047914129999999,"LONGLAT":"-80.25874348,26.04791413","USNG":"17R NJ 74154 81200","OWNERSHIP":null,"PARCELID":null,"FACILITY_TYPE":"COMMUNITY CENTER"}},{"type":"Feature","id":166,"geometry":{"type":"Point","coordinates":[-84.314899999527455,30.434899999435505]},"properties":{"OBJECTID":166,"Name":"PALMER MONROE COMMUNITY CENTER","Address":"1704 JACKSON BLUFF RD","City":"TALLAHASSEE","Zip":" ","COUNTY":"LEON","X":-84.314899999999994,"Y":30.434899999999999,"LONGLAT":"-84.31490000,30.43490000","USNG":"16R GU 57881 70039","OWNERSHIP":null,"PARCELID":null,"FACILITY_TYPE":"COMMUNITY CENTER"}},{"type":"Feature","id":167,"geometry":{"type":"Point","coordinates":[-80.299012739836755,25.821092250497422]},"properties":{"OBJECTID":167,"Name":"MIAMI SPRINGS COMMUNITY CENTER","Address":"1401 WESTWARD DR","City":"MIAMI SPRINGS","Zip":"33166","COUNTY":"MIAMI-DADE","X":-80.299012739999995,"Y":25.82109225,"LONGLAT":"-80.29901274,25.82109225","USNG":"17R NJ 70260 56058","OWNERSHIP":null,"PARCELID":null,"FACILITY_TYPE":"COMMUNITY CENTER"}},{"type":"Feature","id":168,"geometry":{"type":"Point","coordinates":[-82.179278018285643,28.507148458222488]},"properties":{"OBJECTID":168,"Name":"RIDGE MANOR COMMUNITY CENTER","Address":"34240 CORTEZ BLVD","City":"DADE CITY","Zip":"33523","COUNTY":"HERNANDO","X":-82.179278019999998,"Y":28.50714846,"LONGLAT":"-82.17927802,28.50714846","USNG":"17R LM 84593 53950","OWNERSHIP":null,"PARCELID":"R11 123 21 0580 0000 00A0","FACILITY_TYPE":"COMMUNITY CENTER"}},{"type":"Feature","id":169,"geometry":{"type":"Point","coordinates":[-81.801779011085415,27.748297920737858]},"properties":{"OBJECTID":169,"Name":"FORT MEADE COMMUNITY CENTER","Address":"10 SW 3RD ST","City":"FORT MEADE","Zip":" ","COUNTY":"POLK","X":-81.801779010000004,"Y":27.748297919999999,"LONGLAT":"-81.80177901,27.74829792","USNG":"17R ML 20983 69577","OWNERSHIP":null,"PARCELID":null,"FACILITY_TYPE":"COMMUNITY CENTER"}},{"type":"Feature","id":170,"geometry":{"type":"Point","coordinates":[-86.560367203004205,30.774938360516245]},"properties":{"OBJECTID":170,"Name":"SENIOR PARK CENTER","Address":"205 STILLWELL BLVD","City":"CRESTVIEW","Zip":"32536","COUNTY":"OKALOOSA","X":-86.560367200000002,"Y":30.77493836,"LONGLAT":"-86.56036720,30.77493836","USNG":"16R EV 42068 04742","OWNERSHIP":"MUNICIPAL","PARCELID":"08-3N-23-0000-0001-002A","FACILITY_TYPE":"COMMUNITY CENTER"}},{"type":"Feature","id":171,"geometry":{"type":"Point","coordinates":[-82.032038486694759,28.858715083486143]},"properties":{"OBJECTID":171,"Name":"WILDWOOD COMMUNITY CENTER","Address":"801 HUEY ST","City":"WILDWOOD","Zip":" ","COUNTY":"SUMTER","X":-82.032038490000005,"Y":28.85871508,"LONGLAT":"-82.03203849,28.85871508","USNG":"17R LM 99340 92770","OWNERSHIP":"MUNICIPAL","PARCELID":"G05=113","FACILITY_TYPE":"COMMUNITY CENTER"}},{"type":"Feature","id":172,"geometry":{"type":"Point","coordinates":[-82.405251135083901,28.551656355522709]},"properties":{"OBJECTID":172,"Name":"JEROME BROWN COMMUNITY CENTER","Address":"99 JEROME BROWN PL","City":"BROOKSVILLE","Zip":" ","COUNTY":"HERNANDO","X":-82.405251140000004,"Y":28.551656359999999,"LONGLAT":"-82.40525114,28.55165636","USNG":"17R LM 62534 59120","OWNERSHIP":null,"PARCELID":null,"FACILITY_TYPE":"COMMUNITY CENTER"}},{"type":"Feature","id":173,"geometry":{"type":"Point","coordinates":[-81.619499000372613,28.73786899867773]},"properties":{"OBJECTID":173,"Name":"WILLOW STREET COMMUNITY CENTER","Address":"6565 WILLOW ST.","City":"MOUNT DORA","Zip":"32757","COUNTY":"ORANGE","X":-81.619499000000005,"Y":28.737869,"LONGLAT":"-81.61949900,28.73786900","USNG":"17R MM 39508 79101","OWNERSHIP":"COUNTY","PARCELID":"272021000000049","FACILITY_TYPE":"COMMUNITY CENTER"}},{"type":"Feature","id":174,"geometry":{"type":"Point","coordinates":[-82.265423242884708,28.645581560557286]},"properties":{"OBJECTID":174,"Name":"TRI-COUNTY COMMUNITY CENTER","Address":"28444 FORBES ST","City":"BROOKSVILLE","Zip":"34601","COUNTY":"HERNANDO","X":-82.265423240000004,"Y":28.64558156,"LONGLAT":"-82.26542324,28.64558156","USNG":"17R LM 76324 69374","OWNERSHIP":"COUNTY","PARCELID":"R24 421 20 0000 0430 0000","FACILITY_TYPE":"COMMUNITY CENTER"}},{"type":"Feature","id":175,"geometry":{"type":"Point","coordinates":[-86.553415599040974,30.790725035017687]},"properties":{"OBJECTID":175,"Name":"CRESTVIEW COMMUNITY CENTER","Address":"1446 COMMERCE DR","City":"CRESTVIEW","Zip":"32539","COUNTY":"OKALOOSA","X":-86.553415599999994,"Y":30.790725040000002,"LONGLAT":"-86.55341560,30.79072504","USNG":"16R EV 42726 06494","OWNERSHIP":null,"PARCELID":null,"FACILITY_TYPE":"COMMUNITY CENTER"}},{"type":"Feature","id":176,"geometry":{"type":"Point","coordinates":[-80.875751670591953,28.76622896935536]},"properties":{"OBJECTID":176,"Name":"SCOTTSMOOR COMMUNITY CENTER","Address":"3724 MAGOON AVE","City":"MIMS","Zip":"32754","COUNTY":"BREVARD","X":-80.87575167,"Y":28.76622897,"LONGLAT":"-80.87575167,28.76622897","USNG":"17R NM 12128 82092","OWNERSHIP":"COUNTY","PARCELID":"20G344108   60    7","FACILITY_TYPE":"COMMUNITY CENTER"}},{"type":"Feature","id":177,"geometry":{"type":"Point","coordinates":[-84.253631516457361,30.492015841510916]},"properties":{"OBJECTID":177,"Name":"DOROTHY B. OVEN PARK & HOUSE","Address":"3205 THOMASVILLE RD","City":"TALLAHASSEE","Zip":" ","COUNTY":"LEON","X":-84.253631519999999,"Y":30.492015840000001,"LONGLAT":"-84.25363152,30.49201584","USNG":"16R GU 63613 76514","OWNERSHIP":null,"PARCELID":null,"FACILITY_TYPE":"COMMUNITY CENTER"}},{"type":"Feature","id":178,"geometry":{"type":"Point","coordinates":[-80.26443278826396,26.194320226843402]},"properties":{"OBJECTID":178,"Name":"TAMARAC COMMUNITY CENTER","Address":"8601 W. COMMERCIAL BLVD","City":"TAMARAC","Zip":"33351","COUNTY":"BROWARD","X":-80.264432790000001,"Y":26.194320229999999,"LONGLAT":"-80.26443279,26.19432023","USNG":"17R NJ 73493 97412","OWNERSHIP":null,"PARCELID":null,"FACILITY_TYPE":"COMMUNITY CENTER"}},{"type":"Feature","id":179,"geometry":{"type":"Point","coordinates":[-82.496097819431256,30.109976749953933]},"properties":{"OBJECTID":179,"Name":"LULU COMMUNITY CENTER","Address":"205 SE COMMUNITY DR","City":"LAKE CITY","Zip":" ","COUNTY":"COLUMBIA","X":-82.496097820000003,"Y":30.109976750000001,"LONGLAT":"-82.49609782,30.10997675","USNG":"17R LP 55856 31915","OWNERSHIP":null,"PARCELID":null,"FACILITY_TYPE":"COMMUNITY CENTER"}},{"type":"Feature","id":180,"geometry":{"type":"Point","coordinates":[-82.709978607329887,28.255872774747001]},"properties":{"OBJECTID":180,"Name":"NEW PORT RICHEY RECREATION CENTER","Address":"6630 VAN BUREN ST","City":"NEW PORT RICHEY","Zip":"34653","COUNTY":"PASCO","X":-82.709978609999993,"Y":28.255872780000001,"LONGLAT":"-82.70997861,28.25587278","USNG":"17R LM 32255 26732","OWNERSHIP":null,"PARCELID":null,"FACILITY_TYPE":"COMMUNITY CENTER"}},{"type":"Feature","id":181,"geometry":{"type":"Point","coordinates":[-80.683691757220345,28.061365764464167]},"properties":{"OBJECTID":181,"Name":"RODES PARK COMMUNITY CENTER","Address":"3410 FLANAGAN AVE","City":"WEST MELBOURNE","Zip":"32904","COUNTY":"BREVARD","X":-80.683691760000002,"Y":28.061365769999998,"LONGLAT":"-80.68369176,28.06136577","USNG":"17R NM 31082 04040","OWNERSHIP":null,"PARCELID":null,"FACILITY_TYPE":"COMMUNITY CENTER"}},{"type":"Feature","id":182,"geometry":{"type":"Point","coordinates":[-80.113915593521099,26.700059642042682]},"properties":{"OBJECTID":182,"Name":"SALVATION ARMY CENTER OF HOPE","Address":"1577 N MILITARY TRL","City":"WEST PALM BEACH","Zip":" ","COUNTY":"PALM BEACH","X":-80.113915590000005,"Y":26.700059639999999,"LONGLAT":"-80.11391559,26.70005964","USNG":"17R NK 88147 53521","OWNERSHIP":null,"PARCELID":null,"FACILITY_TYPE":"COMMUNITY CENTER"}},{"type":"Feature","id":183,"geometry":{"type":"Point","coordinates":[-81.226107912311278,28.29867799771861]},"properties":{"OBJECTID":183,"Name":"NARCOOSSEE COMMUNITY CENTER","Address":"5354 RAMBLING ROAD","City":"SAINT CLOUD","Zip":"34771","COUNTY":"OSCEOLA","X":-81.226107909999996,"Y":28.298677999999999,"LONGLAT":"-81.22610791,28.29867800","USNG":"17R MM 77830 30309","OWNERSHIP":null,"PARCELID":null,"FACILITY_TYPE":"COMMUNITY CENTER"}},{"type":"Feature","id":184,"geometry":{"type":"Point","coordinates":[-80.221846960358732,27.224463151597359]},"properties":{"OBJECTID":184,"Name":"JENSEN BEACH RECREATION CENTER","Address":"2369 NE DIXIE HWY","City":"JENSEN BEACH","Zip":"34957","COUNTY":"MARTIN","X":-80.221846959999993,"Y":27.224463149999998,"LONGLAT":"-80.22184696,27.22446315","USNG":"17R NL 77052 11536","OWNERSHIP":null,"PARCELID":null,"FACILITY_TYPE":"COMMUNITY CENTER"}},{"type":"Feature","id":185,"geometry":{"type":"Point","coordinates":[-81.871714603456539,26.644780729120715]},"properties":{"OBJECTID":185,"Name":"HARBORSIDE EVENTS CENTER","Address":"1375 MONROE ST","City":"FORT MYERS","Zip":" ","COUNTY":"LEE","X":-81.871714600000004,"Y":26.644780730000001,"LONGLAT":"-81.87171460,26.64478073","USNG":"17R MK 13240 47388","OWNERSHIP":null,"PARCELID":null,"FACILITY_TYPE":"COMMUNITY CENTER"}},{"type":"Feature","id":186,"geometry":{"type":"Point","coordinates":[-82.710320170221323,30.266285785017718]},"properties":{"OBJECTID":186,"Name":"WINEFIELD COMMUNITY CENTER","Address":"1324 NW WINFIELD ST","City":"LAKE CITY","Zip":" ","COUNTY":"COLUMBIA","X":-82.710320170000003,"Y":30.266285790000001,"LONGLAT":"-82.71032017,30.26628579","USNG":"17R LP 35473 49530","OWNERSHIP":null,"PARCELID":null,"FACILITY_TYPE":"COMMUNITY CENTER"}},{"type":"Feature","id":187,"geometry":{"type":"Point","coordinates":[-81.102763189537185,28.558930612088126]},"properties":{"OBJECTID":187,"Name":"BITHLO COMMUNITY CENTER","Address":"18501 WASHINGTON AVE","City":"ORLANDO","Zip":"32820","COUNTY":"ORANGE","X":-81.102763190000005,"Y":28.558930610000001,"LONGLAT":"-81.10276319,28.55893061","USNG":"17R MM 89948 59124","OWNERSHIP":null,"PARCELID":null,"FACILITY_TYPE":"COMMUNITY CENTER"}},{"type":"Feature","id":188,"geometry":{"type":"Point","coordinates":[-80.133683683339385,25.794413899911223]},"properties":{"OBJECTID":188,"Name":"MIAMI BEACH CONVENTION CENTER","Address":"500 CONVENTION CENTER DR","City":"MIAMI BEACH","Zip":"33139","COUNTY":"MIAMI-DADE","X":-80.133683680000004,"Y":25.794413899999999,"LONGLAT":"-80.13368368,25.79441390","USNG":"17R NJ 86851 53202","OWNERSHIP":null,"PARCELID":null,"FACILITY_TYPE":"COMMUNITY CENTER"}},{"type":"Feature","id":189,"geometry":{"type":"Point","coordinates":[-81.725295891725878,28.049776532578097]},"properties":{"OBJECTID":189,"Name":"WILFRED SMITH COMMUNITY CENTER","Address":"135 AVENUE Y NE","City":"WINTER HAVEN","Zip":"33881","COUNTY":"POLK","X":-81.725295889999998,"Y":28.049776529999999,"LONGLAT":"-81.72529589,28.04977653","USNG":"17R MM 28718 02928","OWNERSHIP":null,"PARCELID":null,"FACILITY_TYPE":"COMMUNITY CENTER"}},{"type":"Feature","id":190,"geometry":{"type":"Point","coordinates":[-80.523548326772385,27.88613480143383]},"properties":{"OBJECTID":190,"Name":"BAREFOOT BAY COMMUNITY CENTER","Address":"937 BAREFOOT BLVD","City":"SEBASTIAN","Zip":"32976","COUNTY":"BREVARD","X":-80.523548329999997,"Y":27.886134800000001,"LONGLAT":"-80.52354833,27.88613480","USNG":"17R NL 46895 84680","OWNERSHIP":null,"PARCELID":null,"FACILITY_TYPE":"COMMUNITY CENTER"}},{"type":"Feature","id":191,"geometry":{"type":"Point","coordinates":[-81.46385157211941,30.667702482735784]},"properties":{"OBJECTID":191,"Name":"AMELIA ISLAND MUSEUM OF","Address":"235 S 3RD ST","City":"FERNANDINA BEACH","Zip":"32034","COUNTY":"NASSAU","X":-81.463851570000003,"Y":30.667702479999999,"LONGLAT":"-81.46385157,30.66770248","USNG":"17R MP 55564 92867","OWNERSHIP":null,"PARCELID":null,"FACILITY_TYPE":"COMMUNITY CENTER"}},{"type":"Feature","id":192,"geometry":{"type":"Point","coordinates":[-80.676144031368935,28.360848189050781]},"properties":{"OBJECTID":192,"Name":"KIWANIS ISLAND PARK","Address":"951 KIWANIS ISLAND PARK RD","City":"MERRITT ISLAND","Zip":" ","COUNTY":"BREVARD","X":-80.676144030000003,"Y":28.360848189999999,"LONGLAT":"-80.67614403,28.36084819","USNG":"17R NM 31735 37219","OWNERSHIP":null,"PARCELID":null,"FACILITY_TYPE":"COMMUNITY CENTER"}},{"type":"Feature","id":193,"geometry":{"type":"Point","coordinates":[-81.496442425747802,27.590521419724773]},"properties":{"OBJECTID":193,"Name":"AVON PARK RECREATION CENTER","Address":"207 E STATE ST","City":"AVON PARK","Zip":" ","COUNTY":"HIGHLANDS","X":-81.496442430000002,"Y":27.590521420000002,"LONGLAT":"-81.49644243,27.59052142","USNG":"17R ML 51004 51941","OWNERSHIP":null,"PARCELID":null,"FACILITY_TYPE":"COMMUNITY CENTER"}},{"type":"Feature","id":194,"geometry":{"type":"Point","coordinates":[-81.377371467369258,28.557465020403214]},"properties":{"OBJECTID":194,"Name":"MARKS STREET COMMUNITY CENTER","Address":"99 E MARKS ST","City":"ORLANDO","Zip":"32803","COUNTY":"ORANGE","X":-81.37737147,"Y":28.557465019999999,"LONGLAT":"-81.37737147,28.55746502","USNG":"17R MM 63088 59016","OWNERSHIP":null,"PARCELID":null,"FACILITY_TYPE":"COMMUNITY CENTER"}},{"type":"Feature","id":195,"geometry":{"type":"Point","coordinates":[-82.028744097157997,29.786000929144297]},"properties":{"OBJECTID":195,"Name":"WILLIAM BEAM SENIOR CENTER","Address":"100 COMMERCIAL CIR","City":"KEYSTONE HEIGHTS","Zip":"32656","COUNTY":"CLAY","X":-82.028744099999997,"Y":29.78600093,"LONGLAT":"-82.02874410,29.78600093","USNG":"17R MN 00565 95516","OWNERSHIP":null,"PARCELID":"20-08-23-002170-001-14","FACILITY_TYPE":"COMMUNITY CENTER"}},{"type":"Feature","id":196,"geometry":{"type":"Point","coordinates":[-87.253809897867924,30.42361070281072]},"properties":{"OBJECTID":196,"Name":"BROWNVILLE COMMUNITY CENTER","Address":"3200 W DESOTO ST","City":"PENSACOLA","Zip":"32505","COUNTY":"ESCAMBIA","X":-87.253809899999993,"Y":30.423610700000001,"LONGLAT":"-87.25380990,30.42361070","USNG":"16R DU 75625 65753","OWNERSHIP":null,"PARCELID":null,"FACILITY_TYPE":"COMMUNITY CENTER"}},{"type":"Feature","id":197,"geometry":{"type":"Point","coordinates":[-81.203114262683556,29.558121065205576]},"properties":{"OBJECTID":197,"Name":"PALM COAST COMMUNITY CENTER","Address":"305 PALM COAST PKWY NE","City":"PALM COAST ","Zip":"32137","COUNTY":"FLAGLER","X":null,"Y":null,"LONGLAT":null,"USNG":null,"OWNERSHIP":null,"PARCELID":null,"FACILITY_TYPE":"COMMUNITY CENTER"}},{"type":"Feature","id":198,"geometry":{"type":"Point","coordinates":[-82.561650356181815,27.514987294735558]},"properties":{"OBJECTID":198,"Name":"MANATEE COUNTY CONVENTION AND CIVIC CENTER","Address":"1 HABEN BLVD","City":"PALMETTO","Zip":"34221","COUNTY":"MANATEE","X":-82.561650360000002,"Y":27.514987300000001,"LONGLAT":"-82.56165036,27.51498730","USNG":"17R LL 45761 44448","OWNERSHIP":"COUNTY","PARCELID":"2604500005","FACILITY_TYPE":"COMMUNITY CENTER"}},{"type":"Feature","id":199,"geometry":{"type":"Point","coordinates":[-81.434967261769032,26.542722356733609]},"properties":{"OBJECTID":199,"Name":"FELDA COMMUNITY CENTER","Address":"100 COUNTY ROAD 800","City":"LABELLE","Zip":" ","COUNTY":"HENDRY","X":-81.434967259999993,"Y":26.542722359999999,"LONGLAT":"-81.43496726,26.54272236","USNG":"17R MK 56671 35862","OWNERSHIP":null,"PARCELID":null,"FACILITY_TYPE":"COMMUNITY CENTER"}},{"type":"Feature","id":200,"geometry":{"type":"Point","coordinates":[-81.519952528310768,28.662714141660089]},"properties":{"OBJECTID":200,"Name":"JOHN H. BRIDGES COMMUNITY CENTER","Address":"445 W 13TH ST","City":"APOPKA","Zip":"32703","COUNTY":"ORANGE","X":-81.519952529999998,"Y":28.662714139999999,"LONGLAT":"-81.51995253,28.66271414","USNG":"17R MM 49192 70728","OWNERSHIP":null,"PARCELID":null,"FACILITY_TYPE":"COMMUNITY CENTER"}},{"type":"Feature","id":201,"geometry":{"type":"Point","coordinates":[-82.672736839922564,29.03287196204818]},"properties":{"OBJECTID":201,"Name":"INGLIS COMMUNITY CENTER","Address":"129 HWY 40 W ","City":"INGLIS","Zip":" ","COUNTY":"LEVY","X":-82.672736839999999,"Y":29.032871960000001,"LONGLAT":"-82.67273684,29.03287196","USNG":"17R LN 37114 12781","OWNERSHIP":null,"PARCELID":null,"FACILITY_TYPE":"COMMUNITY CENTER"}},{"type":"Feature","id":202,"geometry":{"type":"Point","coordinates":[-81.128314343879779,26.977526359982647]},"properties":{"OBJECTID":202,"Name":"LAKEPORT COMMUNITY CENTER","Address":"1239 RED BARN RD","City":"MOORE HAVEN","Zip":"33471","COUNTY":"GLADES","X":-81.128314340000003,"Y":26.977526359999999,"LONGLAT":"-81.12831434,26.97752636","USNG":"17R MK 87266 83952","OWNERSHIP":"COUNTY","PARCELID":null,"FACILITY_TYPE":"COMMUNITY CENTER"}},{"type":"Feature","id":203,"geometry":{"type":"Point","coordinates":[-80.338197480295705,27.462209491042429]},"properties":{"OBJECTID":203,"Name":"Lincoln Park Community Center","Address":"1306 Avenue M","City":" ","Zip":"34950","COUNTY":"ST. LUCIE","X":-80.338197480000005,"Y":27.462209489999999,"LONGLAT":"-80.33819748,27.46220949","USNG":"17R NL 65391 37805","OWNERSHIP":null,"PARCELID":null,"FACILITY_TYPE":"COMMUNITY CENTER"}},{"type":"Feature","id":204,"geometry":{"type":"Point","coordinates":[-82.635077993216967,30.201434783418478]},"properties":{"OBJECTID":204,"Name":"RICHARDSON RECREATION CENTER","Address":"255 NE COACH ANDERS LN","City":"LAKE CITY","Zip":" ","COUNTY":"COLUMBIA","X":-82.635077989999999,"Y":30.20143478,"LONGLAT":"-82.63507799,30.20143478","USNG":"17R LP 42609 42236","OWNERSHIP":null,"PARCELID":null,"FACILITY_TYPE":"COMMUNITY CENTER"}},{"type":"Feature","id":205,"geometry":{"type":"Point","coordinates":[-81.640151082694842,29.649351667813068]},"properties":{"OBJECTID":205,"Name":"PRICE MARTIN COMMUNITY CENTER","Address":"220 N 11TH ST","City":"PALATKA","Zip":"32177","COUNTY":"PUTNAM","X":-81.640151079999995,"Y":29.649351670000001,"LONGLAT":"-81.64015108,29.64935167","USNG":"17R MN 38042 80102","OWNERSHIP":null,"PARCELID":null,"FACILITY_TYPE":"COMMUNITY CENTER"}},{"type":"Feature","id":206,"geometry":{"type":"Point","coordinates":[-81.715575817305336,26.167981274382516]},"properties":{"OBJECTID":206,"Name":"GOLDEN GATE AQUATICS COMPLEX","Address":"3300 SANTA BARBARA RD","City":"NAPLES","Zip":" ","COUNTY":"COLLIER","X":-81.715575819999998,"Y":26.167981279999999,"LONGLAT":"-81.71557582,26.16798128","USNG":"17R MJ 28487 94483","OWNERSHIP":null,"PARCELID":null,"FACILITY_TYPE":"COMMUNITY CENTER"}},{"type":"Feature","id":207,"geometry":{"type":"Point","coordinates":[-81.396127564375817,30.282959665323244]},"properties":{"OBJECTID":207,"Name":"CARVER CENTER","Address":"738 4TH AVENUE SOUTH","City":"JACKSONVILLE BEACH","Zip":"32250","COUNTY":"DUVAL","X":-81.396127559999996,"Y":30.28295967,"LONGLAT":"-81.39612756,30.28295967","USNG":"17R MP 61903 50206","OWNERSHIP":null,"PARCELID":null,"FACILITY_TYPE":"COMMUNITY CENTER"}},{"type":"Feature","id":208,"geometry":{"type":"Point","coordinates":[-81.427374224544764,28.561142749785642]},"properties":{"OBJECTID":208,"Name":"NORTHWEST COMMUNITY CENTER","Address":"3955 WD JUDGE DR","City":"ORLANDO","Zip":" ","COUNTY":"ORANGE","X":-81.427374220000004,"Y":28.561142749999998,"LONGLAT":"-81.42737422,28.56114275","USNG":"17R MM 58198 59440","OWNERSHIP":null,"PARCELID":null,"FACILITY_TYPE":"COMMUNITY CENTER"}},{"type":"Feature","id":209,"geometry":{"type":"Point","coordinates":[-80.09742122825827,26.69968210267297]},"properties":{"OBJECTID":209,"Name":"WESTGATE COMMUNITY CENTER","Address":"3691 OSWEGO AVE","City":"WEST PALM BEACH","Zip":"33409","COUNTY":"PALM BEACH","X":-80.097421229999995,"Y":26.6996821,"LONGLAT":"-80.09742123,26.69968210","USNG":"17R NK 89788 53490","OWNERSHIP":null,"PARCELID":null,"FACILITY_TYPE":"COMMUNITY CENTER"}},{"type":"Feature","id":210,"geometry":{"type":"Point","coordinates":[-87.392327666580087,30.536271422200617]},"properties":{"OBJECTID":210,"Name":"COMMUNITY WORKSHOP CENTER","Address":"6200 W NINE MILE RD","City":"PENSACOLA","Zip":"32526","COUNTY":"ESCAMBIA","X":-87.39232767,"Y":30.536271419999998,"LONGLAT":"-87.39232767,30.53627142","USNG":"16R DU 62365 78276","OWNERSHIP":null,"PARCELID":null,"FACILITY_TYPE":"COMMUNITY CENTER"}},{"type":"Feature","id":211,"geometry":{"type":"Point","coordinates":[-81.384202036857886,25.858981994554433]},"properties":{"OBJECTID":211,"Name":"EVERGLADES CITY COMMUNITY CENTER","Address":"201 BUCKNER AVENUE N","City":"OCHOPEE","Zip":"34141","COUNTY":"COLLIER","X":-81.384202040000005,"Y":25.858982000000001,"LONGLAT":"-81.38420204,25.85898200","USNG":"17R MJ 61503 60123","OWNERSHIP":"COUNTY","PARCELID":" ","FACILITY_TYPE":"COMMUNITY CENTER"}},{"type":"Feature","id":212,"geometry":{"type":"Point","coordinates":[-80.236102230487418,25.727724230975962]},"properties":{"OBJECTID":212,"Name":"COCONUT GROVE CONVENTION CENTER","Address":"3500 PAN AMERICAN DR","City":"MIAMI","Zip":"33133","COUNTY":"MIAMI-DADE","X":-80.23610223,"Y":25.72772423,"LONGLAT":"-80.23610223,25.72772423","USNG":"17R NJ 76625 45753","OWNERSHIP":null,"PARCELID":null,"FACILITY_TYPE":"COMMUNITY CENTER"}},{"type":"Feature","id":213,"geometry":{"type":"Point","coordinates":[-82.732671962050873,27.528321460157876]},"properties":{"OBJECTID":213,"Name":"ANNA MARIA ISLAND COMMUNITY CENTER","Address":"407 MAGNOLIA AVE","City":"BRADENTON BEACH","Zip":" ","COUNTY":"MANATEE","X":-82.732671960000005,"Y":27.528321460000001,"LONGLAT":"-82.73267196,27.52832146","USNG":"17R LL 28888 46149","OWNERSHIP":null,"PARCELID":null,"FACILITY_TYPE":"COMMUNITY CENTER"}},{"type":"Feature","id":214,"geometry":{"type":"Point","coordinates":[-80.729235846341282,28.248443498698276]},"properties":{"OBJECTID":214,"Name":"VIERA REGIONAL PARK COMMUNITY CENTER","Address":"2300 JUDGE FRAN JAMIESON WAY","City":"MELBOURNE","Zip":" ","COUNTY":"BREVARD","X":-80.729235849999995,"Y":28.2484435,"LONGLAT":"-80.72923585,28.24844350","USNG":"17R NM 26560 24753","OWNERSHIP":null,"PARCELID":null,"FACILITY_TYPE":"COMMUNITY CENTER"}},{"type":"Feature","id":215,"geometry":{"type":"Point","coordinates":[-80.344839721810786,27.42638544813984]},"properties":{"OBJECTID":215,"Name":"HAVERT L. FENN COMMUNITY CENTER","Address":"2000 VIRGINIA AVE","City":"FORT PIERCE","Zip":" ","COUNTY":"ST. LUCIE","X":-80.344839719999996,"Y":27.426385450000001,"LONGLAT":"-80.34483972,27.42638545","USNG":"17R NL 64755 33833","OWNERSHIP":null,"PARCELID":null,"FACILITY_TYPE":"COMMUNITY CENTER"}},{"type":"Feature","id":216,"geometry":{"type":"Point","coordinates":[-87.276811811350143,30.441280659180212]},"properties":{"OBJECTID":216,"Name":"MAYFAIR COMMUNITY CENTER","Address":"50 S MADISON DR","City":"PENSACOLA","Zip":"32505","COUNTY":"ESCAMBIA","X":-87.276811809999998,"Y":30.44128066,"LONGLAT":"-87.27681181,30.44128066","USNG":"16R DU 73421 67717","OWNERSHIP":null,"PARCELID":null,"FACILITY_TYPE":"COMMUNITY CENTER"}},{"type":"Feature","id":217,"geometry":{"type":"Point","coordinates":[-83.184270254756498,30.055630980395787]},"properties":{"OBJECTID":217,"Name":"MAYO COMMUNITY CENTER","Address":"150 SW COMMUNITY CIR","City":"MAYO","Zip":"32066","COUNTY":"LAFAYETTE","X":-83.184270249999997,"Y":30.05563098,"LONGLAT":"-83.18427025,30.05563098","USNG":"17R KP 89424 26960","OWNERSHIP":"COUNTY","PARCELID":"1405110000000000200","FACILITY_TYPE":"COMMUNITY CENTER"}},{"type":"Feature","id":218,"geometry":{"type":"Point","coordinates":[-85.592349445560274,30.534156392122156]},"properties":{"OBJECTID":218,"Name":"SUNNY HILLS COMMUNITY CENTER","Address":"4083 CHALLENGER BLVD","City":"SUNNY HILLS","Zip":"32428","COUNTY":"WASHINGTON","X":-85.59234945,"Y":30.53415639,"LONGLAT":"-85.59234945,30.53415639","USNG":"16R FU 35038 78819","OWNERSHIP":null,"PARCELID":null,"FACILITY_TYPE":"COMMUNITY CENTER"}},{"type":"Feature","id":219,"geometry":{"type":"Point","coordinates":[-80.765115655062758,28.438587635896639]},"properties":{"OBJECTID":219,"Name":"WALTER BUTLER COMMUNITY CENTER","Address":"4201 US HWY 1 N","City":"COCOA","Zip":" ","COUNTY":"BREVARD","X":-80.765115660000006,"Y":28.438587640000001,"LONGLAT":"-80.76511566,28.43858764","USNG":"17R NM 23000 45810","OWNERSHIP":null,"PARCELID":null,"FACILITY_TYPE":"COMMUNITY CENTER"}},{"type":"Feature","id":220,"geometry":{"type":"Point","coordinates":[-84.287599999698813,30.453899998876224]},"properties":{"OBJECTID":220,"Name":"LEVERNE PAYNE COMMUNITY CENTER","Address":"450 W 4TH AVE","City":"TALLAHASSEE","Zip":" ","COUNTY":"LEON","X":-84.287599999999998,"Y":30.453900000000001,"LONGLAT":"-84.28760000,30.45390000","USNG":"16R GU 60453 72209","OWNERSHIP":null,"PARCELID":null,"FACILITY_TYPE":"COMMUNITY CENTER"}},{"type":"Feature","id":221,"geometry":{"type":"Point","coordinates":[-82.532810576518827,27.365908880150119]},"properties":{"OBJECTID":221,"Name":"NEWTOWN COMMUNITY CENTER","Address":"1845 34TH ST","City":"SARASOTA","Zip":"34234","COUNTY":"SARASOTA","X":-82.532810580000003,"Y":27.365908879999999,"LONGLAT":"-82.53281058,27.36590888","USNG":"17R LL 48406 27896","OWNERSHIP":null,"PARCELID":null,"FACILITY_TYPE":"COMMUNITY CENTER"}},{"type":"Feature","id":222,"geometry":{"type":"Point","coordinates":[-81.352317789887138,28.327145541096293]},"properties":{"OBJECTID":222,"Name":"BUENAVENTURA COMMUNITY CENTER","Address":"501 FLORIDA PKWY","City":"KISSIMMEE","Zip":"34743","COUNTY":"OSCEOLA","X":-81.352317790000001,"Y":28.32714554,"LONGLAT":"-81.35231779,28.32714554","USNG":"17R MM 65464 33493","OWNERSHIP":"COUNTY","PARCELID":"07-25-30-2677-0001-00A0","FACILITY_TYPE":"COMMUNITY CENTER"}},{"type":"Feature","id":223,"geometry":{"type":"Point","coordinates":[-80.19337485599975,27.14335226052393]},"properties":{"OBJECTID":223,"Name":"PORT SALERNO CIVIC CENTER","Address":"4950 ANCHOR AVE","City":"STUART","Zip":" ","COUNTY":"MARTIN","X":-80.193374860000006,"Y":27.14335226,"LONGLAT":"-80.19337486,27.14335226","USNG":"17R NL 79929 02569","OWNERSHIP":null,"PARCELID":null,"FACILITY_TYPE":"COMMUNITY CENTER"}},{"type":"Feature","id":224,"geometry":{"type":"Point","coordinates":[-81.307676053815115,29.019760981873851]},"properties":{"OBJECTID":224,"Name":"CHISHOLM COMMUNITY CENTER","Address":"520 S CLARA AVE","City":"DELAND","Zip":" ","COUNTY":"VOLUSIA","X":-81.307676049999998,"Y":29.019760980000001,"LONGLAT":"-81.30767605,29.01976098","USNG":"17R MN 70037 10213","OWNERSHIP":null,"PARCELID":null,"FACILITY_TYPE":"COMMUNITY CENTER"}},{"type":"Feature","id":225,"geometry":{"type":"Point","coordinates":[-80.29308691209107,25.708381453795539]},"properties":{"OBJECTID":225,"Name":"South Miami Senior Center","Address":"6701 SW 62ND AVE","City":"South Miami","Zip":"33143","COUNTY":"MIAMI-DADE","X":-80.29308691,"Y":25.708381450000001,"LONGLAT":"-80.29308691,25.70838145","USNG":"17R NJ 70921 43579","OWNERSHIP":null,"PARCELID":null,"FACILITY_TYPE":"COMMUNITY CENTER"}},{"type":"Feature","id":226,"geometry":{"type":"Point","coordinates":[-81.646836441188626,30.33660345079743]},"properties":{"OBJECTID":226,"Name":"ROBERT F. KENNEDY COMMUNITY CENTER","Address":"1133 IONIA ST","City":"JACKSONVILLE","Zip":"32206","COUNTY":"DUVAL","X":-81.646836440000001,"Y":30.336603449999998,"LONGLAT":"-81.64683644,30.33660345","USNG":"17R MP 37825 56261","OWNERSHIP":"COUNTY","PARCELID":"0726790000R","FACILITY_TYPE":"COMMUNITY CENTER"}},{"type":"Feature","id":227,"geometry":{"type":"Point","coordinates":[-82.958017003334078,29.952058497162884]},"properties":{"OBJECTID":227,"Name":"DISTIRCT 4 COMMUNITY CENTER","Address":"14024 E US HWY 27","City":"MAYO","Zip":"32066","COUNTY":"LAFAYETTE","X":-82.958016999999998,"Y":29.9520585,"LONGLAT":"-82.95801700,29.95205850","USNG":"17R LP 11044 15085","OWNERSHIP":"COUNTY","PARCELID":"1906140000000000601","FACILITY_TYPE":"COMMUNITY CENTER"}}]}