{"type":"FeatureCollection","features":[{"type":"Feature","id":1,"geometry":{"type":"Point","coordinates":[-81.800023756852028,24.561518657937576]},"properties":{"OBJECTID":1,"Name":"PORT OF KEY WEST","Address":"201 WILLIAM ST","City":"KEY WEST","Zip":"33040","COUNTY":"MONROE","X":-81.800023760000002,"Y":24.561518660000001,"LONGLAT":"-81.80002376,24.56151866","USNG":"17R MH 18983 16631","OWNERSHIP":null,"PARCELID":null,"FACILITY_TYPE":"COMMERCIAL PORTS"}},{"type":"Feature","id":2,"geometry":{"type":"Point","coordinates":[-87.210063832462481,30.40480423393792]},"properties":{"OBJECTID":2,"Name":"PORT OF PENSACOLA","Address":"700 S BARRACKS ST","City":"PENSACOLA","Zip":"32502","COUNTY":"ESCAMBIA","X":-87.210063829999996,"Y":30.40480423,"LONGLAT":"-87.21006383,30.40480423","USNG":"16R DU 79822 63661","OWNERSHIP":null,"PARCELID":"000S009100001017","FACILITY_TYPE":"COMMERCIAL PORTS"}},{"type":"Feature","id":3,"geometry":{"type":"Point","coordinates":[-82.44524124484002,27.949964956417844]},"properties":{"OBJECTID":3,"Name":"PORT OF TAMPA","Address":"1101 CHANNELSIDE DR","City":"TAMPA","Zip":"33602","COUNTY":"HILLSBOROUGH","X":-82.445241240000001,"Y":27.949964959999999,"LONGLAT":"-82.44524124,27.94996496","USNG":"17R LL 57826 92500","OWNERSHIP":null,"PARCELID":"192919ZZZ000005933000A","FACILITY_TYPE":"COMMERCIAL PORTS"}},{"type":"Feature","id":4,"geometry":{"type":"Point","coordinates":[-87.258860555568063,30.407397067810525]},"properties":{"OBJECTID":4,"Name":"PENSACOLA, FL","Address":" ","City":"PENSACOLA","Zip":"32507","COUNTY":"ESCAMBIA","X":-87.258860560000002,"Y":30.407397069999998,"LONGLAT":"-87.25886056,30.40739707","USNG":"16R DU 75136 63958","OWNERSHIP":null,"PARCELID":null,"FACILITY_TYPE":"COMMERCIAL PORTS"}},{"type":"Feature","id":5,"geometry":{"type":"Point","coordinates":[-82.44096141672955,27.943899300378025]},"properties":{"OBJECTID":5,"Name":"PORT YBOR","Address":"5 20TH STREET S AT GRANT STREET","City":"TAMPA","Zip":"33605","COUNTY":"HILLSBOROUGH","X":-82.440961419999994,"Y":27.943899300000002,"LONGLAT":"-82.44096142,27.94389930","USNG":"17R LL 58239 91823","OWNERSHIP":null,"PARCELID":"192919ZZZ000005939700A","FACILITY_TYPE":"COMMERCIAL PORTS"}},{"type":"Feature","id":6,"geometry":{"type":"Point","coordinates":[-80.053734011802518,26.767883535229544]},"properties":{"OBJECTID":6,"Name":"PORT OF PALM BEACH","Address":"1 E 11TH STREET","City":"WEST PALM BEACH","Zip":"33404","COUNTY":"PALM BEACH","X":-80.053734009999999,"Y":26.76788354,"LONGLAT":"-80.05373401,26.76788354","USNG":"17R NK 94078 61076","OWNERSHIP":null,"PARCELID":"56434233190010100","FACILITY_TYPE":"COMMERCIAL PORTS"}},{"type":"Feature","id":7,"geometry":{"type":"Point","coordinates":[-82.444163591367158,27.945500386734189]},"properties":{"OBJECTID":7,"Name":"PORT OF TAMPA - CRUISE TERMINAL","Address":"815 CHANNELSIDE DRIVE","City":"TAMPA","Zip":"33602","COUNTY":"HILLSBOROUGH","X":-82.444163590000002,"Y":27.945500389999999,"LONGLAT":"-82.44416359,27.94550039","USNG":"17R LL 57926 92004","OWNERSHIP":"COUNTY","PARCELID":"192919ZZZ000005933100A","FACILITY_TYPE":"COMMERCIAL PORTS"}},{"type":"Feature","id":8,"geometry":{"type":"Point","coordinates":[-82.557893369978785,27.633894093358403]},"properties":{"OBJECTID":8,"Name":"PORT MANATEE","Address":"300 TAMPA BAY WAY","City":"PALMETTO","Zip":"34221","COUNTY":"MANATEE","X":-82.557893370000002,"Y":27.633894089999998,"LONGLAT":"-82.55789337,27.63389409","USNG":"17R LL 46298 57617","OWNERSHIP":null,"PARCELID":"2059701109","FACILITY_TYPE":"COMMERCIAL PORTS"}},{"type":"Feature","id":9,"geometry":{"type":"Point","coordinates":[-80.639082659025632,28.409166694277491]},"properties":{"OBJECTID":9,"Name":"CANAVERAL LOCK ON THE BANANA RIVER","Address":"1000 MULLET RD","City":"CAPE CANAVERAL","Zip":"32920","COUNTY":"BREVARD","X":-80.63908266,"Y":28.4091667,"LONGLAT":"-80.63908266,28.40916670","USNG":"17R NM 35351 42582","OWNERSHIP":null,"PARCELID":null,"FACILITY_TYPE":"COMMERCIAL PORTS"}},{"type":"Feature","id":10,"geometry":{"type":"Point","coordinates":[-80.325876382539121,27.458214966833747]},"properties":{"OBJECTID":10,"Name":"PORT OF FORT PIERCE","Address":"US HWY 1","City":"FORT PIERCE","Zip":"34950","COUNTY":"ST. LUCIE","X":-80.325876379999997,"Y":27.45821497,"LONGLAT":"-80.32587638,27.45821497","USNG":"17R NL 66610 37369","OWNERSHIP":null,"PARCELID":"2403-314-0005-000-2","FACILITY_TYPE":"COMMERCIAL PORTS"}},{"type":"Feature","id":11,"geometry":{"type":"Point","coordinates":[-80.175609455360643,25.774640572008995]},"properties":{"OBJECTID":11,"Name":"PORT OF MIAMI","Address":"1015 N AMERICA WAY","City":"MIAMI","Zip":"33132","COUNTY":"MIAMI-DADE","X":-80.175609460000004,"Y":25.774640569999999,"LONGLAT":"-80.17560946,25.77464057","USNG":"17R NJ 82661 50985","OWNERSHIP":null,"PARCELID":null,"FACILITY_TYPE":"COMMERCIAL PORTS"}},{"type":"Feature","id":12,"geometry":{"type":"Point","coordinates":[-82.433647444397891,27.92897833403952]},"properties":{"OBJECTID":12,"Name":"TAMPA PORT AUTHORITY GENERAL CARGO FACILITY","Address":"2302 GUY NORTH VERGER BOULEVARD","City":"TAMPA","Zip":"33605","COUNTY":"HILLSBOROUGH","X":-82.433647440000001,"Y":27.92897833,"LONGLAT":"-82.43364744,27.92897833","USNG":"17R LL 58939 90161","OWNERSHIP":"COUNTY","PARCELID":"192929ZZZ000005944300A","FACILITY_TYPE":"COMMERCIAL PORTS"}},{"type":"Feature","id":13,"geometry":{"type":"Point","coordinates":[-87.293962973066698,30.350317258204491]},"properties":{"OBJECTID":13,"Name":"NAS PENSACOLA PORT-PORTT OPERATIONS QUARTER-DECK","Address":"150 HASE RD","City":"PENSACOLA","Zip":"32508","COUNTY":"ESCAMBIA","X":-87.293962969999995,"Y":30.350317260000001,"LONGLAT":"-87.29396297,30.35031726","USNG":"16R DU 71748 57641","OWNERSHIP":null,"PARCELID":null,"FACILITY_TYPE":"COMMERCIAL PORTS"}},{"type":"Feature","id":14,"geometry":{"type":"Point","coordinates":[-85.729121473234073,30.179843834497483]},"properties":{"OBJECTID":14,"Name":"PORT PANAMA CITY","Address":"5321 W HIGHWAY 98","City":"PANAMA CITY","Zip":"32401","COUNTY":"BAY","X":-85.729121469999995,"Y":30.17984384,"LONGLAT":"-85.72912147,30.17984384","USNG":"16R FU 22356 39396","OWNERSHIP":null,"PARCELID":"27935-010-000","FACILITY_TYPE":"COMMERCIAL PORTS"}},{"type":"Feature","id":15,"geometry":{"type":"Point","coordinates":[-80.324469702495833,27.465849600536973]},"properties":{"OBJECTID":15,"Name":"Harbour Pointe","Address":" ","City":" ","Zip":"34950","COUNTY":"ST. LUCIE","X":-80.324469699999995,"Y":27.465849599999999,"LONGLAT":"-80.32446970,27.46584960","USNG":"17R NL 66745 38215","OWNERSHIP":null,"PARCELID":null,"FACILITY_TYPE":"COMMERCIAL PORTS"}},{"type":"Feature","id":16,"geometry":{"type":"Point","coordinates":[-82.446626800933984,27.943283497786648]},"properties":{"OBJECTID":16,"Name":"TAMPA PORT AUTHORITY CRUISE TERMINAL","Address":"651 CHANNELSIDE DRIVE","City":"TAMPA","Zip":"33602","COUNTY":"HILLSBOROUGH","X":-82.446626800000004,"Y":27.9432835,"LONGLAT":"-82.44662680,27.94328350","USNG":"17R LL 57681 91761","OWNERSHIP":null,"PARCELID":"192919ZZZ000005940400A","FACILITY_TYPE":"COMMERCIAL PORTS"}},{"type":"Feature","id":17,"geometry":{"type":"Point","coordinates":[-82.431312987681935,27.926212551331496]},"properties":{"OBJECTID":17,"Name":"CF INDUSTRIES TAMPA TERMINAL (PORT OF TAMPA)","Address":"2520 GUY VERGER BOULEVARD","City":"TAMPA","Zip":"33605","COUNTY":"HILLSBOROUGH","X":-82.431312989999995,"Y":27.926212549999999,"LONGLAT":"-82.43131299,27.92621255","USNG":"17R LL 59165 89852","OWNERSHIP":null,"PARCELID":"192929ZZZ000005944800A","FACILITY_TYPE":"COMMERCIAL PORTS"}},{"type":"Feature","id":18,"geometry":{"type":"Point","coordinates":[-81.790274858379419,24.561871853928505]},"properties":{"OBJECTID":18,"Name":"KEY WEST PORT/TRANSIT AUTHORITY","Address":"620 Palm Ave","City":"Key West","Zip":"33040","COUNTY":"MONROE","X":-81.790274859999997,"Y":24.561871849999999,"LONGLAT":"-81.79027486,24.56187185","USNG":"17R MH 19971 16665","OWNERSHIP":null,"PARCELID":null,"FACILITY_TYPE":"COMMERCIAL PORTS"}},{"type":"Feature","id":19,"geometry":{"type":"Point","coordinates":[-82.59890014673131,27.862166179938061]},"properties":{"OBJECTID":19,"Name":"WEEDON ISLAND, FL","Address":"1601 WEEDON ISLAND DR","City":"SAINT PETERSBURG","Zip":"33702","COUNTY":"PINELLAS","X":-82.598900150000006,"Y":27.862166179999999,"LONGLAT":"-82.59890015,27.86216618","USNG":"17R LL 42580 82960","OWNERSHIP":null,"PARCELID":"17 30 21 00000 100 0000","FACILITY_TYPE":"COMMERCIAL PORTS"}},{"type":"Feature","id":20,"geometry":{"type":"Point","coordinates":[-80.122068761802709,26.087960810098721]},"properties":{"OBJECTID":20,"Name":"PORT EVERGLADES","Address":"1850 ELLER DRIVE","City":"FORT LAUDERDALE","Zip":"33316","COUNTY":"BROWARD","X":-80.122068760000005,"Y":26.087960809999998,"LONGLAT":"-80.12206876,26.08796081","USNG":"17R NJ 87797 85720","OWNERSHIP":"COUNTY","PARCELID":"504223250010","FACILITY_TYPE":"COMMERCIAL PORTS"}},{"type":"Feature","id":21,"geometry":{"type":"Point","coordinates":[-80.051948011950699,26.770543884546438]},"properties":{"OBJECTID":21,"Name":"PORT OF PALM BEACH","Address":"1 E 11TH ST STE 600","City":"WEST PALM BEACH","Zip":"33404","COUNTY":"PALM BEACH","X":-80.051948010000004,"Y":26.770543889999999,"LONGLAT":"-80.05194801,26.77054389","USNG":"17R NK 94253 61372","OWNERSHIP":"SPECIAL TAXING DISTRICT","PARCELID":null,"FACILITY_TYPE":"COMMERCIAL PORTS"}},{"type":"Feature","id":22,"geometry":{"type":"Point","coordinates":[-80.60881586759551,28.41553902236129]},"properties":{"OBJECTID":22,"Name":"PORT CANAVERAL, FL","Address":"WAREHOUSE RD","City":"CAPE CANAVERAL","Zip":"32920","COUNTY":"BREVARD","X":-80.608815870000001,"Y":28.415539020000001,"LONGLAT":"-80.60881587,28.41553902","USNG":"17R NM 38313 43297","OWNERSHIP":null,"PARCELID":null,"FACILITY_TYPE":"COMMERCIAL PORTS"}},{"type":"Feature","id":23,"geometry":{"type":"Point","coordinates":[-82.629998280859411,27.770092758451632]},"properties":{"OBJECTID":23,"Name":"PORT OF ST. PETERSBURG","Address":"300 2ND AVENUE SE","City":"SAINT PETERSBURG","Zip":"33701","COUNTY":"PINELLAS","X":-82.629998279999995,"Y":27.770092760000001,"LONGLAT":"-82.62999828,27.77009276","USNG":"17R LL 39383 72799","OWNERSHIP":"MUNICIPAL","PARCELID":"17 31 19 74466 000 0061","FACILITY_TYPE":"COMMERCIAL PORTS"}},{"type":"Feature","id":24,"geometry":{"type":"Point","coordinates":[-82.734975068958121,27.529461738042851]},"properties":{"OBJECTID":24,"Name":"CITY OF ANNA MARIA - PUBLIC WORKS FACILITY","Address":"402 PINE AVE","City":"BRADENTON BEACH","Zip":"34217","COUNTY":"MANATEE","X":-82.734975070000004,"Y":27.529461739999999,"LONGLAT":"-82.73497507,27.52946174","USNG":"17R LL 28662 46279","OWNERSHIP":"MUNICIPAL","PARCELID":"7040900008","FACILITY_TYPE":"COMMERCIAL PORTS"}},{"type":"Feature","id":25,"geometry":{"type":"Point","coordinates":[-81.623001149376492,30.352926584976927]},"properties":{"OBJECTID":25,"Name":"JACKSONVILLE PORT AUTHORITY (JAXPORT)","Address":"2831 TALLEYRAND AVE","City":"JACKSONVILLE","Zip":"32206","COUNTY":"DUVAL","X":-81.623001149999993,"Y":30.352926589999999,"LONGLAT":"-81.62300115,30.35292659","USNG":"17R MP 40126 58058","OWNERSHIP":"COUNTY","PARCELID":"1153275000R","FACILITY_TYPE":"COMMERCIAL PORTS"}},{"type":"Feature","id":26,"geometry":{"type":"Point","coordinates":[-80.612583428958189,28.403861905642032]},"properties":{"OBJECTID":26,"Name":"CANAVERAL PORT AUTHORITY","Address":" ","City":"CAPE CANAVERAL","Zip":"32920","COUNTY":"BREVARD","X":-80.612583430000001,"Y":28.40386191,"LONGLAT":"-80.61258343,28.40386191","USNG":"17R NM 37948 42002","OWNERSHIP":"COUNTY","PARCELID":"24 371500   19","FACILITY_TYPE":"COMMERCIAL PORTS"}},{"type":"Feature","id":27,"geometry":{"type":"Point","coordinates":[-82.44382489890242,27.949595473991799]},"properties":{"OBJECTID":27,"Name":"PORT OF TAMPA - CRUISE TERMINAL","Address":"1333 MCKAY STREET","City":"TAMPA","Zip":"33602","COUNTY":"HILLSBOROUGH","X":-82.443824899999996,"Y":27.949595469999998,"LONGLAT":"-82.44382490,27.94959547","USNG":"17R LL 57965 92457","OWNERSHIP":"COUNTY","PARCELID":"1929194WZ000012000000A","FACILITY_TYPE":"COMMERCIAL PORTS"}}]}