{"type":"FeatureCollection","features":[{"type":"Feature","id":1,"geometry":{"type":"Point","coordinates":[-81.816521121744714,26.753161676723931]},"properties":{"OBJECTID":1,"Name":"REYES TREE FARM INC - Verizon Wireless","Address":"8550 NALLE GRADE RD","City":"NORTH FORT MYERS","Zip":"33917","COUNTY":null,"X":-81.816521120000004,"Y":26.753161680000002,"LONGLAT":"-81.81652112,26.75316168","USNG":"17R MK 18810 59356","OWNERSHIP":null,"PARCELID":null,"FACILITY_TYPE":"RADIO COMMUNICATIONS TOWER"}},{"type":"Feature","id":2,"geometry":{"type":"Point","coordinates":[-81.966873844045949,28.525922063229643]},"properties":{"OBJECTID":2,"Name":"COMM TOWER","Address":" ","City":" ","Zip":" ","COUNTY":null,"X":-81.966873840000005,"Y":28.525922059999999,"LONGLAT":"-81.96687384,28.52592206","USNG":"17R MM 05397 55844","OWNERSHIP":null,"PARCELID":null,"FACILITY_TYPE":"RADIO COMMUNICATIONS TOWER"}},{"type":"Feature","id":3,"geometry":{"type":"Point","coordinates":[-81.68347864644079,26.618302976790542]},"properties":{"OBJECTID":3,"Name":"LEHIGH ACRES JAYCEES INC","Address":"500 SUNSHINE BLVD N","City":"500 SUNSHINE BLVD N","Zip":" ","COUNTY":null,"X":-81.683478649999998,"Y":26.618302979999999,"LONGLAT":"-81.68347865,26.61830298","USNG":"17R MK 31960 44341","OWNERSHIP":null,"PARCELID":null,"FACILITY_TYPE":"RADIO COMMUNICATIONS TOWER"}},{"type":"Feature","id":4,"geometry":{"type":"Point","coordinates":[-81.763910426770934,26.724132620962965]},"properties":{"OBJECTID":4,"Name":"LEE COUNTY","Address":"11831 BAYSHORE RD","City":"NORTH FORT MYERS","Zip":"33917","COUNTY":null,"X":-81.763910429999996,"Y":26.724132619999999,"LONGLAT":"-81.76391043,26.72413262","USNG":"17R MK 24023 56108","OWNERSHIP":null,"PARCELID":null,"FACILITY_TYPE":"RADIO COMMUNICATIONS TOWER"}},{"type":"Feature","id":5,"geometry":{"type":"Point","coordinates":[-82.025300000821247,26.640299998694903]},"properties":{"OBJECTID":5,"Name":"FIBERTOWER NETWORK SERVICES CORP.","Address":"2437 SW PINE ISLAND RD","City":"CAPE CORAL","Zip":"33991","COUNTY":null,"X":-82.025300000000001,"Y":26.6403,"LONGLAT":"-82.02530000,26.64030000","USNG":"17R LK 97949 47005","OWNERSHIP":null,"PARCELID":null,"FACILITY_TYPE":"RADIO COMMUNICATIONS TOWER"}},{"type":"Feature","id":6,"geometry":{"type":"Point","coordinates":[-81.969846848871811,28.528457396022464]},"properties":{"OBJECTID":6,"Name":"COMM TOWER","Address":" ","City":" ","Zip":" ","COUNTY":null,"X":-81.969846849999996,"Y":28.528457400000001,"LONGLAT":"-81.96984685,28.52845740","USNG":"17R MM 05108 56128","OWNERSHIP":null,"PARCELID":null,"FACILITY_TYPE":"RADIO COMMUNICATIONS TOWER"}},{"type":"Feature","id":7,"geometry":{"type":"Point","coordinates":[-81.756099999809791,26.328899999437429]},"properties":{"OBJECTID":7,"Name":"CAPITAL TELECOM","Address":"11941 BONITA BEACH RD SE","City":"Bonita Springs","Zip":"34135","COUNTY":null,"X":-81.756100000000004,"Y":26.328900000000001,"LONGLAT":"-81.75610000,26.32890000","USNG":"17R MK 24541 12329","OWNERSHIP":null,"PARCELID":null,"FACILITY_TYPE":"RADIO COMMUNICATIONS TOWER"}},{"type":"Feature","id":8,"geometry":{"type":"Point","coordinates":[-81.791057305047218,26.468880643376423]},"properties":{"OBJECTID":8,"Name":"VERIZON WIRELESS","Address":"THREE OAKS PKWY","City":"FORT MYERS","Zip":"33967","COUNTY":null,"X":-81.791057309999999,"Y":26.468880639999998,"LONGLAT":"-81.79105731,26.46888064","USNG":"17R MK 21148 27853","OWNERSHIP":null,"PARCELID":null,"FACILITY_TYPE":"RADIO COMMUNICATIONS TOWER"}},{"type":"Feature","id":9,"geometry":{"type":"Point","coordinates":[-81.447388998941861,29.663527998141252]},"properties":{"OBJECTID":9,"Name":"SELF-SUPPORTING TOWER","Address":" ","City":" ","Zip":" ","COUNTY":null,"X":-81.447389000000001,"Y":29.663527999999999,"LONGLAT":"-81.44738900,29.66352800","USNG":"17R MN 56705 81586","OWNERSHIP":null,"PARCELID":null,"FACILITY_TYPE":"RADIO COMMUNICATIONS TOWER"}},{"type":"Feature","id":10,"geometry":{"type":"Point","coordinates":[-82.025300000821247,26.640299998694903]},"properties":{"OBJECTID":10,"Name":"FIBERTOWER NETWORK SERVICES CORP.","Address":"2437 SW PINE ISLAND RD","City":"CAPE CORAL","Zip":"33991","COUNTY":null,"X":-82.025300000000001,"Y":26.6403,"LONGLAT":"-82.02530000,26.64030000","USNG":"17R LK 97949 47005","OWNERSHIP":null,"PARCELID":null,"FACILITY_TYPE":"RADIO COMMUNICATIONS TOWER"}},{"type":"Feature","id":11,"geometry":{"type":"Point","coordinates":[-81.424139000457131,30.045277999747114]},"properties":{"OBJECTID":11,"Name":"Communications Tower","Address":"235 N Stratton Rd","City":" ","Zip":" ","COUNTY":null,"X":-81.424138999999997,"Y":30.045278,"LONGLAT":"-81.42413900,30.04527800","USNG":"17R MP 59111 23878","OWNERSHIP":null,"PARCELID":null,"FACILITY_TYPE":"RADIO COMMUNICATIONS TOWER"}},{"type":"Feature","id":12,"geometry":{"type":"Point","coordinates":[-81.596146311356065,29.998184705981995]},"properties":{"OBJECTID":12,"Name":"VERIZON,T-MOBILE, METROPCS","Address":"5600 SR 13 N","City":" ","Zip":" ","COUNTY":null,"X":-81.596146309999995,"Y":29.99818471,"LONGLAT":"-81.59614631,29.99818471","USNG":"17R MP 42501 18733","OWNERSHIP":null,"PARCELID":null,"FACILITY_TYPE":"RADIO COMMUNICATIONS TOWER"}},{"type":"Feature","id":13,"geometry":{"type":"Point","coordinates":[-81.492343075912146,30.101016643314289]},"properties":{"OBJECTID":13,"Name":"Communications Tower","Address":"6146 Race Track Rd","City":" ","Zip":" ","COUNTY":null,"X":-81.492343079999998,"Y":30.101016640000001,"LONGLAT":"-81.49234308,30.10101664","USNG":"17R MP 52562 30081","OWNERSHIP":null,"PARCELID":null,"FACILITY_TYPE":"RADIO COMMUNICATIONS TOWER"}},{"type":"Feature","id":14,"geometry":{"type":"Point","coordinates":[-81.965779516970457,28.534223698480126]},"properties":{"OBJECTID":14,"Name":"COMM TOWER","Address":" ","City":" ","Zip":" ","COUNTY":null,"X":-81.965779519999998,"Y":28.534223699999998,"LONGLAT":"-81.96577952,28.53422370","USNG":"17R MM 05512 56763","OWNERSHIP":null,"PARCELID":null,"FACILITY_TYPE":"RADIO COMMUNICATIONS TOWER"}},{"type":"Feature","id":15,"geometry":{"type":"Point","coordinates":[-82.403992068913908,29.765154925307048]},"properties":{"OBJECTID":15,"Name":"ALACHUA COUNTY SHERIFFS OFFICE","Address":"0.2 MILE NNE FROM SR25/SRR25A INTERSECT*","City":"GAINESVILLE","Zip":" ","COUNTY":"ALACHUA","X":-82.403992070000001,"Y":29.765154930000001,"LONGLAT":"-82.40399207,29.76515493","USNG":"17R LN 64263 93588","OWNERSHIP":null,"PARCELID":null,"FACILITY_TYPE":"RADIO COMMUNICATIONS TOWER"}},{"type":"Feature","id":16,"geometry":{"type":"Point","coordinates":[-82.279243198473267,29.643232123712821]},"properties":{"OBJECTID":16,"Name":"NEW CINGULAR WIRELESS PCS, LLC","Address":"3500 SE HAWTHORNE RD","City":"GAINESVILLE","Zip":"32641","COUNTY":"ALACHUA","X":-82.279243199999996,"Y":29.64323212,"LONGLAT":"-82.27924320,29.64323212","USNG":"17R LN 76175 79937","OWNERSHIP":null,"PARCELID":"16127 002 002","FACILITY_TYPE":"RADIO COMMUNICATIONS TOWER"}},{"type":"Feature","id":17,"geometry":{"type":"Point","coordinates":[-82.157564464290502,29.760424526872065]},"properties":{"OBJECTID":17,"Name":"NEW CINGULAR WIRELESS PCS, LLC","Address":"15605 NE 116TH AVE","City":"WALDO","Zip":"32694","COUNTY":"ALACHUA","X":-82.157564460000003,"Y":29.760424530000002,"LONGLAT":"-82.15756446,29.76042453","USNG":"17R LN 88084 92800","OWNERSHIP":null,"PARCELID":"17561 001 000","FACILITY_TYPE":"RADIO COMMUNICATIONS TOWER"}},{"type":"Feature","id":18,"geometry":{"type":"Point","coordinates":[-82.407956879166733,29.756416299837397]},"properties":{"OBJECTID":18,"Name":"GATOR TOWER MANAGEMENT INC","Address":"11095 NW 59TH TER","City":"ALACHUA","Zip":"32615","COUNTY":"ALACHUA","X":-82.40795688,"Y":29.756416300000001,"LONGLAT":"-82.40795688,29.75641630","USNG":"17R LN 63868 92625","OWNERSHIP":null,"PARCELID":"05885 004 001","FACILITY_TYPE":"RADIO COMMUNICATIONS TOWER"}},{"type":"Feature","id":19,"geometry":{"type":"Point","coordinates":[-82.165558388084108,29.834238299100907]},"properties":{"OBJECTID":19,"Name":"CROWN CASTLE PT, INC.","Address":"19403 N.E. US HWY 301","City":"WALDO","Zip":"32694","COUNTY":"ALACHUA","X":-82.165558390000001,"Y":29.834238299999999,"LONGLAT":"-82.16555839,29.83423830","USNG":"17R LP 87394 00987","OWNERSHIP":null,"PARCELID":"16918 001 001","FACILITY_TYPE":"RADIO COMMUNICATIONS TOWER"}},{"type":"Feature","id":20,"geometry":{"type":"Point","coordinates":[-82.391040789750306,29.59758891328481]},"properties":{"OBJECTID":20,"Name":"ALLTEL COMMUNICATIONS, LLC","Address":"APPROX 4/10 MI N OR SR-121 ON 62ND ST.","City":"GAINESVILLE","Zip":"32608","COUNTY":"ALACHUA","X":-82.391040790000005,"Y":29.597588909999999,"LONGLAT":"-82.39104079,29.59758891","USNG":"17R LN 65292 75004","OWNERSHIP":null,"PARCELID":"06991 000 000","FACILITY_TYPE":"RADIO COMMUNICATIONS TOWER"}},{"type":"Feature","id":21,"geometry":{"type":"Point","coordinates":[-82.307358935565333,29.701950135959116]},"properties":{"OBJECTID":21,"Name":"VERIZON WIRELESS PERSONAL COMMUNICATIONS LP","Address":"5202 NE 15TH ST","City":"GAINESVILLE","Zip":"32609","COUNTY":"ALACHUA","X":-82.30735894,"Y":29.701950140000001,"LONGLAT":"-82.30735894,29.70195014","USNG":"17R LN 73527 86474","OWNERSHIP":null,"PARCELID":"08159 001 000","FACILITY_TYPE":"RADIO COMMUNICATIONS TOWER"}},{"type":"Feature","id":22,"geometry":{"type":"Point","coordinates":[-82.446073707634923,29.68764436218969]},"properties":{"OBJECTID":22,"Name":"FLORIDA, STATE OF","Address":"INT OF I75 AND SR 222 - EXIT 390","City":"GAINESVILLE","Zip":"32606","COUNTY":"ALACHUA","X":-82.446073709999993,"Y":29.68764436,"LONGLAT":"-82.44607371,29.68764436","USNG":"17R LN 60087 85049","OWNERSHIP":null,"PARCELID":null,"FACILITY_TYPE":"RADIO COMMUNICATIONS TOWER"}},{"type":"Feature","id":23,"geometry":{"type":"Point","coordinates":[-82.394710203921377,29.709833911410627]},"properties":{"OBJECTID":23,"Name":"UNIVERSITY OF FLORIDA  DBA =  WUFT-TV/FM","Address":"4732 NW 53RD AVE","City":"GAINESVILLE","Zip":"32653","COUNTY":"ALACHUA","X":-82.394710200000006,"Y":29.70983391,"LONGLAT":"-82.39471020,29.70983391","USNG":"17R LN 65086 87447","OWNERSHIP":null,"PARCELID":"06021 000 000","FACILITY_TYPE":"TELEVISION"}},{"type":"Feature","id":24,"geometry":{"type":"Point","coordinates":[-82.419749885466757,29.644126995886698]},"properties":{"OBJECTID":24,"Name":"BOARD OF REGENTS  DBA =  UNIVERSITY OF FLORIDA","Address":"TWR 2 - 7107 SW 8TH AVE","City":"GAINESVILLE","Zip":"32607","COUNTY":"ALACHUA","X":-82.419749890000006,"Y":29.644127000000001,"LONGLAT":"-82.41974989,29.64412700","USNG":"17R LN 62575 80195","OWNERSHIP":null,"PARCELID":"06674 000 000","FACILITY_TYPE":"TELEVISION"}},{"type":"Feature","id":25,"geometry":{"type":"Point","coordinates":[-82.321347161842183,29.53606993950126]},"properties":{"OBJECTID":25,"Name":"GATOR BROADCASTING CORPORATION","Address":"200 SE 134TH AVENUE","City":"MICANOPY","Zip":"32667","COUNTY":"ALACHUA","X":-82.321347160000002,"Y":29.536069940000001,"LONGLAT":"-82.32134716,29.53606994","USNG":"17R LN 71964 68107","OWNERSHIP":null,"PARCELID":"16416 002 000","FACILITY_TYPE":"TELEVISION"}},{"type":"Feature","id":26,"geometry":{"type":"Point","coordinates":[-82.573355200502661,29.629939509412552]},"properties":{"OBJECTID":26,"Name":"BUDD BROADCASTING COMPANY, INC.","Address":"21726 SW 30TH AVE","City":"NEWBERRY","Zip":"32669","COUNTY":"ALACHUA","X":-82.573355199999995,"Y":29.62993951,"LONGLAT":"-82.57335520,29.62993951","USNG":"17R LN 47683 78814","OWNERSHIP":null,"PARCELID":"02556 002 000","FACILITY_TYPE":"TELEVISION"}},{"type":"Feature","id":27,"geometry":{"type":"Point","coordinates":[-82.419138991985776,29.643648616226855]},"properties":{"OBJECTID":27,"Name":"BOARD OF REGENTS  DBA =  UNIVERSITY OF FLORIDA","Address":"TWR 1 - 7107 SW 8TH AVE","City":"GAINESVILLE","Zip":"32607","COUNTY":"ALACHUA","X":-82.419138989999993,"Y":29.64364862,"LONGLAT":"-82.41913899,29.64364862","USNG":"17R LN 62633 80141","OWNERSHIP":null,"PARCELID":"06674 000 000","FACILITY_TYPE":"TELEVISION"}},{"type":"Feature","id":28,"geometry":{"type":"Point","coordinates":[-82.573460818386408,29.629806716205341]},"properties":{"OBJECTID":28,"Name":"BUDD BROADCASTING COMPANY, INC.","Address":"21726 SW 30TH AVE.","City":"NEWBERRY","Zip":"32669","COUNTY":"ALACHUA","X":-82.573460819999994,"Y":29.629806720000001,"LONGLAT":"-82.57346082,29.62980672","USNG":"17R LN 47673 78800","OWNERSHIP":null,"PARCELID":"02556 002 000","FACILITY_TYPE":"TELEVISION"}},{"type":"Feature","id":29,"geometry":{"type":"Point","coordinates":[-82.399980832916029,29.53654227552197]},"properties":{"OBJECTID":29,"Name":"WCJB-TV 20","Address":"1.35 MILES SOUTH OF","City":"MICANOPY","Zip":"32667","COUNTY":"ALACHUA","X":-82.399980830000004,"Y":29.536542279999999,"LONGLAT":"-82.39998083,29.53654228","USNG":"17R LN 64345 68249","OWNERSHIP":null,"PARCELID":"07397 004 002","FACILITY_TYPE":"TELEVISION"}},{"type":"Feature","id":30,"geometry":{"type":"Point","coordinates":[-82.386563124886166,29.740010705819774]},"properties":{"OBJECTID":30,"Name":"TOWER PROPERTIES OF FLORIDA INC","Address":"4190 NW 93RD AVE","City":"GAINESVILLE","Zip":"32653","COUNTY":"ALACHUA","X":-82.386563120000005,"Y":29.74001071,"LONGLAT":"-82.38656312,29.74001071","USNG":"17R LN 65915 90781","OWNERSHIP":null,"PARCELID":"05975 000 000","FACILITY_TYPE":"TELEVISION"}},{"type":"Feature","id":31,"geometry":{"type":"Point","coordinates":[-82.32629236256038,29.635768547723153]},"properties":{"OBJECTID":31,"Name":"AMERICAN TOWERS, INC.","Address":"1609 S MAIN ST  (GAINSVILLE  /  075118)","City":"GAINESVILLE","Zip":"32601","COUNTY":"ALACHUA","X":-82.326292359999997,"Y":29.635768550000002,"LONGLAT":"-82.32629236,29.63576855","USNG":"17R LN 71611 79161","OWNERSHIP":null,"PARCELID":"15701 008 000","FACILITY_TYPE":"TELEVISION"}},{"type":"Feature","id":32,"geometry":{"type":"Point","coordinates":[-82.292100000659644,29.6817999988941]},"properties":{"OBJECTID":32,"Name":"PINNACLE TOWERS ACQUISITION LLC","Address":"2150 NE 31ST AVE.","City":"GAINESVILLE","Zip":"32609","COUNTY":"ALACHUA","X":-82.292100000000005,"Y":29.681799999999999,"LONGLAT":"-82.29210000,29.68180000","USNG":"17R LN 74978 84225","OWNERSHIP":null,"PARCELID":"08198 018 000","FACILITY_TYPE":"RADIO COMMUNICATIONS TOWER"}},{"type":"Feature","id":33,"geometry":{"type":"Point","coordinates":[-82.274670611555877,29.684766889974263]},"properties":{"OBJECTID":33,"Name":"SBA TOWERS II LLC","Address":"940' SW OF THE ATCT","City":"GAINESVILLE","Zip":"32609","COUNTY":"ALACHUA","X":-82.274670610000001,"Y":29.684766889999999,"LONGLAT":"-82.27467061,29.68476689","USNG":"17R LN 76669 84535","OWNERSHIP":null,"PARCELID":"08161 000 000","FACILITY_TYPE":"RADIO COMMUNICATIONS TOWER"}},{"type":"Feature","id":34,"geometry":{"type":"Point","coordinates":[-82.552655995068619,29.88327769475654]},"properties":{"OBJECTID":34,"Name":"AMERICAN TOWERS, INC.","Address":"24017 OLD BELLAMY ROAD (002546 / TRAXLE*","City":"HIGH SPRINGS","Zip":"32643","COUNTY":"ALACHUA","X":-82.552655999999999,"Y":29.883277700000001,"LONGLAT":"-82.55265600,29.88327770","USNG":"17R LP 50065 06864","OWNERSHIP":null,"PARCELID":"00020 000 000","FACILITY_TYPE":"RADIO COMMUNICATIONS TOWER"}},{"type":"Feature","id":35,"geometry":{"type":"Point","coordinates":[-82.278957259029994,29.695626021172245]},"properties":{"OBJECTID":35,"Name":"ITT","Address":"3609 NE 47TH AVE","City":"GAINESVILLE","Zip":"32609","COUNTY":"ALACHUA","X":-82.278957259999999,"Y":29.695626019999999,"LONGLAT":"-82.27895726,29.69562602","USNG":"17R LN 76267 85743","OWNERSHIP":null,"PARCELID":"08161 000 000","FACILITY_TYPE":"RADIO COMMUNICATIONS TOWER"}},{"type":"Feature","id":36,"geometry":{"type":"Point","coordinates":[-82.562955559784257,29.823785435939438]},"properties":{"OBJECTID":36,"Name":"SBA TOWERS, INC.","Address":"1010 NE 34TH STREET","City":"HIGH SPRINGS","Zip":"32643","COUNTY":"ALACHUA","X":-82.562955560000006,"Y":29.823785440000002,"LONGLAT":"-82.56295556,29.82378544","USNG":"17R LP 48981 00284","OWNERSHIP":null,"PARCELID":"00251 000 000","FACILITY_TYPE":"RADIO COMMUNICATIONS TOWER"}},{"type":"Feature","id":37,"geometry":{"type":"Point","coordinates":[-82.605000000332012,29.813999999354834]},"properties":{"OBJECTID":37,"Name":"PROGRESS ENERGY SERVICE COMPANY, LLC","Address":"HIGH SPRINGS MW BLDG","City":"HIGH SPRINGS","Zip":"32643","COUNTY":"ALACHUA","X":-82.605000000000004,"Y":29.814,"LONGLAT":"-82.60500000,29.81400000","USNG":"17R LN 44903 99255","OWNERSHIP":null,"PARCELID":"01489 000 000","FACILITY_TYPE":"RADIO COMMUNICATIONS TOWER"}},{"type":"Feature","id":38,"geometry":{"type":"Point","coordinates":[-82.3898460220082,29.709827460907562]},"properties":{"OBJECTID":38,"Name":"COX COMMUNICATIONS, INC.","Address":"6020 NW 43RD STREET","City":"GAINESVILLE","Zip":"32653","COUNTY":"ALACHUA","X":-82.389846019999993,"Y":29.70982746,"LONGLAT":"-82.38984602,29.70982746","USNG":"17R LN 65557 87440","OWNERSHIP":null,"PARCELID":"06022 001 000","FACILITY_TYPE":"RADIO COMMUNICATIONS TOWER"}},{"type":"Feature","id":39,"geometry":{"type":"Point","coordinates":[-82.393320639170341,29.577556690667688]},"properties":{"OBJECTID":39,"Name":"NEW CINGULAR WIRELESS PCS, LLC","Address":"4770 SW 85TH AVE","City":"GAINESVILLE","Zip":"32608","COUNTY":"ALACHUA","X":-82.393320639999999,"Y":29.577556690000002,"LONGLAT":"-82.39332064,29.57755669","USNG":"17R LN 65045 72786","OWNERSHIP":null,"PARCELID":"07234 000 000","FACILITY_TYPE":"RADIO COMMUNICATIONS TOWER"}},{"type":"Feature","id":40,"geometry":{"type":"Point","coordinates":[-82.491699999829891,29.802199999824332]},"properties":{"OBJECTID":40,"Name":"ALLTEL COMMUNICATIONS, LLC","Address":"ON RTE. 235, 500 N OF RT. 241  (ALACHUA*","City":"ALACHUA","Zip":"32615","COUNTY":"ALACHUA","X":-82.491699999999994,"Y":29.802199999999999,"LONGLAT":"-82.49170000,29.80220000","USNG":"17R LN 55836 97800","OWNERSHIP":null,"PARCELID":"03129 004 000","FACILITY_TYPE":"RADIO COMMUNICATIONS TOWER"}},{"type":"Feature","id":41,"geometry":{"type":"Point","coordinates":[-82.305316926905647,29.816681165166479]},"properties":{"OBJECTID":41,"Name":"NEW CINGULAR WIRELESS PCS, LLC","Address":"18214 NE 21ST ST","City":"GAINESVILLE","Zip":"32609","COUNTY":"ALACHUA","X":-82.305316930000004,"Y":29.816681169999999,"LONGLAT":"-82.30531693,29.81668117","USNG":"17R LN 73868 99186","OWNERSHIP":null,"PARCELID":"07629 001 000","FACILITY_TYPE":"RADIO COMMUNICATIONS TOWER"}},{"type":"Feature","id":42,"geometry":{"type":"Point","coordinates":[-82.389849866766028,29.709983743301549]},"properties":{"OBJECTID":42,"Name":"COX COMMUNICATIONS, INC.","Address":"6020 NW 43RD STREET","City":"GAINESVILLE","Zip":"32653","COUNTY":"ALACHUA","X":-82.389849870000006,"Y":29.709983739999998,"LONGLAT":"-82.38984987,29.70998374","USNG":"17R LN 65557 87458","OWNERSHIP":null,"PARCELID":"06022 001 000","FACILITY_TYPE":"RADIO COMMUNICATIONS TOWER"}},{"type":"Feature","id":43,"geometry":{"type":"Point","coordinates":[-82.323576729981724,29.534397691219354]},"properties":{"OBJECTID":43,"Name":"AMERICAN TOWERS, INC.","Address":"RT 1 BOX 256","City":"MICANOPY","Zip":"32667","COUNTY":"ALACHUA","X":-82.323576729999999,"Y":29.534397689999999,"LONGLAT":"-82.32357673,29.53439769","USNG":"17R LN 71746 67924","OWNERSHIP":null,"PARCELID":"16416 000 000","FACILITY_TYPE":"RADIO COMMUNICATIONS TOWER"}},{"type":"Feature","id":44,"geometry":{"type":"Point","coordinates":[-82.496140726057945,29.756776107516494]},"properties":{"OBJECTID":44,"Name":"AMERICAN TOWERS, INC.","Address":"11302 140TH STREET  (WARREN COVE / 0027*","City":"ALACHUA","Zip":"32615","COUNTY":"ALACHUA","X":-82.496140729999993,"Y":29.756776110000001,"LONGLAT":"-82.49614073,29.75677611","USNG":"17R LN 55341 92772","OWNERSHIP":null,"PARCELID":"03978 000 000","FACILITY_TYPE":"RADIO COMMUNICATIONS TOWER"}},{"type":"Feature","id":45,"geometry":{"type":"Point","coordinates":[-82.386513884027721,29.705195063065201]},"properties":{"OBJECTID":45,"Name":"GAINESVILLE, CITY OF  DBA =  GAINESVILLE REGIONAL UTILITIES","Address":"4200 NW 53 AVE","City":"GAINESVILLE","Zip":"32653","COUNTY":"ALACHUA","X":-82.386513879999995,"Y":29.705195060000001,"LONGLAT":"-82.38651388,29.70519506","USNG":"17R LN 65873 86923","OWNERSHIP":null,"PARCELID":"06020 001 000","FACILITY_TYPE":"RADIO COMMUNICATIONS TOWER"}},{"type":"Feature","id":46,"geometry":{"type":"Point","coordinates":[-82.190054282624374,29.592661957816667]},"properties":{"OBJECTID":46,"Name":"TOWERCOM III","Address":"1/2 MILE SOUTH OF S.R. 20 ON WEST SIDE *","City":"GAINESVILLE","Zip":"32641","COUNTY":"ALACHUA","X":-82.190054279999998,"Y":29.592661960000001,"LONGLAT":"-82.19005428,29.59266196","USNG":"17R LN 84751 74241","OWNERSHIP":null,"PARCELID":"18113 000 000","FACILITY_TYPE":"RADIO COMMUNICATIONS TOWER"}},{"type":"Feature","id":47,"geometry":{"type":"Point","coordinates":[-82.327025769281704,29.649267920346869]},"properties":{"OBJECTID":47,"Name":"PINNACLE TOWERS LLC","Address":"212 SW 3RD AVE.","City":"GAINESVILLE","Zip":"32601","COUNTY":"ALACHUA","X":-82.327025770000006,"Y":29.64926792,"LONGLAT":"-82.32702577,29.64926792","USNG":"17R LN 71557 80658","OWNERSHIP":null,"PARCELID":"12966 001 000","FACILITY_TYPE":"RADIO COMMUNICATIONS TOWER"}},{"type":"Feature","id":48,"geometry":{"type":"Point","coordinates":[-82.303900000557491,29.665299999371701]},"properties":{"OBJECTID":48,"Name":"WALDO ROAD INVESMENTS, INC.","Address":"1440 NORTHEAST WALDO ROAD","City":"GAINESVILLE","Zip":"32601","COUNTY":"ALACHUA","X":-82.303899999999999,"Y":29.665299999999998,"LONGLAT":"-82.30390000,29.66530000","USNG":"17R LN 73816 82409","OWNERSHIP":null,"PARCELID":"10802 000 000","FACILITY_TYPE":"RADIO COMMUNICATIONS TOWER"}},{"type":"Feature","id":49,"geometry":{"type":"Point","coordinates":[-82.189392272600116,29.692974455726315]},"properties":{"OBJECTID":49,"Name":"T-MOBILE SOUTH LLC","Address":"12121 NE SR 26 (9JK0445B)","City":"GAINESVILLE","Zip":"32641","COUNTY":"ALACHUA","X":-82.189392269999999,"Y":29.692974459999999,"LONGLAT":"-82.18939227,29.69297446","USNG":"17R LN 84930 85356","OWNERSHIP":null,"PARCELID":"17699 002 000","FACILITY_TYPE":"RADIO COMMUNICATIONS TOWER"}},{"type":"Feature","id":50,"geometry":{"type":"Point","coordinates":[-82.390289255649407,29.711851985630879]},"properties":{"OBJECTID":50,"Name":"WCJB-TV20","Address":"6220 NW 43RD STREET","City":"GAINESVILLE","Zip":"32653","COUNTY":"ALACHUA","X":-82.390289260000003,"Y":29.71185199,"LONGLAT":"-82.39028926,29.71185199","USNG":"17R LN 65517 87665","OWNERSHIP":null,"PARCELID":"06022 002 000","FACILITY_TYPE":"RADIO COMMUNICATIONS TOWER"}},{"type":"Feature","id":51,"geometry":{"type":"Point","coordinates":[-82.506856114874381,29.774156560979812]},"properties":{"OBJECTID":51,"Name":"NEW CINGULAR WIRELESS PCS, LLC","Address":"13225 N.W. CR 235","City":"ALACHUA","Zip":"32615","COUNTY":"ALACHUA","X":-82.506856110000001,"Y":29.774156560000002,"LONGLAT":"-82.50685611,29.77415656","USNG":"17R LN 54330 94711","OWNERSHIP":null,"PARCELID":"03925 003 000","FACILITY_TYPE":"RADIO COMMUNICATIONS TOWER"}},{"type":"Feature","id":52,"geometry":{"type":"Point","coordinates":[-82.477240041676154,29.616564430237439]},"properties":{"OBJECTID":52,"Name":"CROWN CASTLE PT, INC.","Address":"4000 SW 122ND STREET","City":"ARCHER","Zip":"32618","COUNTY":"ALACHUA","X":-82.477240039999998,"Y":29.61656443,"LONGLAT":"-82.47724004,29.61656443","USNG":"17R LN 56970 77210","OWNERSHIP":null,"PARCELID":"04433 002 000","FACILITY_TYPE":"RADIO COMMUNICATIONS TOWER"}},{"type":"Feature","id":53,"geometry":{"type":"Point","coordinates":[-82.411394227560507,29.601787683965735]},"properties":{"OBJECTID":53,"Name":"NEW CINGULAR WIRELESS PCS, LLC","Address":"6505 SW ARCHER ROAD","City":"GAINESVILLE","Zip":"32608","COUNTY":"ALACHUA","X":-82.411394229999999,"Y":29.601787680000001,"LONGLAT":"-82.41139423,29.60178768","USNG":"17R LN 63326 75493","OWNERSHIP":null,"PARCELID":"06885 000 000","FACILITY_TYPE":"RADIO COMMUNICATIONS TOWER"}},{"type":"Feature","id":54,"geometry":{"type":"Point","coordinates":[-82.603457312743174,29.758934944096477]},"properties":{"OBJECTID":54,"Name":"ALLTEL COMMUNICATIONS, LLC","Address":"24430 N.W. 110TH AVE. (CLARK - WILLIAMS)","City":"ALACHUA","Zip":"32615","COUNTY":"ALACHUA","X":-82.603457309999996,"Y":29.75893494,"LONGLAT":"-82.60345731,29.75893494","USNG":"17R LN 44967 93150","OWNERSHIP":null,"PARCELID":"01658 004 000","FACILITY_TYPE":"RADIO COMMUNICATIONS TOWER"}},{"type":"Feature","id":55,"geometry":{"type":"Point","coordinates":[-82.444950318766587,29.662220133832143]},"properties":{"OBJECTID":55,"Name":"GLOBAL SIGNAL ACQUISITIONS IV LLC","Address":"APPROXIMATELY 1127.8 FEET FROM THE INTE*","City":"GAINESVILLE","Zip":"32606","COUNTY":"ALACHUA","X":-82.444950320000004,"Y":29.662220130000001,"LONGLAT":"-82.44495032,29.66222013","USNG":"17R LN 60160 82230","OWNERSHIP":null,"PARCELID":"06311 000 000","FACILITY_TYPE":"RADIO COMMUNICATIONS TOWER"}},{"type":"Feature","id":56,"geometry":{"type":"Point","coordinates":[-82.331653586033852,29.692999453210938]},"properties":{"OBJECTID":56,"Name":"PINNACLE TOWERS LLC","Address":"4207 NW 6TH ST","City":"GAINESVILLE","Zip":"32609","COUNTY":"ALACHUA","X":-82.331653590000002,"Y":29.692999449999999,"LONGLAT":"-82.33165359,29.69299945","USNG":"17R LN 71165 85509","OWNERSHIP":null,"PARCELID":"07977 000 000","FACILITY_TYPE":"RADIO COMMUNICATIONS TOWER"}},{"type":"Feature","id":57,"geometry":{"type":"Point","coordinates":[-82.266798455914554,29.725995537506666]},"properties":{"OBJECTID":57,"Name":"CROWN CASTLE PT, INC.","Address":"4800 NE 73RD AVE.","City":"GAINESVILLE","Zip":"32609","COUNTY":"ALACHUA","X":-82.266798460000004,"Y":29.72599554,"LONGLAT":"-82.26679846,29.72599554","USNG":"17R LN 77480 89095","OWNERSHIP":null,"PARCELID":"07836 012 005","FACILITY_TYPE":"RADIO COMMUNICATIONS TOWER"}},{"type":"Feature","id":58,"geometry":{"type":"Point","coordinates":[-82.389816538116719,29.709669894997234]},"properties":{"OBJECTID":58,"Name":"ALLTEL MOBILE COMMUNICATIONS OF FL, INC.","Address":"COX CABLE TOWER 6020 NW 43RD AVE","City":"GAINESVILLE","Zip":"32653","COUNTY":"ALACHUA","X":-82.389816539999998,"Y":29.709669900000002,"LONGLAT":"-82.38981654,29.70966990","USNG":"17R LN 65560 87423","OWNERSHIP":null,"PARCELID":"06022 001 000","FACILITY_TYPE":"RADIO COMMUNICATIONS TOWER"}},{"type":"Feature","id":59,"geometry":{"type":"Point","coordinates":[-82.573396364606339,29.821314867016785]},"properties":{"OBJECTID":59,"Name":"ASTERISK COMMUNICATIONS, INC.","Address":"305 NORTHEAST 21ST STREET","City":"HIGH SPRINGS","Zip":"32643","COUNTY":"ALACHUA","X":-82.573396360000004,"Y":29.821314869999998,"LONGLAT":"-82.57339636,29.82131487","USNG":"17R LP 47968 00024","OWNERSHIP":null,"PARCELID":"00255 003 000","FACILITY_TYPE":"RADIO COMMUNICATIONS TOWER"}},{"type":"Feature","id":60,"geometry":{"type":"Point","coordinates":[-82.420964724748742,29.642423663615357]},"properties":{"OBJECTID":60,"Name":"BOARD OF REGENTS  DBA =  UNIVERSITY OF FLORIDA","Address":"TWR 3 - 7107 SW 8TH AVE","City":"GAINESVILLE","Zip":"32607","COUNTY":"ALACHUA","X":-82.420964720000001,"Y":29.642423659999999,"LONGLAT":"-82.42096472,29.64242366","USNG":"17R LN 62455 80007","OWNERSHIP":null,"PARCELID":"06674 000 000","FACILITY_TYPE":"RADIO COMMUNICATIONS TOWER"}},{"type":"Feature","id":61,"geometry":{"type":"Point","coordinates":[-82.521901932258473,29.538941471164183]},"properties":{"OBJECTID":61,"Name":"SBA TOWERS, INC.","Address":"720 MAGNOLIA STREET","City":"ARCHER","Zip":"32618","COUNTY":"ALACHUA","X":-82.521901929999999,"Y":29.538941470000001,"LONGLAT":"-82.52190193,29.53894147","USNG":"17R LN 52533 68663","OWNERSHIP":null,"PARCELID":"04702 002 000","FACILITY_TYPE":"RADIO COMMUNICATIONS TOWER"}},{"type":"Feature","id":62,"geometry":{"type":"Point","coordinates":[-82.137220555180534,29.715704051740111]},"properties":{"OBJECTID":62,"Name":"PINNACLE TOWERS ACQUISITION LLC","Address":".18 MILES EAST OF INTERSECTION SR 206 A*","City":"HAWTHORNE","Zip":"32640","COUNTY":"ALACHUA","X":-82.137220560000003,"Y":29.715704049999999,"LONGLAT":"-82.13722056,29.71570405","USNG":"17R LN 90002 87824","OWNERSHIP":null,"PARCELID":"18817 003 000","FACILITY_TYPE":"RADIO COMMUNICATIONS TOWER"}},{"type":"Feature","id":63,"geometry":{"type":"Point","coordinates":[-82.106435518990679,29.600225539373248]},"properties":{"OBJECTID":63,"Name":"AMERICAN TOWERS, INC.","Address":"KINGSWOOD ROAD","City":"HAWTHORNE","Zip":"32640","COUNTY":"ALACHUA","X":-82.106435520000005,"Y":29.60022554,"LONGLAT":"-82.10643552,29.60022554","USNG":"17R LN 92858 74999","OWNERSHIP":null,"PARCELID":"19814 020 003","FACILITY_TYPE":"RADIO COMMUNICATIONS TOWER"}},{"type":"Feature","id":64,"geometry":{"type":"Point","coordinates":[-82.460643669247929,29.55879288181465]},"properties":{"OBJECTID":64,"Name":"NEW CINGULAR WIRELESS PCS, LLC","Address":"11305 SOUTHWEST 103RD AVENUE","City":"GAINESVILLE","Zip":"32608","COUNTY":"ALACHUA","X":-82.460643669999996,"Y":29.558792879999999,"LONGLAT":"-82.46064367,29.55879288","USNG":"17R LN 58497 70787","OWNERSHIP":null,"PARCELID":"04624 100 035","FACILITY_TYPE":"RADIO COMMUNICATIONS TOWER"}},{"type":"Feature","id":65,"geometry":{"type":"Point","coordinates":[-82.485222301220489,29.78738378575083]},"properties":{"OBJECTID":65,"Name":"NEW CINGULAR WIRELESS PCS, LLC","Address":"13105 MARTIN LUTHER KING BOULEVARD","City":"ALACHUA","Zip":"32615","COUNTY":"ALACHUA","X":-82.485222300000004,"Y":29.78738379,"LONGLAT":"-82.48522230,29.78738379","USNG":"17R LN 56441 96150","OWNERSHIP":null,"PARCELID":"03229 003 000","FACILITY_TYPE":"RADIO COMMUNICATIONS TOWER"}},{"type":"Feature","id":66,"geometry":{"type":"Point","coordinates":[-82.362814696917866,29.721826445758378]},"properties":{"OBJECTID":66,"Name":"PINNACLE TOWERS LLC","Address":"6600 NW 62ND ST US 441","City":"GAINESVILLE","Zip":"32653","COUNTY":"ALACHUA","X":-82.362814700000001,"Y":29.721826449999998,"LONGLAT":"-82.36281470,29.72182645","USNG":"17R LN 68188 88739","OWNERSHIP":null,"PARCELID":"06013 005 004","FACILITY_TYPE":"RADIO COMMUNICATIONS TOWER"}},{"type":"Feature","id":67,"geometry":{"type":"Point","coordinates":[-82.493771526768413,29.804042565803726]},"properties":{"OBJECTID":67,"Name":"AMERICAN TOWERS, INC.","Address":"STATE ROAD 241","City":"ALACHUA","Zip":"32615","COUNTY":"ALACHUA","X":-82.493771530000004,"Y":29.80404257,"LONGLAT":"-82.49377153,29.80404257","USNG":"17R LN 55638 98007","OWNERSHIP":null,"PARCELID":"03133 003 000","FACILITY_TYPE":"RADIO COMMUNICATIONS TOWER"}},{"type":"Feature","id":68,"geometry":{"type":"Point","coordinates":[-82.359600301384603,29.721580295961676]},"properties":{"OBJECTID":68,"Name":"NEW CINGULAR WIRELESS PCS, LLC","Address":"2498 NORTHWEST 73RD PLACE","City":"GAINESVILLE","Zip":"32653","COUNTY":"ALACHUA","X":-82.359600299999997,"Y":29.721580299999999,"LONGLAT":"-82.35960030,29.72158030","USNG":"17R LN 68498 88708","OWNERSHIP":null,"PARCELID":"06013 005 021","FACILITY_TYPE":"RADIO COMMUNICATIONS TOWER"}},{"type":"Feature","id":69,"geometry":{"type":"Point","coordinates":[-82.328869557221054,29.650958803233571]},"properties":{"OBJECTID":69,"Name":"BELLSOUTH TELECOMMUNICATIONS INCORPORATED","Address":"400 SW 2ND AVE","City":"GAINESVILLE","Zip":"32601","COUNTY":"ALACHUA","X":-82.328869560000001,"Y":29.650958800000002,"LONGLAT":"-82.32886956,29.65095880","USNG":"17R LN 71381 80847","OWNERSHIP":null,"PARCELID":null,"FACILITY_TYPE":"RADIO COMMUNICATIONS TOWER"}},{"type":"Feature","id":70,"geometry":{"type":"Point","coordinates":[-82.374857041993209,29.640610657703629]},"properties":{"OBJECTID":70,"Name":"GAINESVILLE REGIONAL UTILITIES","Address":"1200 SW 34TH ST","City":"GAINESVILLE","Zip":"32607","COUNTY":"ALACHUA","X":-82.374857039999995,"Y":29.64061066,"LONGLAT":"-82.37485704,29.64061066","USNG":"17R LN 66916 79752","OWNERSHIP":null,"PARCELID":"06698 000 000","FACILITY_TYPE":"RADIO COMMUNICATIONS TOWER"}},{"type":"Feature","id":71,"geometry":{"type":"Point","coordinates":[-82.295202949875616,29.645299445707234]},"properties":{"OBJECTID":71,"Name":"ALLTEL COMMUNICATIONS, LLC","Address":"2223 S.E. HAWTHORNE ROAD","City":"GAINESVILLE","Zip":"32641","COUNTY":"ALACHUA","X":-82.295202950000004,"Y":29.64529945,"LONGLAT":"-82.29520295,29.64529945","USNG":"17R LN 74633 80183","OWNERSHIP":null,"PARCELID":"11342 000 000","FACILITY_TYPE":"RADIO COMMUNICATIONS TOWER"}},{"type":"Feature","id":72,"geometry":{"type":"Point","coordinates":[-82.087736581838044,29.586783077878572]},"properties":{"OBJECTID":72,"Name":"MCI COMMUNICATIONS SERVICES, INC.","Address":"COLUMBUS AVE","City":"HAWTHORNE","Zip":"32640","COUNTY":"ALACHUA","X":-82.087736579999998,"Y":29.58678308,"LONGLAT":"-82.08773658,29.58678308","USNG":"17R LN 94655 73492","OWNERSHIP":null,"PARCELID":"19916 000 000","FACILITY_TYPE":"RADIO COMMUNICATIONS TOWER"}},{"type":"Feature","id":73,"geometry":{"type":"Point","coordinates":[-82.56025102114792,29.657352561929333]},"properties":{"OBJECTID":73,"Name":"GLOBAL TOWER, LLC","Address":"SE QUARTER OF SECTION 36, TOWNSHIP 9 S,*","City":"NEWBERRY","Zip":"32669","COUNTY":"ALACHUA","X":-82.560251019999995,"Y":29.65735256,"LONGLAT":"-82.56025102,29.65735256","USNG":"17R LN 48993 81835","OWNERSHIP":null,"PARCELID":"01922 000 000","FACILITY_TYPE":"RADIO COMMUNICATIONS TOWER"}},{"type":"Feature","id":74,"geometry":{"type":"Point","coordinates":[-82.450769735230111,29.58758640035035]},"properties":{"OBJECTID":74,"Name":"PINNACLE TOWERS ACQUISITION LLC","Address":"10100 BLK OF SW 72ND AVE.","City":"GAINESVILLE","Zip":"32608","COUNTY":"ALACHUA","X":-82.450769739999998,"Y":29.587586399999999,"LONGLAT":"-82.45076974,29.58758640","USNG":"17R LN 59493 73966","OWNERSHIP":null,"PARCELID":"07074 001 000","FACILITY_TYPE":"RADIO COMMUNICATIONS TOWER"}},{"type":"Feature","id":75,"geometry":{"type":"Point","coordinates":[-82.40307206825868,29.842406691382283]},"properties":{"OBJECTID":75,"Name":"SBA TOWERS II LLC","Address":"SR 121 AND CR 235","City":"ALACHUA","Zip":"32615","COUNTY":"ALACHUA","X":-82.403072069999993,"Y":29.842406690000001,"LONGLAT":"-82.40307207,29.84240669","USNG":"17R LP 64456 02148","OWNERSHIP":null,"PARCELID":"05643 000 000","FACILITY_TYPE":"RADIO COMMUNICATIONS TOWER"}},{"type":"Feature","id":76,"geometry":{"type":"Point","coordinates":[-82.473530758104118,29.664026846834137]},"properties":{"OBJECTID":76,"Name":"T-MOBILE SOUTH LLC","Address":"1200 NW 122ND STREET (JK0222)","City":"NEWBERRY","Zip":"32669","COUNTY":"ALACHUA","X":-82.473530760000003,"Y":29.664026849999999,"LONGLAT":"-82.47353076,29.66402685","USNG":"17R LN 57397 82465","OWNERSHIP":null,"PARCELID":"04314 001 000","FACILITY_TYPE":"RADIO COMMUNICATIONS TOWER"}},{"type":"Feature","id":77,"geometry":{"type":"Point","coordinates":[-82.326625350264806,29.642192010321146]},"properties":{"OBJECTID":77,"Name":"PINNACLE TOWERS LLC","Address":"924 S MAIN ST","City":"GAINESVILLE","Zip":"32601","COUNTY":"ALACHUA","X":-82.32662535,"Y":29.642192009999999,"LONGLAT":"-82.32662535,29.64219201","USNG":"17R LN 71587 79873","OWNERSHIP":null,"PARCELID":"15698 002 000","FACILITY_TYPE":"RADIO COMMUNICATIONS TOWER"}},{"type":"Feature","id":78,"geometry":{"type":"Point","coordinates":[-82.324909988738014,29.670764342509028]},"properties":{"OBJECTID":78,"Name":"STC TWO LLC","Address":"1925 NW 2ND STREET","City":"GAINESVILLE","Zip":"32609","COUNTY":"ALACHUA","X":-82.324909989999995,"Y":29.670764340000002,"LONGLAT":"-82.32490999,29.67076434","USNG":"17R LN 71789 83038","OWNERSHIP":null,"PARCELID":"09990 000 000","FACILITY_TYPE":"RADIO COMMUNICATIONS TOWER"}},{"type":"Feature","id":79,"geometry":{"type":"Point","coordinates":[-82.475298800874739,29.874060032593814]},"properties":{"OBJECTID":79,"Name":"NEW CINGULAR WIRELESS PCS, LLC","Address":"12003 NW COUNTY ROAD 236","City":"ALACHUA","Zip":"32615","COUNTY":"ALACHUA","X":-82.475298800000004,"Y":29.874060029999999,"LONGLAT":"-82.47529880,29.87406003","USNG":"17R LP 57523 05744","OWNERSHIP":null,"PARCELID":"02839 002 001","FACILITY_TYPE":"RADIO COMMUNICATIONS TOWER"}},{"type":"Feature","id":80,"geometry":{"type":"Point","coordinates":[-82.1660469748509,29.799825979812702]},"properties":{"OBJECTID":80,"Name":"AMERICAN TOWERS, INC.","Address":"HIGHWAY 301 NORTH IN WALDO ON EAST SIDE*","City":"WALDO","Zip":"32694","COUNTY":"ALACHUA","X":-82.166046969999996,"Y":29.799825980000001,"LONGLAT":"-82.16604697,29.79982598","USNG":"17R LN 87308 97174","OWNERSHIP":null,"PARCELID":"17007 000 000","FACILITY_TYPE":"RADIO COMMUNICATIONS TOWER"}},{"type":"Feature","id":81,"geometry":{"type":"Point","coordinates":[-82.406979556891187,29.757125941042709]},"properties":{"OBJECTID":81,"Name":"CROWN CASTLE PT, INC.","Address":"11085 NW 59TH TERRACE","City":"GAINESVILLE","Zip":"32653","COUNTY":"ALACHUA","X":-82.406979559999996,"Y":29.757125940000002,"LONGLAT":"-82.40697956,29.75712594","USNG":"17R LN 63963 92702","OWNERSHIP":null,"PARCELID":"05885 000 000","FACILITY_TYPE":"RADIO COMMUNICATIONS TOWER"}},{"type":"Feature","id":82,"geometry":{"type":"Point","coordinates":[-82.561769123539946,29.824243306513843]},"properties":{"OBJECTID":82,"Name":"NEW CINGULAR WIRELESS PCS, LLC","Address":"200 SE 134TH AVE","City":"HIGH SPRINGS","Zip":"32643","COUNTY":"ALACHUA","X":-82.561769119999994,"Y":29.82424331,"LONGLAT":"-82.56176912,29.82424331","USNG":"17R LP 49096 00333","OWNERSHIP":null,"PARCELID":"00251 002 000","FACILITY_TYPE":"RADIO COMMUNICATIONS TOWER"}},{"type":"Feature","id":83,"geometry":{"type":"Point","coordinates":[-82.407970479506503,29.755161864140874]},"properties":{"OBJECTID":83,"Name":"NEW CINGULAR WIRELESS PCS, LLC","Address":"5.1 MI S","City":"ALACHUA","Zip":"32615","COUNTY":"ALACHUA","X":-82.407970480000003,"Y":29.755161860000001,"LONGLAT":"-82.40797048,29.75516186","USNG":"17R LN 63865 92486","OWNERSHIP":null,"PARCELID":"05927 003 000","FACILITY_TYPE":"RADIO COMMUNICATIONS TOWER"}},{"type":"Feature","id":84,"geometry":{"type":"Point","coordinates":[-82.620025597912303,29.641347542592701]},"properties":{"OBJECTID":84,"Name":"T-MOBILE SOUTH LLC","Address":"SITE JK0217 26333 SW 4TH AVENUE","City":"NEWBERRY","Zip":"32669","COUNTY":"ALACHUA","X":-82.620025600000005,"Y":29.641347540000002,"LONGLAT":"-82.62002560,29.64134754","USNG":"17R LN 43182 80141","OWNERSHIP":null,"PARCELID":"01981 008 000","FACILITY_TYPE":"RADIO COMMUNICATIONS TOWER"}},{"type":"Feature","id":85,"geometry":{"type":"Point","coordinates":[-82.302669344886539,29.661935280721906]},"properties":{"OBJECTID":85,"Name":"AMERICAN TOWERS, INC.","Address":"1736 NE 10TH AVENUE  (CAMP TOWER/ 02365*","City":"GAINESVILLE","Zip":"32641","COUNTY":"ALACHUA","X":-82.302669339999994,"Y":29.661935280000002,"LONGLAT":"-82.30266934,29.66193528","USNG":"17R LN 73931 82035","OWNERSHIP":null,"PARCELID":"10859 010 005","FACILITY_TYPE":"RADIO COMMUNICATIONS TOWER"}},{"type":"Feature","id":86,"geometry":{"type":"Point","coordinates":[-82.574434600668013,29.859428068941718]},"properties":{"OBJECTID":86,"Name":"GLOBAL TOWER, LLC","Address":"22230 NW 215TH TER","City":"HIGH SPRINGS","Zip":"32643","COUNTY":"ALACHUA","X":-82.574434600000004,"Y":29.85942807,"LONGLAT":"-82.57443460,29.85942807","USNG":"17R LP 47926 04249","OWNERSHIP":null,"PARCELID":"00063 014 000","FACILITY_TYPE":"RADIO COMMUNICATIONS TOWER"}},{"type":"Feature","id":87,"geometry":{"type":"Point","coordinates":[-82.489428714489122,29.657218323068928]},"properties":{"OBJECTID":87,"Name":"NEW CINGULAR WIRELESS PCS, LLC","Address":"13808 W NEWBERRY RD","City":"NEWBERRY","Zip":"32669","COUNTY":"ALACHUA","X":-82.489428709999999,"Y":29.657218319999998,"LONGLAT":"-82.48942871,29.65721832","USNG":"17R LN 55848 81730","OWNERSHIP":null,"PARCELID":"04341 003 000","FACILITY_TYPE":"RADIO COMMUNICATIONS TOWER"}},{"type":"Feature","id":88,"geometry":{"type":"Point","coordinates":[-82.0825414661834,29.516344367267443]},"properties":{"OBJECTID":88,"Name":"GLOBAL TOWER, LLC","Address":"SE 225TH DRIVE","City":"HAWTHORNE","Zip":"32640","COUNTY":"ALACHUA","X":-82.082541469999995,"Y":29.516344369999999,"LONGLAT":"-82.08254147,29.51634437","USNG":"17R LN 95085 65682","OWNERSHIP":null,"PARCELID":"20051 002 001","FACILITY_TYPE":"RADIO COMMUNICATIONS TOWER"}},{"type":"Feature","id":89,"geometry":{"type":"Point","coordinates":[-82.325905482996859,29.643227519813625]},"properties":{"OBJECTID":89,"Name":"SBA TOWERS II LLC","Address":"902 SOUTH MAIN STREET","City":"GAINESVILLE","Zip":"32601","COUNTY":"ALACHUA","X":-82.325905480000003,"Y":29.64322752,"LONGLAT":"-82.32590548,29.64322752","USNG":"17R LN 71658 79987","OWNERSHIP":null,"PARCELID":"15698 001 002","FACILITY_TYPE":"RADIO COMMUNICATIONS TOWER"}},{"type":"Feature","id":90,"geometry":{"type":"Point","coordinates":[-82.376213930232439,29.611306968896585]},"properties":{"OBJECTID":90,"Name":"GATOR TOWER MANAGEMENT INC","Address":"3709 SW 42ND AVE 13","City":"GAINESVILLE","Zip":"32608","COUNTY":"ALACHUA","X":-82.376213930000006,"Y":29.611306970000001,"LONGLAT":"-82.37621393,29.61130697","USNG":"17R LN 66746 76507","OWNERSHIP":null,"PARCELID":"07240 022 003","FACILITY_TYPE":"RADIO COMMUNICATIONS TOWER"}},{"type":"Feature","id":91,"geometry":{"type":"Point","coordinates":[-82.2015652474022,29.770507088811126]},"properties":{"OBJECTID":91,"Name":"TOWERCOM III, LLC","Address":"12160 WALDO ROAD","City":"GAINESVILLE","Zip":"32609","COUNTY":"ALACHUA","X":-82.201565250000002,"Y":29.770507089999999,"LONGLAT":"-82.20156525,29.77050709","USNG":"17R LN 83841 93960","OWNERSHIP":null,"PARCELID":"17542 000 000","FACILITY_TYPE":"RADIO COMMUNICATIONS TOWER"}},{"type":"Feature","id":92,"geometry":{"type":"Point","coordinates":[-82.401394165719097,29.640652459151791]},"properties":{"OBJECTID":92,"Name":"CITY OF GAINESVILLE","Address":"1200 SW 62ND BLVD","City":"GAINESVILLE","Zip":"32607","COUNTY":"ALACHUA","X":-82.401394170000003,"Y":29.640652459999998,"LONGLAT":"-82.40139417,29.64065246","USNG":"17R LN 64347 79788","OWNERSHIP":null,"PARCELID":"06680 200 000","FACILITY_TYPE":"RADIO COMMUNICATIONS TOWER"}},{"type":"Feature","id":93,"geometry":{"type":"Point","coordinates":[-82.584816283300611,29.632874906217779]},"properties":{"OBJECTID":93,"Name":"ALLTEL COMMUNICATIONS, LLC","Address":"02291 SW 15TH AVENUE      (NEWBERRY)","City":"NEWBERRY","Zip":"32669","COUNTY":"ALACHUA","X":-82.584816279999998,"Y":29.632874910000002,"LONGLAT":"-82.58481628,29.63287491","USNG":"17R LN 46578 79155","OWNERSHIP":null,"PARCELID":"02546 002 000","FACILITY_TYPE":"RADIO COMMUNICATIONS TOWER"}},{"type":"Feature","id":94,"geometry":{"type":"Point","coordinates":[-82.313818427742817,29.634304649296929]},"properties":{"OBJECTID":94,"Name":"ASTERISK COMMUNICATIONS, INC.","Address":"2001 S.E. 5TH STREET","City":"GAINESVILLE","Zip":"32641","COUNTY":"ALACHUA","X":-82.313818429999998,"Y":29.634304650000001,"LONGLAT":"-82.31381843,29.63430465","USNG":"17R LN 72817 78985","OWNERSHIP":null,"PARCELID":"15861 001 000","FACILITY_TYPE":"RADIO COMMUNICATIONS TOWER"}},{"type":"Feature","id":95,"geometry":{"type":"Point","coordinates":[-82.530174480652562,29.833113213127387]},"properties":{"OBJECTID":95,"Name":"CROWN CASTLE PT, INC.","Address":"19201 NW CR 235-A","City":"HIGH SPRINGS","Zip":"32643","COUNTY":"ALACHUA","X":-82.530174479999999,"Y":29.83311321,"LONGLAT":"-82.53017448,29.83311321","USNG":"17R LP 52162 01275","OWNERSHIP":null,"PARCELID":"02955 002 000","FACILITY_TYPE":"RADIO COMMUNICATIONS TOWER"}},{"type":"Feature","id":96,"geometry":{"type":"Point","coordinates":[-82.324894801337237,29.682698137872659]},"properties":{"OBJECTID":96,"Name":"GAINESVILLE, CITY OF  DBA =  GAINESVILLE REGIONAL UTILITIES","Address":"405 NW 39TH AVE","City":"GAINESVILLE","Zip":"32609","COUNTY":"ALACHUA","X":-82.324894799999996,"Y":29.682698139999999,"LONGLAT":"-82.32489480,29.68269814","USNG":"17R LN 71806 84360","OWNERSHIP":null,"PARCELID":"08250 000 000","FACILITY_TYPE":"RADIO COMMUNICATIONS TOWER"}},{"type":"Feature","id":97,"geometry":{"type":"Point","coordinates":[-82.420392376761271,29.641949928437356]},"properties":{"OBJECTID":97,"Name":"BOARD OF REGENTS  DBA =  UNIVERSITY OF FLORIDA","Address":"TWR 4 - 7107 SW 8TH AVE","City":"GAINESVILLE","Zip":"32607","COUNTY":"ALACHUA","X":-82.420392379999996,"Y":29.641949929999999,"LONGLAT":"-82.42039238,29.64194993","USNG":"17R LN 62510 79954","OWNERSHIP":null,"PARCELID":"06674 000 000","FACILITY_TYPE":"RADIO COMMUNICATIONS TOWER"}},{"type":"Feature","id":98,"geometry":{"type":"Point","coordinates":[-82.37801253174139,29.649109422890991]},"properties":{"OBJECTID":98,"Name":"TOWERCO II LLC","Address":"301 SW 37TH ST","City":"GAINESVILLE","Zip":"32607","COUNTY":"ALACHUA","X":-82.378012530000007,"Y":29.649109419999998,"LONGLAT":"-82.37801253,29.64910942","USNG":"17R LN 66622 80698","OWNERSHIP":null,"PARCELID":"06514 000 000","FACILITY_TYPE":"RADIO COMMUNICATIONS TOWER"}},{"type":"Feature","id":99,"geometry":{"type":"Point","coordinates":[-82.354366750392856,29.745605683732371]},"properties":{"OBJECTID":99,"Name":"WILKS FLORIDA BROADCASTING, INC.","Address":"EAST OF FL120, 2.6 MILES NORTH OF NORTH*","City":"NORTHWOOD","Zip":" ","COUNTY":"ALACHUA","X":-82.354366749999997,"Y":29.745605680000001,"LONGLAT":"-82.35436675,29.74560568","USNG":"17R LN 69036 91365","OWNERSHIP":null,"PARCELID":null,"FACILITY_TYPE":"RADIO COMMUNICATIONS TOWER"}},{"type":"Feature","id":100,"geometry":{"type":"Point","coordinates":[-82.601499999831049,29.827199998800292]},"properties":{"OBJECTID":100,"Name":"CROWN CASTLE PT, INC.","Address":"125 SW RAILROAD AVE.","City":"HIGH SPRINGS","Zip":"32643","COUNTY":"ALACHUA","X":-82.601500000000001,"Y":29.827200000000001,"LONGLAT":"-82.60150000,29.82720000","USNG":"17R LP 45261 00713","OWNERSHIP":null,"PARCELID":"00672 000 000","FACILITY_TYPE":"RADIO COMMUNICATIONS TOWER"}},{"type":"Feature","id":101,"geometry":{"type":"Point","coordinates":[-82.288312454324981,29.624218790336172]},"properties":{"OBJECTID":101,"Name":"PAMAL BROADCASTING LTD","Address":"SE 27TH ST","City":"GAINESVILLE","Zip":"32641","COUNTY":"ALACHUA","X":-82.288312450000006,"Y":29.62421879,"LONGLAT":"-82.28831245,29.62421879","USNG":"17R LN 75274 77840","OWNERSHIP":null,"PARCELID":"16214 001 000","FACILITY_TYPE":"RADIO COMMUNICATIONS TOWER"}},{"type":"Feature","id":102,"geometry":{"type":"Point","coordinates":[-82.463329016152542,29.693189989242654]},"properties":{"OBJECTID":102,"Name":"CLAY ELECTRIC COOPERATIVE","Address":"11530 NW 39TH AVENUE","City":"GAINESVILLE","Zip":"32606","COUNTY":"ALACHUA","X":-82.463329020000003,"Y":29.69318999,"LONGLAT":"-82.46332902,29.69318999","USNG":"17R LN 58425 85684","OWNERSHIP":null,"PARCELID":"04193 004 012","FACILITY_TYPE":"RADIO COMMUNICATIONS TOWER"}},{"type":"Feature","id":103,"geometry":{"type":"Point","coordinates":[-82.351717272287772,29.687260316779192]},"properties":{"OBJECTID":103,"Name":"GLOBAL TOWER, LLC","Address":"2101 N.W. 39TH AVE","City":"GAINESVILLE","Zip":"32605","COUNTY":"ALACHUA","X":-82.351717269999995,"Y":29.68726032,"LONGLAT":"-82.35171727,29.68726032","USNG":"17R LN 69216 84896","OWNERSHIP":null,"PARCELID":"08989 001 000","FACILITY_TYPE":"RADIO COMMUNICATIONS TOWER"}},{"type":"Feature","id":104,"geometry":{"type":"Point","coordinates":[-82.576612419544105,29.588250281363869]},"properties":{"OBJECTID":104,"Name":"SBA TOWERS II LLC","Address":"7133 SW 226TH ST","City":"NEWBERRY","Zip":"32669","COUNTY":"ALACHUA","X":-82.576612420000004,"Y":29.58825028,"LONGLAT":"-82.57661242,29.58825028","USNG":"17R LN 47305 74199","OWNERSHIP":null,"PARCELID":"02646 001 000","FACILITY_TYPE":"RADIO COMMUNICATIONS TOWER"}},{"type":"Feature","id":105,"geometry":{"type":"Point","coordinates":[-82.291672446401307,29.49209966628953]},"properties":{"OBJECTID":105,"Name":"NEW CINGULAR WIRELESS PCS, LLC","Address":"17608 SE 26TH STREET","City":"MICANOPY","Zip":"32667","COUNTY":"ALACHUA","X":-82.291672449999993,"Y":29.492099670000002,"LONGLAT":"-82.29167245,29.49209967","USNG":"17R LN 74786 63202","OWNERSHIP":null,"PARCELID":"16855 000 000","FACILITY_TYPE":"RADIO COMMUNICATIONS TOWER"}},{"type":"Feature","id":106,"geometry":{"type":"Point","coordinates":[-82.419045338715677,29.631897138362724]},"properties":{"OBJECTID":106,"Name":"GILLEN BROADCASTING CORPORATION","Address":"7120 SW 24TH AVE","City":"GAINESVILLE","Zip":"32607","COUNTY":"ALACHUA","X":-82.419045339999997,"Y":29.63189714,"LONGLAT":"-82.41904534,29.63189714","USNG":"17R LN 62626 78838","OWNERSHIP":null,"PARCELID":"06678 001 000","FACILITY_TYPE":"RADIO COMMUNICATIONS TOWER"}},{"type":"Feature","id":107,"geometry":{"type":"Point","coordinates":[-82.360384035650597,29.618149935228679]},"properties":{"OBJECTID":107,"Name":"VCI TOWERS LLC","Address":"2635 SW 35TH PLACE","City":"GAINESVILLE","Zip":"32608","COUNTY":"ALACHUA","X":-82.36038404,"Y":29.618149939999999,"LONGLAT":"-82.36038404,29.61814994","USNG":"17R LN 68288 77247","OWNERSHIP":"COUNTY","PARCELID":" ","FACILITY_TYPE":"RADIO COMMUNICATIONS TOWER"}},{"type":"Feature","id":108,"geometry":{"type":"Point","coordinates":[-82.318742861069154,29.643398351875312]},"properties":{"OBJECTID":108,"Name":"ALACHUA, COUNTY OF - COMM TOWER","Address":"913 SE 5TH ST","City":"GAINESVILLE","Zip":"32601","COUNTY":"ALACHUA","X":-82.31874286,"Y":29.643398349999998,"LONGLAT":"-82.31874286,29.64339835","USNG":"17R LN 72352 79998","OWNERSHIP":"COUNTY","PARCELID":"16001 002 000","FACILITY_TYPE":"RADIO COMMUNICATIONS TOWER"}},{"type":"Feature","id":109,"geometry":{"type":"Point","coordinates":[-82.425513753260915,29.78110707557483]},"properties":{"OBJECTID":109,"Name":"ALACHUA COUNTY SHERIFF OFFICE - COMM TOWER","Address":"SR2337 1.3 KM N OF US441","City":"ALACHUA","Zip":"32615","COUNTY":"ALACHUA","X":-82.425513749999993,"Y":29.781107080000002,"LONGLAT":"-82.42551375,29.78110708","USNG":"17R LN 62204 95382","OWNERSHIP":"SPECIAL TAXING DISTRICT","PARCELID":"05863 000 000","FACILITY_TYPE":"RADIO COMMUNICATIONS TOWER"}},{"type":"Feature","id":110,"geometry":{"type":"Point","coordinates":[-82.072693806130985,29.590117412951269]},"properties":{"OBJECTID":110,"Name":"GATOR TOWER MANAGEMENT INC","Address":"23016 SE 65TH LN","City":"HAWTHORNE","Zip":"32640","COUNTY":"ALACHUA","X":-82.072693810000004,"Y":29.590117410000001,"LONGLAT":"-82.07269381,29.59011741","USNG":"17R LN 96115 73848","OWNERSHIP":"MUNICIPAL","PARCELID":"19570 000 000","FACILITY_TYPE":"RADIO COMMUNICATIONS TOWER"}},{"type":"Feature","id":111,"geometry":{"type":"Point","coordinates":[-82.330494546101278,29.658822113263088]},"properties":{"OBJECTID":111,"Name":"GAINESVILLE CITY OF","Address":"721 NW 6TH ST","City":"GAINESVILLE","Zip":"32601","COUNTY":"ALACHUA","X":-82.330494549999997,"Y":29.658822109999999,"LONGLAT":"-82.33049455,29.65882211","USNG":"17R LN 71234 81720","OWNERSHIP":"MUNICIPAL","PARCELID":"14396 000 000","FACILITY_TYPE":"RADIO COMMUNICATIONS TOWER"}},{"type":"Feature","id":112,"geometry":{"type":"Point","coordinates":[-82.446621522875901,29.686658441930888]},"properties":{"OBJECTID":112,"Name":"GAINESVILLE, CITY OF  DBA =  GAINESVILLE REGIONAL UTILITIES","Address":"3805 NW 97 BLVD","City":"GAINESVILLE","Zip":"32606","COUNTY":"ALACHUA","X":-82.446621519999994,"Y":29.686658439999999,"LONGLAT":"-82.44662152,29.68665844","USNG":"17R LN 60032 84940","OWNERSHIP":"MUNICIPAL","PARCELID":"06233 002 000","FACILITY_TYPE":"RADIO COMMUNICATIONS TOWER"}},{"type":"Feature","id":113,"geometry":{"type":"Point","coordinates":[-82.075327561368709,29.590349952691998]},"properties":{"OBJECTID":113,"Name":"ALLTEL COMMUNICATIONS, LLC","Address":"23016 SE 65TH LN","City":"HAWTHORNE","Zip":"32640","COUNTY":"ALACHUA","X":-82.075327560000005,"Y":29.59034995,"LONGLAT":"-82.07532756,29.59034995","USNG":"17R LN 95860 73876","OWNERSHIP":"MUNICIPAL","PARCELID":"19570 000 000","FACILITY_TYPE":"RADIO COMMUNICATIONS TOWER"}},{"type":"Feature","id":114,"geometry":{"type":"Point","coordinates":[-82.130112630159019,30.307112783487653]},"properties":{"OBJECTID":114,"Name":"FLORIDA, STATE OF","Address":"900' E OF LAURAMORE RD & 1000' NNE OF T*","City":"MACCLENNY","Zip":"32063","COUNTY":"BAKER","X":-82.130112629999999,"Y":30.307112780000001,"LONGLAT":"-82.13011263,30.30711278","USNG":"17R LP 91336 53357","OWNERSHIP":"COUNTY","PARCELID":"202S22000000000330","FACILITY_TYPE":"RADIO COMMUNICATIONS TOWER"}},{"type":"Feature","id":115,"geometry":{"type":"Point","coordinates":[-82.079037608674128,30.275699869048506]},"properties":{"OBJECTID":115,"Name":"AMERICAN TOWERS, INC.","Address":"2274 POWERLINE ROAD (#2515)","City":"MACCLENNY","Zip":"32063","COUNTY":"BAKER","X":-82.07903761,"Y":30.27569987,"LONGLAT":"-82.07903761,30.27569987","USNG":"17R LP 96215 49828","OWNERSHIP":"COUNTY","PARCELID":" ","FACILITY_TYPE":"RADIO COMMUNICATIONS TOWER"}},{"type":"Feature","id":116,"geometry":{"type":"Point","coordinates":[-82.204573297583451,30.267126258423257]},"properties":{"OBJECTID":116,"Name":"NEW CINGULAR WIRELESS PCS, LLC","Address":"9886 US HIGHWAY 90","City":"GLEN SAINT MARY","Zip":"32040","COUNTY":"BAKER","X":-82.204573300000007,"Y":30.267126260000001,"LONGLAT":"-82.20457330,30.26712626","USNG":"17R LP 84129 48999","OWNERSHIP":null,"PARCELID":"043S21020700000030","FACILITY_TYPE":"RADIO COMMUNICATIONS TOWER"}},{"type":"Feature","id":117,"geometry":{"type":"Point","coordinates":[-82.123514718233281,30.250855913003701]},"properties":{"OBJECTID":117,"Name":"PINNACLE TOWERS LLC","Address":"HWY 121 S.","City":"MACCLENNY","Zip":"32063","COUNTY":"BAKER","X":-82.123514720000003,"Y":30.250855909999999,"LONGLAT":"-82.12351472,30.25085591","USNG":"17R LP 91909 47116","OWNERSHIP":null,"PARCELID":"083S22000000000750","FACILITY_TYPE":"RADIO COMMUNICATIONS TOWER"}},{"type":"Feature","id":118,"geometry":{"type":"Point","coordinates":[-82.303895138939211,30.237916999464417]},"properties":{"OBJECTID":118,"Name":"FLORIDA, STATE OF","Address":"INT OF I10 & US 90 SW QUADRANT EXIT 45","City":"GLEN SAINT MARY","Zip":"32040","COUNTY":"BAKER","X":-82.303895139999995,"Y":30.237916999999999,"LONGLAT":"-82.30389514,30.23791700","USNG":"17R LP 74538 45867","OWNERSHIP":null,"PARCELID":null,"FACILITY_TYPE":"RADIO COMMUNICATIONS TOWER"}},{"type":"Feature","id":119,"geometry":{"type":"Point","coordinates":[-82.211681212969438,30.247124363417011]},"properties":{"OBJECTID":119,"Name":"CROWN CASTLE PT, INC.","Address":".4988 KM SE OF I10/SR8 4.586 KM W OF SR*","City":"GLEN SAINT MARY","Zip":"32040","COUNTY":"BAKER","X":-82.211681209999995,"Y":30.247124360000001,"LONGLAT":"-82.21168121,30.24712436","USNG":"17R LP 83422 46790","OWNERSHIP":null,"PARCELID":"093S21000000000010","FACILITY_TYPE":"RADIO COMMUNICATIONS TOWER"}},{"type":"Feature","id":120,"geometry":{"type":"Point","coordinates":[-82.411561926760768,30.212859981474924]},"properties":{"OBJECTID":120,"Name":"AMERICAN TOWERS, INC.","Address":"HWY 90 & HWY 250A (303046)","City":"SANDERSON","Zip":"32087","COUNTY":"BAKER","X":-82.411561930000005,"Y":30.212859980000001,"LONGLAT":"-82.41156193,30.21285998","USNG":"17R LP 64142 43214","OWNERSHIP":null,"PARCELID":"223S19000000000010","FACILITY_TYPE":"RADIO COMMUNICATIONS TOWER"}},{"type":"Feature","id":121,"geometry":{"type":"Point","coordinates":[-82.121496354686769,30.267240019357391]},"properties":{"OBJECTID":121,"Name":"COMMUNICATION TOWER","Address":"1165 S 6TH ST","City":"MACCLENNY","Zip":"32063","COUNTY":"BAKER","X":-82.121496350000001,"Y":30.267240019999999,"LONGLAT":"-82.12149635,30.26724002","USNG":"17R LP 92121 48930","OWNERSHIP":null,"PARCELID":"053S22006600000026","FACILITY_TYPE":"RADIO COMMUNICATIONS TOWER"}},{"type":"Feature","id":122,"geometry":{"type":"Point","coordinates":[-82.132515113976353,30.272179180695417]},"properties":{"OBJECTID":122,"Name":"KLM TOWERS INC","Address":"742 RAY PHILLIPS RD","City":"MACCLENNY","Zip":"32063","COUNTY":"BAKER","X":-82.13251511,"Y":30.272179179999998,"LONGLAT":"-82.13251511,30.27217918","USNG":"17R LP 91067 49488","OWNERSHIP":null,"PARCELID":"053S22000000000125","FACILITY_TYPE":"RADIO COMMUNICATIONS TOWER"}},{"type":"Feature","id":123,"geometry":{"type":"Point","coordinates":[-82.301415804137022,30.240423201500793]},"properties":{"OBJECTID":123,"Name":"NEW CINGULAR WIRELESS PCS, LLC","Address":".5M NE I-95 & US 90, 20M W","City":"GLEN SAINT MARY","Zip":"32040","COUNTY":"BAKER","X":-82.301415800000001,"Y":30.240423199999999,"LONGLAT":"-82.30141580,30.24042320","USNG":"17R LP 74779 46142","OWNERSHIP":null,"PARCELID":"153S20000000000010","FACILITY_TYPE":"RADIO COMMUNICATIONS TOWER"}},{"type":"Feature","id":124,"geometry":{"type":"Point","coordinates":[-82.179868112354512,30.258013301696622]},"properties":{"OBJECTID":124,"Name":"AMERICAN TOWERS, INC.","Address":"8971 QUAIL HOLLOW TRAIL (#2514)","City":"GLEN SAINT MARY","Zip":"32040","COUNTY":"BAKER","X":-82.179868110000001,"Y":30.258013299999998,"LONGLAT":"-82.17986811,30.25801330","USNG":"17R LP 86495 47964","OWNERSHIP":null,"PARCELID":"113S21000000000021","FACILITY_TYPE":"RADIO COMMUNICATIONS TOWER"}},{"type":"Feature","id":125,"geometry":{"type":"Point","coordinates":[-82.317100000547327,30.233499998859592]},"properties":{"OBJECTID":125,"Name":"AMERICAN TOWERS, INC.","Address":"17088 US 90","City":"GLEN SAINT MARY","Zip":"32040","COUNTY":"BAKER","X":-82.317099999999996,"Y":30.233499999999999,"LONGLAT":"-82.31710000,30.23350000","USNG":"17R LP 73261 45393","OWNERSHIP":null,"PARCELID":"163S20000000000030","FACILITY_TYPE":"RADIO COMMUNICATIONS TOWER"}},{"type":"Feature","id":126,"geometry":{"type":"Point","coordinates":[-82.319788091354184,30.247127201623098]},"properties":{"OBJECTID":126,"Name":"AMERICAN TOWERS, INC.","Address":"12 MILES W-SW OF CITY / FOREST ROAD  (0*","City":"SANDERSON","Zip":"32087","COUNTY":"BAKER","X":-82.319788090000003,"Y":30.247127200000001,"LONGLAT":"-82.31978809,30.24712720","USNG":"17R LP 73020 46906","OWNERSHIP":null,"PARCELID":"093S20000000000010","FACILITY_TYPE":"RADIO COMMUNICATIONS TOWER"}},{"type":"Feature","id":127,"geometry":{"type":"Point","coordinates":[-82.295759490870196,30.448134002911559]},"properties":{"OBJECTID":127,"Name":"HARRIS CORPORATION","Address":"DOWLING CIRCLE","City":"SANDERSON","Zip":"32087","COUNTY":"BAKER","X":-82.295759489999995,"Y":30.448134,"LONGLAT":"-82.29575949,30.44813400","USNG":"17R LP 75587 69156","OWNERSHIP":null,"PARCELID":"341N20000000000030","FACILITY_TYPE":"RADIO COMMUNICATIONS TOWER"}},{"type":"Feature","id":128,"geometry":{"type":"Point","coordinates":[-82.215109740691872,30.26236447798771]},"properties":{"OBJECTID":128,"Name":"AMERICAN TOWERS, INC.","Address":"HWY 90 & GILFORD DAVIS RD","City":"GLEN SAINT MARY","Zip":"32040","COUNTY":"BAKER","X":-82.215109740000003,"Y":30.262364479999999,"LONGLAT":"-82.21510974,30.26236448","USNG":"17R LP 83110 48482","OWNERSHIP":null,"PARCELID":"043S21000000000050","FACILITY_TYPE":"RADIO COMMUNICATIONS TOWER"}},{"type":"Feature","id":129,"geometry":{"type":"Point","coordinates":[-82.059507452345741,30.294878114228705]},"properties":{"OBJECTID":129,"Name":"NEW CINGULAR WIRELESS PCS,  LLC","Address":"1159 US 90 EAST","City":"MACCLENNY","Zip":"32063","COUNTY":"BAKER","X":-82.059507449999998,"Y":30.29487812,"LONGLAT":"-82.05950745,30.29487812","USNG":"17R LP 98113 51936","OWNERSHIP":null,"PARCELID":"252S22000000000030","FACILITY_TYPE":"RADIO COMMUNICATIONS TOWER"}},{"type":"Feature","id":130,"geometry":{"type":"Point","coordinates":[-82.131359855198681,30.269118043032432]},"properties":{"OBJECTID":130,"Name":"NEW CINGULAR WIRELESS SERVICES, INC","Address":"788 GRIFFIN CT","City":"MACCLENNY","Zip":"32063","COUNTY":"BAKER","X":-82.131359860000003,"Y":30.269118039999999,"LONGLAT":"-82.13135986,30.26911804","USNG":"17R LP 91175 49148","OWNERSHIP":null,"PARCELID":"053S22000000000130","FACILITY_TYPE":"RADIO COMMUNICATIONS TOWER"}},{"type":"Feature","id":131,"geometry":{"type":"Point","coordinates":[-85.79509999932003,30.341599999111377]},"properties":{"OBJECTID":131,"Name":"NEXTEL SOUTH CORP.","Address":"4430 W. HWY 388","City":"PANAMA CITY","Zip":"32409","COUNTY":"BAY","X":-85.795100000000005,"Y":30.3416,"LONGLAT":"-85.79510000,30.34160000","USNG":"16R FU 15813 57253","OWNERSHIP":null,"PARCELID":"32433-010-000","FACILITY_TYPE":"RADIO COMMUNICATIONS TOWER"}},{"type":"Feature","id":132,"geometry":{"type":"Point","coordinates":[-85.644500000066401,30.186099999602842]},"properties":{"OBJECTID":132,"Name":"VERIZON WIRELESS OF THE EAST LP","Address":"1795 INDUSTRIAL DR","City":"PANAMA CITY","Zip":"32405","COUNTY":"BAY","X":-85.644499999999994,"Y":30.1861,"LONGLAT":"-85.64450000,30.18610000","USNG":"16R FU 30496 40183","OWNERSHIP":null,"PARCELID":"14408-000-000","FACILITY_TYPE":"RADIO COMMUNICATIONS TOWER"}},{"type":"Feature","id":133,"geometry":{"type":"Point","coordinates":[-85.776011070262598,30.183613199161911]},"properties":{"OBJECTID":133,"Name":"GRAY TELEVISION GROUP, INC.","Address":"8195 FRONT BEACH ROAD","City":"PANAMA CITY","Zip":"32408","COUNTY":"BAY","X":-85.776011069999996,"Y":30.1836132,"LONGLAT":"-85.77601107,30.18361320","USNG":"16R FU 17837 39764","OWNERSHIP":null,"PARCELID":null,"FACILITY_TYPE":"RADIO COMMUNICATIONS TOWER"}},{"type":"Feature","id":134,"geometry":{"type":"Point","coordinates":[-85.590199999671142,30.12709999979397]},"properties":{"OBJECTID":134,"Name":"AMERICAN TOWERS, INC.","Address":"NEAR 117 SOUTH TYNDALL PARKWAY","City":"PANAMA CITY","Zip":"32404","COUNTY":"BAY","X":-85.590199999999996,"Y":30.127099999999999,"LONGLAT":"-85.59020000,30.12710000","USNG":"16R FU 35805 33707","OWNERSHIP":null,"PARCELID":"07210-000-000","FACILITY_TYPE":"RADIO COMMUNICATIONS TOWER"}},{"type":"Feature","id":135,"geometry":{"type":"Point","coordinates":[-85.775866565977239,30.183464248772264]},"properties":{"OBJECTID":135,"Name":"NEW CINGULAR WIRELESS PCS, LLC","Address":"8195 FRONT BEACH ROAD","City":"PANAMA CITY","Zip":"32408","COUNTY":"BAY","X":-85.775866570000005,"Y":30.18346425,"LONGLAT":"-85.77586657,30.18346425","USNG":"16R FU 17851 39747","OWNERSHIP":null,"PARCELID":"27890-000-000","FACILITY_TYPE":"TELEVISION"}},{"type":"Feature","id":136,"geometry":{"type":"Point","coordinates":[-85.689400000184051,30.328199999616707]},"properties":{"OBJECTID":136,"Name":"PINNACLE TOWERS LLC","Address":"340 W HWY 388","City":"PANAMA CITY","Zip":"32409","COUNTY":"BAY","X":-85.689400000000006,"Y":30.328199999999999,"LONGLAT":"-85.68940000,30.32820000","USNG":"16R FU 25991 55881","OWNERSHIP":null,"PARCELID":"07598-030-000","FACILITY_TYPE":"TELEVISION"}},{"type":"Feature","id":137,"geometry":{"type":"Point","coordinates":[-85.414227043949467,30.433387234401916]},"properties":{"OBJECTID":137,"Name":"GRAY TELEVISION GROUP, INC.","Address":"12544 HWY 20","City":"YOUNGSTOWN","Zip":"32466","COUNTY":"BAY","X":-85.41422704,"Y":30.433387239999998,"LONGLAT":"-85.41422704,30.43338724","USNG":"16R FU 52284 67877","OWNERSHIP":null,"PARCELID":"03439-000-000","FACILITY_TYPE":"TELEVISION"}},{"type":"Feature","id":138,"geometry":{"type":"Point","coordinates":[-85.414360056322252,30.432927424300164]},"properties":{"OBJECTID":138,"Name":"NEW CINGULAR WIRELESS PCS, LLC","Address":"12544 HIGHWAY 20","City":"YOUNGSTOWN","Zip":"32466","COUNTY":"BAY","X":-85.414360060000007,"Y":30.432927429999999,"LONGLAT":"-85.41436006,30.43292743","USNG":"16R FU 52272 67826","OWNERSHIP":null,"PARCELID":"03439-000-000","FACILITY_TYPE":"TELEVISION"}},{"type":"Feature","id":139,"geometry":{"type":"Point","coordinates":[-85.630799999968886,30.194899999747861]},"properties":{"OBJECTID":139,"Name":"PINNACLE TOWERS LLC","Address":"2332 NORTH HIGHWAY 231","City":"PANAMA CITY","Zip":"32405","COUNTY":"BAY","X":-85.630799999999994,"Y":30.194900000000001,"LONGLAT":"-85.63080000,30.19490000","USNG":"16R FU 31803 41174","OWNERSHIP":null,"PARCELID":"12690-000-000","FACILITY_TYPE":"TELEVISION"}},{"type":"Feature","id":140,"geometry":{"type":"Point","coordinates":[-85.533900000137407,30.395299999009978]},"properties":{"OBJECTID":140,"Name":"RAYCOM NATIONAL, INC.","Address":"13609 BLUE SPRINGS RD","City":"YOUNGSTOWN","Zip":"32466","COUNTY":"BAY","X":-85.533900000000003,"Y":30.395299999999999,"LONGLAT":"-85.53390000,30.39530000","USNG":"16R FU 40845 63500","OWNERSHIP":null,"PARCELID":"05055-501-000","FACILITY_TYPE":"TELEVISION"}},{"type":"Feature","id":141,"geometry":{"type":"Point","coordinates":[-85.391100000019577,30.352499999571485]},"properties":{"OBJECTID":141,"Name":"HOAK MEDIA OF PANAMA CITY, LLC","Address":"13735 SCOTTS FERRY ROAD","City":"YOUNGSTOWN","Zip":"32466","COUNTY":"BAY","X":-85.391099999999994,"Y":30.352499999999999,"LONGLAT":"-85.39110000,30.35250000","USNG":"16R FU 54633 58943","OWNERSHIP":null,"PARCELID":"03655-010-000","FACILITY_TYPE":"TELEVISION"}},{"type":"Feature","id":142,"geometry":{"type":"Point","coordinates":[-85.622200000631111,30.204299999291877]},"properties":{"OBJECTID":142,"Name":"AMERICAN TOWERS, INC.","Address":"3043 WAKULLA AVENUE  (029668  /  HIGHLA*","City":"PANAMA CITY","Zip":"32405","COUNTY":"BAY","X":-85.622200000000007,"Y":30.2043,"LONGLAT":"-85.62220000,30.20430000","USNG":"16R FU 32618 42226","OWNERSHIP":null,"PARCELID":"11889-024-000","FACILITY_TYPE":"RADIO COMMUNICATIONS TOWER"}},{"type":"Feature","id":143,"geometry":{"type":"Point","coordinates":[-85.541099999886072,30.388999999366249]},"properties":{"OBJECTID":143,"Name":"SBA TOWERS II LLC","Address":"6800 US HIGHWAY 388","City":"YOUNGSTOWN","Zip":"32466","COUNTY":"BAY","X":-85.5411,"Y":30.388999999999999,"LONGLAT":"-85.54110000,30.38900000","USNG":"16R FU 40162 62793","OWNERSHIP":null,"PARCELID":"05104-000-000","FACILITY_TYPE":"RADIO COMMUNICATIONS TOWER"}},{"type":"Feature","id":144,"geometry":{"type":"Point","coordinates":[-85.428200000269698,30.123799999524859]},"properties":{"OBJECTID":144,"Name":"AMERICAN TOWERS, INC.","Address":"SANDY CREEK RD  (088454 / MULE CREEK)","City":"PANAMA CITY","Zip":"32404","COUNTY":"BAY","X":-85.428200000000004,"Y":30.123799999999999,"LONGLAT":"-85.42820000,30.12380000","USNG":"16R FU 51417 33546","OWNERSHIP":null,"PARCELID":"03932-000-000","FACILITY_TYPE":"RADIO COMMUNICATIONS TOWER"}},{"type":"Feature","id":145,"geometry":{"type":"Point","coordinates":[-85.663899999677753,30.192499998858224]},"properties":{"OBJECTID":145,"Name":"SBA TOWERS II LLC","Address":"280 COMMERCIAL AVENUE  (FL11249-A)","City":"PANAMA CITY","Zip":"32405","COUNTY":"BAY","X":-85.663899999999998,"Y":30.192499999999999,"LONGLAT":"-85.66390000,30.19250000","USNG":"16R FU 28620 40870","OWNERSHIP":null,"PARCELID":"13012-000-000","FACILITY_TYPE":"RADIO COMMUNICATIONS TOWER"}},{"type":"Feature","id":146,"geometry":{"type":"Point","coordinates":[-85.687033483384937,30.437971789764507]},"properties":{"OBJECTID":146,"Name":"POWERSOUTH ENERGY COOPERATIVE","Address":"SUBSTA HWY 77 S OF BAY/WASHINGTON COUNT*","City":"PANAMA CITY","Zip":"32409","COUNTY":"BAY","X":-85.687033479999997,"Y":30.437971789999999,"LONGLAT":"-85.68703348,30.43797179","USNG":"16R FU 26078 68049","OWNERSHIP":null,"PARCELID":"07429-080-000","FACILITY_TYPE":"RADIO COMMUNICATIONS TOWER"}},{"type":"Feature","id":147,"geometry":{"type":"Point","coordinates":[-85.613699854523588,30.17228430401607]},"properties":{"OBJECTID":147,"Name":"CLEAR CHANNEL BROADCASTING, INC.","Address":"TWR 2 - 2615 EAST 15TH STREET","City":"PANAMA CITY","Zip":"32401","COUNTY":"BAY","X":-85.613699850000003,"Y":30.172284300000001,"LONGLAT":"-85.61369985,30.17228430","USNG":"16R FU 33480 38687","OWNERSHIP":null,"PARCELID":"15180-011-000","FACILITY_TYPE":"RADIO COMMUNICATIONS TOWER"}},{"type":"Feature","id":148,"geometry":{"type":"Point","coordinates":[-85.646218071755882,30.230539730878561]},"properties":{"OBJECTID":148,"Name":"COMCAST CABLEVISION OF PANAMA CITY","Address":"1901 MICHIGAN AVENUE","City":"LYNN HAVEN","Zip":"32444","COUNTY":"BAY","X":-85.646218070000003,"Y":30.23053973,"LONGLAT":"-85.64621807,30.23053973","USNG":"16R FU 30272 45106","OWNERSHIP":null,"PARCELID":"11664-000-000","FACILITY_TYPE":"RADIO COMMUNICATIONS TOWER"}},{"type":"Feature","id":149,"geometry":{"type":"Point","coordinates":[-85.639670757865034,30.174036635354472]},"properties":{"OBJECTID":149,"Name":"NEW CINGULAR WIRELESS PCS, LLC","Address":"1230 15TH ST E","City":"PANAMA CITY","Zip":"32401","COUNTY":"BAY","X":-85.639670760000001,"Y":30.174036640000001,"LONGLAT":"-85.63967076,30.17403664","USNG":"16R FU 30977 38851","OWNERSHIP":null,"PARCELID":"16071-000-000","FACILITY_TYPE":"RADIO COMMUNICATIONS TOWER"}},{"type":"Feature","id":150,"geometry":{"type":"Point","coordinates":[-85.649558160137829,30.235262509473888]},"properties":{"OBJECTID":150,"Name":"NEW CINGULAR WIRELESS PCS, LLC","Address":"1511 FLORIDA AVENUE","City":"LYNN HAVEN","Zip":"32444","COUNTY":"BAY","X":-85.649558159999998,"Y":30.235262509999998,"LONGLAT":"-85.64955816,30.23526251","USNG":"16R FU 29944 45626","OWNERSHIP":null,"PARCELID":"10354-005-000","FACILITY_TYPE":"RADIO COMMUNICATIONS TOWER"}},{"type":"Feature","id":151,"geometry":{"type":"Point","coordinates":[-85.774000000738312,30.186299999001719]},"properties":{"OBJECTID":151,"Name":"CROWN CASTLE PT, INC.","Address":"8008 FRONT BEACH ROAD","City":"PANAMA CITY BEACH","Zip":"32407","COUNTY":"BAY","X":-85.774000000000001,"Y":30.186299999999999,"LONGLAT":"-85.77400000,30.18630000","USNG":"16R FU 18027 40064","OWNERSHIP":null,"PARCELID":"27820-010-000","FACILITY_TYPE":"RADIO COMMUNICATIONS TOWER"}},{"type":"Feature","id":152,"geometry":{"type":"Point","coordinates":[-85.505972731761531,30.244932248946835]},"properties":{"OBJECTID":152,"Name":"HOAK MEDIA OF PANAMA CITY, LLC","Address":"MAJETTE TOWER ROAD","City":"PANAMA CITY","Zip":"32404","COUNTY":"BAY","X":-85.505972729999996,"Y":30.244932250000002,"LONGLAT":"-85.50597273,30.24493225","USNG":"16R FU 43748 46870","OWNERSHIP":null,"PARCELID":"05899-010-000","FACILITY_TYPE":"RADIO COMMUNICATIONS TOWER"}},{"type":"Feature","id":153,"geometry":{"type":"Point","coordinates":[-85.833541260712636,30.195014503473278]},"properties":{"OBJECTID":153,"Name":"PINNACLE TOWERS LLC","Address":"12425 A MIDDLE BEACH ROAD","City":"PANAMA CITY BEACH","Zip":"32407","COUNTY":"BAY","X":-85.833541260000004,"Y":30.195014499999999,"LONGLAT":"-85.83354126,30.19501450","USNG":"16R FU 12285 40969","OWNERSHIP":null,"PARCELID":"34063-030-000","FACILITY_TYPE":"RADIO COMMUNICATIONS TOWER"}},{"type":"Feature","id":154,"geometry":{"type":"Point","coordinates":[-85.671200000454931,30.203399999123349]},"properties":{"OBJECTID":154,"Name":"DETECT, INC","Address":"621 W. BALDWIN ROAD","City":"PANAMA CITY","Zip":"32405","COUNTY":"BAY","X":-85.671199999999999,"Y":30.203399999999998,"LONGLAT":"-85.67120000,30.20340000","USNG":"16R FU 27903 42070","OWNERSHIP":null,"PARCELID":"12998-010-000","FACILITY_TYPE":"RADIO COMMUNICATIONS TOWER"}},{"type":"Feature","id":155,"geometry":{"type":"Point","coordinates":[-85.527059711993431,30.268269597134459]},"properties":{"OBJECTID":155,"Name":"AMERICAN TOWERS, INC.","Address":"6818 BAYOU GEORGE DR","City":"PANAMA CITY","Zip":"32404","COUNTY":"BAY","X":-85.527059710000003,"Y":30.2682696,"LONGLAT":"-85.52705971,30.26826960","USNG":"16R FU 41685 49430","OWNERSHIP":null,"PARCELID":"05551-006-000","FACILITY_TYPE":"RADIO COMMUNICATIONS TOWER"}},{"type":"Feature","id":156,"geometry":{"type":"Point","coordinates":[-85.781900000286399,30.179099998973594]},"properties":{"OBJECTID":156,"Name":"WINSTANLEY, CHARLES K  DBA =  WINSTANLEY BROADCASTING, INC.","Address":"2415 LAURIE AVE","City":"PANAMA CITY","Zip":"32408","COUNTY":"BAY","X":-85.781899999999993,"Y":30.179099999999998,"LONGLAT":"-85.78190000,30.17910000","USNG":"16R FU 17275 39258","OWNERSHIP":null,"PARCELID":"27553-000-000","FACILITY_TYPE":"RADIO COMMUNICATIONS TOWER"}},{"type":"Feature","id":157,"geometry":{"type":"Point","coordinates":[-85.815400000341612,30.191599999756097]},"properties":{"OBJECTID":157,"Name":"SBA TOWERS II LLC","Address":"0.37 MILES SW OF STATE HIGHWAY 98","City":"PANAMA CITY BEACH","Zip":"32407","COUNTY":"BAY","X":-85.815399999999997,"Y":30.191600000000001,"LONGLAT":"-85.81540000,30.19160000","USNG":"16R FU 14035 40609","OWNERSHIP":null,"PARCELID":"34034-006-000","FACILITY_TYPE":"RADIO COMMUNICATIONS TOWER"}},{"type":"Feature","id":158,"geometry":{"type":"Point","coordinates":[-85.671598312473577,30.173019990403173]},"properties":{"OBJECTID":158,"Name":"FAMILY LIFE BROADCASTING, INC.","Address":"1104 BALBOA AVE","City":"PANAMA CITY","Zip":"32401","COUNTY":"BAY","X":-85.671598309999993,"Y":30.17301999,"LONGLAT":"-85.67159831,30.17301999","USNG":"16R FU 27904 38702","OWNERSHIP":null,"PARCELID":"18152-000-000","FACILITY_TYPE":"RADIO COMMUNICATIONS TOWER"}},{"type":"Feature","id":159,"geometry":{"type":"Point","coordinates":[-85.909098465933283,30.239798237038222]},"properties":{"OBJECTID":159,"Name":"CAPITAL TELECOM","Address":"17750 PANAMA CITY BEACH PARKWAY (AKA HU*","City":"PANAMA CITY BEACH","Zip":"32413","COUNTY":"BAY","X":-85.909098470000004,"Y":30.239798239999999,"LONGLAT":"-85.90909847,30.23979824","USNG":"16R FU 04964 45860","OWNERSHIP":null,"PARCELID":"38322-015-000","FACILITY_TYPE":"RADIO COMMUNICATIONS TOWER"}},{"type":"Feature","id":160,"geometry":{"type":"Point","coordinates":[-85.858144831354451,30.320898116631955]},"properties":{"OBJECTID":160,"Name":"360 COMMUNICATIONS COMPANY OF FLORIDA","Address":"ROUTE 79 & MARILYN RD.","City":"PANAMA CITY BEACH","Zip":"32413","COUNTY":"BAY","X":-85.858144830000001,"Y":30.320898119999999,"LONGLAT":"-85.85814483,30.32089812","USNG":"16R FU 09776 54896","OWNERSHIP":null,"PARCELID":"32500-000-000","FACILITY_TYPE":"RADIO COMMUNICATIONS TOWER"}},{"type":"Feature","id":161,"geometry":{"type":"Point","coordinates":[-85.683000000583363,30.181899999445502]},"properties":{"OBJECTID":161,"Name":"CLEAR CHANNEL BROADCASTING, INC.","Address":"1834 LISENBY AVENUE","City":"PANAMA CITY","Zip":"32405","COUNTY":"BAY","X":-85.683000000000007,"Y":30.181899999999999,"LONGLAT":"-85.68300000,30.18190000","USNG":"16R FU 26794 39674","OWNERSHIP":null,"PARCELID":"13822-020-000","FACILITY_TYPE":"RADIO COMMUNICATIONS TOWER"}},{"type":"Feature","id":162,"geometry":{"type":"Point","coordinates":[-85.636140840666073,30.179972053783938]},"properties":{"OBJECTID":162,"Name":"SBA TOWERS INC","Address":"1715 MAPLE AVE","City":"PANAMA CITY","Zip":"32405","COUNTY":"BAY","X":-85.636140839999996,"Y":30.17997205,"LONGLAT":"-85.63614084,30.17997205","USNG":"16R FU 31309 39513","OWNERSHIP":null,"PARCELID":"14638-102-010","FACILITY_TYPE":"RADIO COMMUNICATIONS TOWER"}},{"type":"Feature","id":163,"geometry":{"type":"Point","coordinates":[-85.660800000194229,30.209799999707453]},"properties":{"OBJECTID":163,"Name":"GLOBAL TOWER, LLC","Address":"115 WEST 34TH COURT","City":"PANAMA CITY","Zip":"32405","COUNTY":"BAY","X":-85.660799999999995,"Y":30.209800000000001,"LONGLAT":"-85.66080000,30.20980000","USNG":"16R FU 28896 42791","OWNERSHIP":null,"PARCELID":"11741-062-000","FACILITY_TYPE":"RADIO COMMUNICATIONS TOWER"}},{"type":"Feature","id":164,"geometry":{"type":"Point","coordinates":[-85.59530000011469,30.323099999627292]},"properties":{"OBJECTID":164,"Name":"AMERICAN TOWERS, INC.","Address":"4006 EDWARDS ROAD (#273607)","City":"PANAMA CITY","Zip":"32409","COUNTY":"BAY","X":-85.595299999999995,"Y":30.3231,"LONGLAT":"-85.59530000,30.32310000","USNG":"16R FU 35045 55424","OWNERSHIP":null,"PARCELID":"07611-040-000","FACILITY_TYPE":"RADIO COMMUNICATIONS TOWER"}},{"type":"Feature","id":165,"geometry":{"type":"Point","coordinates":[-85.587719021740838,30.256218536482727]},"properties":{"OBJECTID":165,"Name":"HIGHWOOD TOWERS, LLC","Address":"4900 HIGHWAY 2321","City":"PANAMA CITY","Zip":"32404","COUNTY":"BAY","X":-85.587719019999994,"Y":30.256218539999999,"LONGLAT":"-85.58771902,30.25621854","USNG":"16R FU 35866 48020","OWNERSHIP":null,"PARCELID":"05827-010-000","FACILITY_TYPE":"RADIO COMMUNICATIONS TOWER"}},{"type":"Feature","id":166,"geometry":{"type":"Point","coordinates":[-85.61579999996701,30.203599999092766]},"properties":{"OBJECTID":166,"Name":"DOUBLE O RADIO CORPORATION","Address":"3099 ORMOND AVENUE","City":"PANAMA CITY","Zip":"32405","COUNTY":"BAY","X":-85.615799999999993,"Y":30.203600000000002,"LONGLAT":"-85.61580000,30.20360000","USNG":"16R FU 33235 42155","OWNERSHIP":null,"PARCELID":"11973-050-000","FACILITY_TYPE":"RADIO COMMUNICATIONS TOWER"}},{"type":"Feature","id":167,"geometry":{"type":"Point","coordinates":[-85.637108103895983,30.287009509911606]},"properties":{"OBJECTID":167,"Name":"SBA STRUCTURES, INC.","Address":"7534 HIGHWAY 77","City":"PANAMA CITY","Zip":"32409","COUNTY":"BAY","X":-85.637108100000006,"Y":30.287009510000001,"LONGLAT":"-85.63710810,30.28700951","USNG":"16R FU 31073 51375","OWNERSHIP":null,"PARCELID":"07973-000-000","FACILITY_TYPE":"RADIO COMMUNICATIONS TOWER"}},{"type":"Feature","id":168,"geometry":{"type":"Point","coordinates":[-85.632700000669431,30.175199999063882]},"properties":{"OBJECTID":168,"Name":"SIKES PIPE CO INC","Address":"1901 E 15TH STREET","City":"PANAMA CITY","Zip":"32405","COUNTY":"BAY","X":-85.6327,"Y":30.1752,"LONGLAT":"-85.63270000,30.17520000","USNG":"16R FU 31646 38988","OWNERSHIP":null,"PARCELID":"14787-000-000","FACILITY_TYPE":"RADIO COMMUNICATIONS TOWER"}},{"type":"Feature","id":169,"geometry":{"type":"Point","coordinates":[-85.685199999913053,30.198599999286909]},"properties":{"OBJECTID":169,"Name":"SBA TOWERS II LLC","Address":"2805 LISENBY AVENUE, PANAMA CITY, FL (P*","City":"PANAMA CITY","Zip":"32405","COUNTY":"BAY","X":-85.685199999999995,"Y":30.198599999999999,"LONGLAT":"-85.68520000,30.19860000","USNG":"16R FU 26561 41522","OWNERSHIP":null,"PARCELID":"13108-000-000","FACILITY_TYPE":"RADIO COMMUNICATIONS TOWER"}},{"type":"Feature","id":170,"geometry":{"type":"Point","coordinates":[-85.415600000605906,30.433999999611022]},"properties":{"OBJECTID":170,"Name":"ALLTEL COMMUNICATIONS, LLC","Address":"0.8 MILES EAST OF I/S OF US 231 & S.R. *","City":"YOUNGSTOWN","Zip":"32466","COUNTY":"BAY","X":-85.415599999999998,"Y":30.434000000000001,"LONGLAT":"-85.41560000,30.43400000","USNG":"16R FU 52151 67943","OWNERSHIP":null,"PARCELID":"03438-010-000","FACILITY_TYPE":"RADIO COMMUNICATIONS TOWER"}},{"type":"Feature","id":171,"geometry":{"type":"Point","coordinates":[-85.613547260357265,30.17108920601385]},"properties":{"OBJECTID":171,"Name":"CLEAR CHANNEL BROADCASTING, INC.","Address":"TWR 3 - 2615 EAST 15TH STREET","City":"PANAMA CITY","Zip":"32401","COUNTY":"BAY","X":-85.613547260000004,"Y":30.171089210000002,"LONGLAT":"-85.61354726,30.17108921","USNG":"16R FU 33496 38555","OWNERSHIP":null,"PARCELID":"15180-011-000","FACILITY_TYPE":"RADIO COMMUNICATIONS TOWER"}},{"type":"Feature","id":172,"geometry":{"type":"Point","coordinates":[-85.400900000730289,30.516899998719587]},"properties":{"OBJECTID":172,"Name":"NEW CINGULAR WIRELESS PCS,  LLC","Address":"13231 TIMBERCREST DRIVE","City":"FOUNTAIN","Zip":"32438","COUNTY":"BAY","X":-85.400899999999993,"Y":30.5169,"LONGLAT":"-85.40090000,30.51690000","USNG":"16R FU 53433 77151","OWNERSHIP":null,"PARCELID":"00010-000-000","FACILITY_TYPE":"RADIO COMMUNICATIONS TOWER"}},{"type":"Feature","id":173,"geometry":{"type":"Point","coordinates":[-85.595800000259985,30.148599999347024]},"properties":{"OBJECTID":173,"Name":"VERIZON WIRELESS OF THE EAST LP","Address":"151 SENECA AVE","City":"PANAMA CITY","Zip":"32404","COUNTY":"BAY","X":-85.595799999999997,"Y":30.148599999999998,"LONGLAT":"-85.59580000,30.14860000","USNG":"16R FU 35236 36084","OWNERSHIP":null,"PARCELID":"24529-000-000","FACILITY_TYPE":"RADIO COMMUNICATIONS TOWER"}},{"type":"Feature","id":174,"geometry":{"type":"Point","coordinates":[-85.66140000028247,30.209799999295623]},"properties":{"OBJECTID":174,"Name":"TOWERCO ASSETS LLC","Address":"127 WEST 34TH COURT","City":"PANAMA CITY","Zip":"32405","COUNTY":"BAY","X":-85.6614,"Y":30.209800000000001,"LONGLAT":"-85.66140000,30.20980000","USNG":"16R FU 28838 42790","OWNERSHIP":null,"PARCELID":"11741-060-000","FACILITY_TYPE":"RADIO COMMUNICATIONS TOWER"}},{"type":"Feature","id":175,"geometry":{"type":"Point","coordinates":[-85.688700000339622,30.390799999127204]},"properties":{"OBJECTID":175,"Name":"AMERICAN TOWERS, INC.","Address":"2911 S HIGHWAY 77 (#275212)","City":"PANAMA CITY","Zip":"32409","COUNTY":"BAY","X":-85.688699999999997,"Y":30.390799999999999,"LONGLAT":"-85.68870000,30.39080000","USNG":"16R FU 25978 62819","OWNERSHIP":null,"PARCELID":"26486-020-000","FACILITY_TYPE":"RADIO COMMUNICATIONS TOWER"}},{"type":"Feature","id":176,"geometry":{"type":"Point","coordinates":[-85.390599999698793,29.943599999810125]},"properties":{"OBJECTID":176,"Name":"AMERICAN TOWERS, INC.","Address":"941 HWY 386  (HARMON / 023025)","City":"PANAMA CITY","Zip":"32403","COUNTY":"BAY","X":-85.390600000000006,"Y":29.9436,"LONGLAT":"-85.39060000,29.94360000","USNG":"16R FU 55320 13624","OWNERSHIP":null,"PARCELID":"04180-000-000","FACILITY_TYPE":"RADIO COMMUNICATIONS TOWER"}},{"type":"Feature","id":177,"geometry":{"type":"Point","coordinates":[-85.412099999966316,30.516499999516633]},"properties":{"OBJECTID":177,"Name":"INTREPID LAND USE SERVICES, INC.","Address":"12625 FOREST GLEN DRIVE","City":"FOUNTAIN","Zip":"32438","COUNTY":"BAY","X":-85.412099999999995,"Y":30.516500000000001,"LONGLAT":"-85.41210000,30.51650000","USNG":"16R FU 52359 77092","OWNERSHIP":null,"PARCELID":"00047-020-000","FACILITY_TYPE":"RADIO COMMUNICATIONS TOWER"}},{"type":"Feature","id":178,"geometry":{"type":"Point","coordinates":[-85.681299999431744,30.424199998691666]},"properties":{"OBJECTID":178,"Name":"PEACHTREE TOWERS, LLC","Address":"15140 BANKS DRIVE","City":"PANAMA CITY","Zip":"32409","COUNTY":"BAY","X":-85.681299999999993,"Y":30.424199999999999,"LONGLAT":"-85.68130000,30.42420000","USNG":"16R FU 26646 66529","OWNERSHIP":null,"PARCELID":"07457-020-000","FACILITY_TYPE":"RADIO COMMUNICATIONS TOWER"}},{"type":"Feature","id":179,"geometry":{"type":"Point","coordinates":[-85.62530000007294,30.188099998645857]},"properties":{"OBJECTID":179,"Name":"HILL & BROOKS COFFEE COMPANY, INC.","Address":"INT OF 22 ST & EAST AVE","City":"PANAMA CITY","Zip":"32405","COUNTY":"BAY","X":-85.625299999999996,"Y":30.188099999999999,"LONGLAT":"-85.62530000,30.18810000","USNG":"16R FU 32342 40427","OWNERSHIP":null,"PARCELID":"14660-123-000","FACILITY_TYPE":"RADIO COMMUNICATIONS TOWER"}},{"type":"Feature","id":180,"geometry":{"type":"Point","coordinates":[-85.833696402611636,30.194637633448906]},"properties":{"OBJECTID":180,"Name":"BAY, COUNTY FLORIDA","Address":"12425 HUTCHINSON BLVD","City":"PANAMA CITY BEACH","Zip":"32407","COUNTY":"BAY","X":-85.833696399999994,"Y":30.194637629999999,"LONGLAT":"-85.83369640,30.19463763","USNG":"16R FU 12270 40927","OWNERSHIP":null,"PARCELID":"34063-030-000","FACILITY_TYPE":"RADIO COMMUNICATIONS TOWER"}},{"type":"Feature","id":181,"geometry":{"type":"Point","coordinates":[-85.636122119184037,30.180101486026398]},"properties":{"OBJECTID":181,"Name":"SBA TOWERS, INC.","Address":"1715 MAPLE AVE","City":"PANAMA CITY","Zip":"32405","COUNTY":"BAY","X":-85.636122119999996,"Y":30.180101489999998,"LONGLAT":"-85.63612212,30.18010149","USNG":"16R FU 31310 39528","OWNERSHIP":null,"PARCELID":"14638-102-010","FACILITY_TYPE":"RADIO COMMUNICATIONS TOWER"}},{"type":"Feature","id":182,"geometry":{"type":"Point","coordinates":[-85.644399999562822,30.20189999970048]},"properties":{"OBJECTID":182,"Name":"BAY COUNTY SCHOOL BOARD","Address":"933 E BALDWIN RD","City":"PANAMA CITY","Zip":"32405","COUNTY":"BAY","X":-85.644400000000005,"Y":30.201899999999998,"LONGLAT":"-85.64440000,30.20190000","USNG":"16R FU 30485 41934","OWNERSHIP":null,"PARCELID":"12856-010-000","FACILITY_TYPE":"RADIO COMMUNICATIONS TOWER"}},{"type":"Feature","id":183,"geometry":{"type":"Point","coordinates":[-85.766399999977821,30.332199998737298]},"properties":{"OBJECTID":183,"Name":"R & R COMMUNICATIONS","Address":"4116 VOYLES ROAD`","City":"PANAMA CITY","Zip":"32409","COUNTY":"BAY","X":-85.766400000000004,"Y":30.3322,"LONGLAT":"-85.76640000,30.33220000","USNG":"16R FU 18584 56241","OWNERSHIP":null,"PARCELID":"26551-010-000","FACILITY_TYPE":"RADIO COMMUNICATIONS TOWER"}},{"type":"Feature","id":184,"geometry":{"type":"Point","coordinates":[-85.606500000109804,30.081099998764657]},"properties":{"OBJECTID":184,"Name":"AMERICAN TOWERS, INC.","Address":"7820 HWY 98 EAST  (#224680)","City":"PANAMA CITY","Zip":"32403","COUNTY":"BAY","X":-85.606499999999997,"Y":30.081099999999999,"LONGLAT":"-85.60650000,30.08110000","USNG":"16R FU 34297 28590","OWNERSHIP":null,"PARCELID":"26397-000-000","FACILITY_TYPE":"RADIO COMMUNICATIONS TOWER"}},{"type":"Feature","id":185,"geometry":{"type":"Point","coordinates":[-85.653858631062008,30.165629572866713]},"properties":{"OBJECTID":185,"Name":"BAY COUNTY BOARD OF COMMISSIONERS","Address":"517 E 9TH ST","City":"PANAMA CITY","Zip":"32401","COUNTY":"BAY","X":-85.653858630000002,"Y":30.16562957,"LONGLAT":"-85.65385863,30.16562957","USNG":"16R FU 29622 37903","OWNERSHIP":null,"PARCELID":null,"FACILITY_TYPE":"RADIO COMMUNICATIONS TOWER"}},{"type":"Feature","id":186,"geometry":{"type":"Point","coordinates":[-85.607200000627543,30.284199999678219]},"properties":{"OBJECTID":186,"Name":"INTREPID LAND USE SERVICES, INC.","Address":"4502 STATE ROAD 77A","City":"PANAMA CITY","Zip":"32409","COUNTY":"BAY","X":-85.607200000000006,"Y":30.284199999999998,"LONGLAT":"-85.60720000,30.28420000","USNG":"16R FU 33954 51098","OWNERSHIP":null,"PARCELID":"07801-021-000","FACILITY_TYPE":"RADIO COMMUNICATIONS TOWER"}},{"type":"Feature","id":187,"geometry":{"type":"Point","coordinates":[-85.888086578770924,30.228758252232975]},"properties":{"OBJECTID":187,"Name":"T-MOBILE SOUTH LLC","Address":"117 S. ARNOLD RD. (JK0228)","City":"PANAMA CITY BEACH","Zip":"32413","COUNTY":"BAY","X":-85.888086580000007,"Y":30.228758249999998,"LONGLAT":"-85.88808658,30.22875825","USNG":"16R FU 06997 44656","OWNERSHIP":null,"PARCELID":"33427-040-000","FACILITY_TYPE":"RADIO COMMUNICATIONS TOWER"}},{"type":"Feature","id":188,"geometry":{"type":"Point","coordinates":[-85.665599999891867,30.318199999097565]},"properties":{"OBJECTID":188,"Name":"ALLTEL COMMUNICATIONS, LLC","Address":"9234 TEACHEE TRAIL","City":"PANAMA CITY","Zip":"32409","COUNTY":"BAY","X":-85.665599999999998,"Y":30.318200000000001,"LONGLAT":"-85.66560000,30.31820000","USNG":"16R FU 28292 54799","OWNERSHIP":null,"PARCELID":"07666-000-000","FACILITY_TYPE":"RADIO COMMUNICATIONS TOWER"}},{"type":"Feature","id":189,"geometry":{"type":"Point","coordinates":[-85.6199000000219,30.365299999325352]},"properties":{"OBJECTID":189,"Name":"NEW CINGULAR WIRELESS PCS,  LLC","Address":"2500 EAST HIGHWAY 388","City":"YOUNGSTOWN","Zip":"32466","COUNTY":"BAY","X":-85.619900000000001,"Y":30.365300000000001,"LONGLAT":"-85.61990000,30.36530000","USNG":"16R FU 32623 60072","OWNERSHIP":null,"PARCELID":"07579-000-000","FACILITY_TYPE":"RADIO COMMUNICATIONS TOWER"}},{"type":"Feature","id":190,"geometry":{"type":"Point","coordinates":[-85.650899999783036,30.208799998766686]},"properties":{"OBJECTID":190,"Name":"VERIZON WIRELESS OF THE EAST LP","Address":"STATE ROAD 77 AT WEST 34TH STREET","City":"PANAMA CITY","Zip":"32405","COUNTY":"BAY","X":-85.650899999999993,"Y":30.2088,"LONGLAT":"-85.65090000,30.20880000","USNG":"16R FU 29850 42691","OWNERSHIP":null,"PARCELID":"11815-010-030","FACILITY_TYPE":"RADIO COMMUNICATIONS TOWER"}},{"type":"Feature","id":191,"geometry":{"type":"Point","coordinates":[-85.424400000328689,30.142799998904486]},"properties":{"OBJECTID":191,"Name":"GLOBAL OUTREACH MINISTRY NETWORK, INC.","Address":"ON SR22 13 KM E","City":"PANAMA CITY","Zip":"32404","COUNTY":"BAY","X":-85.424400000000006,"Y":30.142800000000001,"LONGLAT":"-85.42440000,30.14280000","USNG":"16R FU 51754 35656","OWNERSHIP":null,"PARCELID":"03923-000-000","FACILITY_TYPE":"RADIO COMMUNICATIONS TOWER"}},{"type":"Feature","id":192,"geometry":{"type":"Point","coordinates":[-85.586199999491441,30.232899999107172]},"properties":{"OBJECTID":192,"Name":"VERIZON WIRELESS OF THE EAST LP","Address":"4504 E. HIGHWAY 390","City":"PANAMA CITY","Zip":"32404","COUNTY":"BAY","X":-85.586200000000005,"Y":30.232900000000001,"LONGLAT":"-85.58620000,30.23290000","USNG":"16R FU 36045 45438","OWNERSHIP":null,"PARCELID":"05915-040-000","FACILITY_TYPE":"RADIO COMMUNICATIONS TOWER"}},{"type":"Feature","id":193,"geometry":{"type":"Point","coordinates":[-85.606099999675408,30.081099999093272]},"properties":{"OBJECTID":193,"Name":"TOWERCO ASSETS LLC","Address":"7821 HIGHWAY 98 EAST","City":"PANAMA CITY","Zip":"32403","COUNTY":"BAY","X":-85.606099999999998,"Y":30.081099999999999,"LONGLAT":"-85.60610000,30.08110000","USNG":"16R FU 34335 28591","OWNERSHIP":null,"PARCELID":"26397-000-000","FACILITY_TYPE":"RADIO COMMUNICATIONS TOWER"}},{"type":"Feature","id":194,"geometry":{"type":"Point","coordinates":[-85.793599999809956,30.173299998932798]},"properties":{"OBJECTID":194,"Name":"SBA INFRASTRUCTURES, LLC","Address":"9129 N. LAGOON DRIVE  (FL13077-A)","City":"PANAMA CITY","Zip":"32408","COUNTY":"BAY","X":-85.793599999999998,"Y":30.173300000000001,"LONGLAT":"-85.79360000,30.17330000","USNG":"16R FU 16156 38603","OWNERSHIP":null,"PARCELID":"30185-005-010","FACILITY_TYPE":"RADIO COMMUNICATIONS TOWER"}},{"type":"Feature","id":195,"geometry":{"type":"Point","coordinates":[-85.813599999904184,30.180499999801214]},"properties":{"OBJECTID":195,"Name":"NEW CINGULAR WIRELESS PCS, LLC","Address":"10901 FRONT BEACH RD.","City":"PANAMA CITY BEACH","Zip":"32407","COUNTY":"BAY","X":-85.813599999999994,"Y":30.180499999999999,"LONGLAT":"-85.81360000,30.18050000","USNG":"16R FU 14221 39381","OWNERSHIP":null,"PARCELID":"34881-577-000","FACILITY_TYPE":"RADIO COMMUNICATIONS TOWER"}},{"type":"Feature","id":196,"geometry":{"type":"Point","coordinates":[-85.53590000007037,30.265399999166977]},"properties":{"OBJECTID":196,"Name":"NEW CINGULAR WIRELESS PCS, LLC","Address":"6510 WENDY ROAD","City":"PANAMA CITY","Zip":"32404","COUNTY":"BAY","X":-85.535899999999998,"Y":30.2654,"LONGLAT":"-85.53590000,30.26540000","USNG":"16R FU 40839 49101","OWNERSHIP":null,"PARCELID":"05592-010-000","FACILITY_TYPE":"RADIO COMMUNICATIONS TOWER"}},{"type":"Feature","id":197,"geometry":{"type":"Point","coordinates":[-85.54000000037631,30.278799999108045]},"properties":{"OBJECTID":197,"Name":"ALLTEL COMMUNICATIONS, LLC","Address":"7134 HWY 2301","City":"PANAMA CITY","Zip":"32404","COUNTY":"BAY","X":-85.540000000000006,"Y":30.2788,"LONGLAT":"-85.54000000,30.27880000","USNG":"16R FU 40425 50581","OWNERSHIP":null,"PARCELID":"05470-020-020","FACILITY_TYPE":"RADIO COMMUNICATIONS TOWER"}},{"type":"Feature","id":198,"geometry":{"type":"Point","coordinates":[-85.428900000448138,30.432199999048773]},"properties":{"OBJECTID":198,"Name":"VERIZON WIRELESS OF THE EAST LP","Address":"15811 HWY 231","City":"YOUNGSTOWN","Zip":"32466","COUNTY":"BAY","X":-85.428899999999999,"Y":30.432200000000002,"LONGLAT":"-85.42890000,30.43220000","USNG":"16R FU 50877 67726","OWNERSHIP":null,"PARCELID":"03446-010-000","FACILITY_TYPE":"RADIO COMMUNICATIONS TOWER"}},{"type":"Feature","id":199,"geometry":{"type":"Point","coordinates":[-85.632799999327261,30.181099999116292]},"properties":{"OBJECTID":199,"Name":"ALLTEL COMMUNICATIONS, LLC","Address":"NW CORNER OF SHERMAN & 18TH STREET","City":"PANAMA CITY","Zip":"32405","COUNTY":"BAY","X":-85.632800000000003,"Y":30.181100000000001,"LONGLAT":"-85.63280000,30.18110000","USNG":"16R FU 31629 39642","OWNERSHIP":null,"PARCELID":"14704-010-000","FACILITY_TYPE":"RADIO COMMUNICATIONS TOWER"}},{"type":"Feature","id":200,"geometry":{"type":"Point","coordinates":[-85.673599999761237,30.166699998603086]},"properties":{"OBJECTID":200,"Name":"FLORIDA, STATE OF","Address":"TRANS DEPT MAINT YARD 1022 BALBOR AVE","City":"PANAMA CITY","Zip":"32401","COUNTY":"BAY","X":-85.673599999999993,"Y":30.166699999999999,"LONGLAT":"-85.67360000,30.16670000","USNG":"16R FU 27719 38000","OWNERSHIP":null,"PARCELID":"18141-000-000","FACILITY_TYPE":"RADIO COMMUNICATIONS TOWER"}},{"type":"Feature","id":201,"geometry":{"type":"Point","coordinates":[-85.754599999486118,30.16719999977337]},"properties":{"OBJECTID":201,"Name":"ALLTEL COMMUNICATIONS, LLC","Address":"127 GWYN DR.    (BAY POINT)","City":"PANAMA CITY","Zip":"32408","COUNTY":"BAY","X":-85.754599999999996,"Y":30.167200000000001,"LONGLAT":"-85.75460000,30.16720000","USNG":"16R FU 19918 37967","OWNERSHIP":null,"PARCELID":"30165-025-000","FACILITY_TYPE":"RADIO COMMUNICATIONS TOWER"}},{"type":"Feature","id":202,"geometry":{"type":"Point","coordinates":[-85.684600000539263,30.174199999289424]},"properties":{"OBJECTID":202,"Name":"AMERICAN TOWERS, INC.","Address":"1407 15TH STREET WEST  (#274352)","City":"PANAMA CITY","Zip":"32401","COUNTY":"BAY","X":-85.684600000000003,"Y":30.174199999999999,"LONGLAT":"-85.68460000,30.17420000","USNG":"16R FU 26650 38819","OWNERSHIP":null,"PARCELID":"18675-000-000","FACILITY_TYPE":"RADIO COMMUNICATIONS TOWER"}},{"type":"Feature","id":203,"geometry":{"type":"Point","coordinates":[-85.592500000021971,30.225499999120153]},"properties":{"OBJECTID":203,"Name":"SBA STRUCTURES, INC.","Address":"4230 BRANNON ROAD","City":"PANAMA CITY","Zip":"32404","COUNTY":"BAY","X":-85.592500000000001,"Y":30.2255,"LONGLAT":"-85.59250000,30.22550000","USNG":"16R FU 35448 44610","OWNERSHIP":null,"PARCELID":"11450-020-050","FACILITY_TYPE":"RADIO COMMUNICATIONS TOWER"}},{"type":"Feature","id":204,"geometry":{"type":"Point","coordinates":[-85.42409999946139,30.438599999706256]},"properties":{"OBJECTID":204,"Name":"AMERICAN TOWERS, INC.","Address":"15826 HIGHWAY 231","City":"FOUNTAIN","Zip":"32438","COUNTY":"BAY","X":-85.424099999999996,"Y":30.438600000000001,"LONGLAT":"-85.42410000,30.43860000","USNG":"16R FU 51328 68441","OWNERSHIP":null,"PARCELID":"02831-000-000","FACILITY_TYPE":"RADIO COMMUNICATIONS TOWER"}},{"type":"Feature","id":205,"geometry":{"type":"Point","coordinates":[-85.646000000483028,30.184599998983686]},"properties":{"OBJECTID":205,"Name":"THE BAY LINE RAILROAD LLC","Address":"2037 INDUSTRIAL DRIVE","City":"PANAMA CITY","Zip":"32405","COUNTY":"BAY","X":-85.646000000000001,"Y":30.1846,"LONGLAT":"-85.64600000,30.18460000","USNG":"16R FU 30353 40015","OWNERSHIP":null,"PARCELID":"14410-000-000","FACILITY_TYPE":"RADIO COMMUNICATIONS TOWER"}},{"type":"Feature","id":206,"geometry":{"type":"Point","coordinates":[-85.88636460474973,30.229006662457611]},"properties":{"OBJECTID":206,"Name":"VERIZON WIRELESS OF THE EAST LP","Address":"LOT 1 BLK 18 BAY COUNTY","City":"PANAMA CITY BEACH","Zip":"32413","COUNTY":"BAY","X":-85.886364599999993,"Y":30.22900666,"LONGLAT":"-85.88636460,30.22900666","USNG":"16R FU 07163 44685","OWNERSHIP":null,"PARCELID":"33478-000-000","FACILITY_TYPE":"RADIO COMMUNICATIONS TOWER"}},{"type":"Feature","id":207,"geometry":{"type":"Point","coordinates":[-85.495800000144015,30.181099999185019]},"properties":{"OBJECTID":207,"Name":"VERIZON WIRELESS OF THE EAST LP","Address":"337 CHESTNUT WAY","City":"PANAMA CITY","Zip":"32404","COUNTY":"BAY","X":-85.495800000000003,"Y":30.181100000000001,"LONGLAT":"-85.49580000,30.18110000","USNG":"16R FU 44820 39808","OWNERSHIP":null,"PARCELID":"05991-001-010","FACILITY_TYPE":"RADIO COMMUNICATIONS TOWER"}},{"type":"Feature","id":208,"geometry":{"type":"Point","coordinates":[-85.728630575135242,30.156516704705993]},"properties":{"OBJECTID":208,"Name":"TOWERCO ASSETS LLC","Address":"4408 DELWOOD LN","City":"PANAMA CITY","Zip":"32408","COUNTY":"BAY","X":-85.728630580000001,"Y":30.156516709999998,"LONGLAT":"-85.72863058,30.15651671","USNG":"16R FU 22432 36811","OWNERSHIP":null,"PARCELID":"31260-020-000","FACILITY_TYPE":"RADIO COMMUNICATIONS TOWER"}},{"type":"Feature","id":209,"geometry":{"type":"Point","coordinates":[-85.907400000705167,30.354199998699979]},"properties":{"OBJECTID":209,"Name":"AMERICAN TOWERS, INC.","Address":"10710 STEEL FIELD RD. (023032 / STEELFI*","City":"PANAMA CITY BEACH","Zip":"32413","COUNTY":"BAY","X":-85.907399999999996,"Y":30.354199999999999,"LONGLAT":"-85.90740000,30.35420000","USNG":"16R FU 05005 58540","OWNERSHIP":null,"PARCELID":"35126-000-000","FACILITY_TYPE":"RADIO COMMUNICATIONS TOWER"}},{"type":"Feature","id":210,"geometry":{"type":"Point","coordinates":[-85.666200000212399,30.171799998665616]},"properties":{"OBJECTID":210,"Name":"ALLTEL COMMUNICATIONS, LLC","Address":"531 W 13TH ST","City":"PANAMA CITY","Zip":"32401","COUNTY":"BAY","X":-85.666200000000003,"Y":30.171800000000001,"LONGLAT":"-85.66620000,30.17180000","USNG":"16R FU 28425 38573","OWNERSHIP":null,"PARCELID":"18045-010-000","FACILITY_TYPE":"RADIO COMMUNICATIONS TOWER"}},{"type":"Feature","id":211,"geometry":{"type":"Point","coordinates":[-85.638299999402264,30.09309999857734]},"properties":{"OBJECTID":211,"Name":"DGR ASSOCIATES, INC.","Address":"3304 PRIME BEEF RD","City":"PANAMA CITY","Zip":"32403","COUNTY":"BAY","X":-85.638300000000001,"Y":30.0931,"LONGLAT":"-85.63830000,30.09310000","USNG":"16R FU 31216 29883","OWNERSHIP":null,"PARCELID":"26219-000-000","FACILITY_TYPE":"RADIO COMMUNICATIONS TOWER"}},{"type":"Feature","id":212,"geometry":{"type":"Point","coordinates":[-85.442399999430776,30.345799999129586]},"properties":{"OBJECTID":212,"Name":"CROWN CASTLE PT, INC.","Address":".86 MI E OF US231 2.3 MI W OF BAY COUNT*","City":"YOUNGSTOWN","Zip":"32466","COUNTY":"BAY","X":-85.442400000000006,"Y":30.345800000000001,"LONGLAT":"-85.44240000,30.34580000","USNG":"16R FU 49712 58132","OWNERSHIP":null,"PARCELID":"03683-000-000","FACILITY_TYPE":"RADIO COMMUNICATIONS TOWER"}},{"type":"Feature","id":213,"geometry":{"type":"Point","coordinates":[-85.715679229508524,30.181306661948202]},"properties":{"OBJECTID":213,"Name":"ALLTEL COMMUNICATIONS, LLC","Address":"1804 HIGH AVE.","City":"PANAMA CITY","Zip":"32405","COUNTY":"BAY","X":-85.715679230000006,"Y":30.181306660000001,"LONGLAT":"-85.71567923,30.18130666","USNG":"16R FU 23649 39572","OWNERSHIP":null,"PARCELID":"28234-000-000","FACILITY_TYPE":"RADIO COMMUNICATIONS TOWER"}},{"type":"Feature","id":214,"geometry":{"type":"Point","coordinates":[-85.645221269177881,30.231352694269191]},"properties":{"OBJECTID":214,"Name":"VERIZON WIRELESS OF THE EAST LP","Address":"403 E 19TH ST","City":"LYNN HAVEN","Zip":"32444","COUNTY":"BAY","X":-85.645221269999993,"Y":30.231352699999999,"LONGLAT":"-85.64522127,30.23135270","USNG":"16R FU 30367 45197","OWNERSHIP":null,"PARCELID":"11660-066-000","FACILITY_TYPE":"RADIO COMMUNICATIONS TOWER"}},{"type":"Feature","id":215,"geometry":{"type":"Point","coordinates":[-85.524400000125155,30.43129999854154]},"properties":{"OBJECTID":215,"Name":"BAY COUNTY BOARD OF COMMISSIONERS","Address":"7300 EAST SR-20","City":"YOUNGSTOWN","Zip":"32466","COUNTY":"BAY","X":-85.5244,"Y":30.4313,"LONGLAT":"-85.52440000,30.43130000","USNG":"16R FU 41706 67502","OWNERSHIP":null,"PARCELID":"04983-010-000","FACILITY_TYPE":"RADIO COMMUNICATIONS TOWER"}},{"type":"Feature","id":216,"geometry":{"type":"Point","coordinates":[-85.543899999550916,30.155299998762445]},"properties":{"OBJECTID":216,"Name":"HIGHWOOD TOWERS, LLC","Address":"8507 HWY 22 EAST","City":"PANAMA CITY","Zip":"32404","COUNTY":"BAY","X":-85.543899999999994,"Y":30.1553,"LONGLAT":"-85.54390000,30.15530000","USNG":"16R FU 40225 36889","OWNERSHIP":null,"PARCELID":"06617-030-000","FACILITY_TYPE":"RADIO COMMUNICATIONS TOWER"}},{"type":"Feature","id":217,"geometry":{"type":"Point","coordinates":[-85.525399999633308,30.167999999090689]},"properties":{"OBJECTID":217,"Name":"BAY, COUNTY OF","Address":"9690 SR22","City":"PANAMA CITY","Zip":"32404","COUNTY":"BAY","X":-85.525400000000005,"Y":30.167999999999999,"LONGLAT":"-85.52540000,30.16800000","USNG":"16R FU 41989 38319","OWNERSHIP":null,"PARCELID":"05994-010-000","FACILITY_TYPE":"RADIO COMMUNICATIONS TOWER"}},{"type":"Feature","id":218,"geometry":{"type":"Point","coordinates":[-85.809100000224703,30.311799999295257]},"properties":{"OBJECTID":218,"Name":"HIGHWOOD TOWERS, LLC","Address":"8818 CROOKED CREEK DR","City":"PANAMA CITY BEACH","Zip":"32413","COUNTY":"BAY","X":-85.809100000000001,"Y":30.311800000000002,"LONGLAT":"-85.80910000,30.31180000","USNG":"16R FU 14502 53936","OWNERSHIP":null,"PARCELID":"32487-000-000","FACILITY_TYPE":"RADIO COMMUNICATIONS TOWER"}},{"type":"Feature","id":219,"geometry":{"type":"Point","coordinates":[-85.829699999362106,30.337299998882234]},