{"type":"FeatureCollection","features":[{"type":"Feature","id":1,"geometry":{"type":"Point","coordinates":[-82.271725856888821,29.678738733852075]},"properties":{"OBJECTID":1,"Name":"NORTH FLORIDA JUVENILE DETENTION CENTER","Address":"3436 NE 39TH AVE","City":"GAINESVILLE","Zip":"32609","COUNTY":"ALACHUA","X":-82.271725860000004,"Y":29.678738729999999,"LONGLAT":"-82.27172586,29.67873873","USNG":"17R LN 76946 83864","OWNERSHIP":"STATE","PARCELID":"08184 000 000","FACILITY_TYPE":"JUVENILE CORRECTIONAL INSTITUTION"}},{"type":"Feature","id":2,"geometry":{"type":"Point","coordinates":[-82.259658349128543,29.656829108847059]},"properties":{"OBJECTID":2,"Name":"GAINESVILLE STATE WORK CAMP","Address":"1000 NE 55TH BLVD","City":"GAINESVILLE","Zip":"32641","COUNTY":"ALACHUA","X":-82.259658349999995,"Y":29.65682911,"LONGLAT":"-82.25965835,29.65682911","USNG":"17R LN 78087 81423","OWNERSHIP":null,"PARCELID":"10885 000 000","FACILITY_TYPE":"LOCAL CORRECTIONAL INSTITUTION"}},{"type":"Feature","id":3,"geometry":{"type":"Point","coordinates":[-82.281408776756436,29.680030658008739]},"properties":{"OBJECTID":3,"Name":"ALACHUA COUNTY WORK RELEASE CENTER","Address":"3371 NE 39TH AVE","City":"GAINESVILLE","Zip":"32609","COUNTY":"ALACHUA","X":-82.281408780000007,"Y":29.68003066,"LONGLAT":"-82.28140878,29.68003066","USNG":"17R LN 76011 84017","OWNERSHIP":"STATE","PARCELID":"08191 001 000","FACILITY_TYPE":"LOCAL CORRECTIONAL INSTITUTION"}},{"type":"Feature","id":4,"geometry":{"type":"Point","coordinates":[-82.27872313968173,29.678007537889165]},"properties":{"OBJECTID":4,"Name":"ALACHUA COUNTY JAIL","Address":"3333 NE 39TH AVE","City":"GAINESVILLE","Zip":"32609","COUNTY":"ALACHUA","X":-82.278723139999997,"Y":29.678007539999999,"LONGLAT":"-82.27872314,29.67800754","USNG":"17R LN 76268 83790","OWNERSHIP":null,"PARCELID":"08191 002 000","FACILITY_TYPE":"LOCAL CORRECTIONAL INSTITUTION"}},{"type":"Feature","id":5,"geometry":{"type":"Point","coordinates":[-82.287053070014267,29.679879199507752]},"properties":{"OBJECTID":5,"Name":"GAINESVILLE CORRECTIONAL INSTITUTION","Address":"2845 NE 39TH AVE","City":"GAINESVILLE","Zip":"32609","COUNTY":"ALACHUA","X":-82.287053069999999,"Y":29.679879199999998,"LONGLAT":"-82.28705307,29.67987920","USNG":"17R LN 75464 84006","OWNERSHIP":"STATE","PARCELID":"08197 000 000","FACILITY_TYPE":"LOCAL CORRECTIONAL INSTITUTION"}},{"type":"Feature","id":6,"geometry":{"type":"Point","coordinates":[-82.27190521476885,29.680243991635876]},"properties":{"OBJECTID":6,"Name":"ALACHUA HALFWAY HOUSE","Address":"3430 NE 39TH AVE","City":"GAINESVILLE","Zip":"32609","COUNTY":"ALACHUA","X":-82.27190521,"Y":29.680243990000001,"LONGLAT":"-82.27190521,29.68024399","USNG":"17R LN 76931 84031","OWNERSHIP":null,"PARCELID":"08184 000 000","FACILITY_TYPE":"LOCAL CORRECTIONAL INSTITUTION"}},{"type":"Feature","id":7,"geometry":{"type":"Point","coordinates":[-82.286418421178979,29.682481611106891]},"properties":{"OBJECTID":7,"Name":"SANTA FE WORK RELEASE CENTER","Address":"2901 NE 39TH AVE","City":"GAINESVILLE","Zip":"32609","COUNTY":"ALACHUA","X":-82.286418420000004,"Y":29.68248161,"LONGLAT":"-82.28641842,29.68248161","USNG":"17R LN 75529 84294","OWNERSHIP":"STATE","PARCELID":"08191 000 000","FACILITY_TYPE":"LOCAL CORRECTIONAL INSTITUTION"}},{"type":"Feature","id":8,"geometry":{"type":"Point","coordinates":[-82.380149569524207,30.211550978220966]},"properties":{"OBJECTID":8,"Name":"BAKER WORK CAMP","Address":"20706 US-90","City":"SANDERSON","Zip":"32087","COUNTY":"BAKER","X":-82.38014957,"Y":30.211550979999998,"LONGLAT":"-82.38014957,30.21155098","USNG":"17R LP 67164 43032","OWNERSHIP":null,"PARCELID":"243S19000000000011","FACILITY_TYPE":"LOCAL CORRECTIONAL INSTITUTION"}},{"type":"Feature","id":9,"geometry":{"type":"Point","coordinates":[-82.375037711669151,30.213606760139299]},"properties":{"OBJECTID":9,"Name":"BAKER CORRECTIONAL INSTITUTION","Address":"21104 US HWY 90 E","City":"SANDERSON","Zip":"32087","COUNTY":"BAKER","X":-82.375037710000001,"Y":30.213606760000001,"LONGLAT":"-82.37503771,30.21360676","USNG":"17R LP 67659 43254","OWNERSHIP":null,"PARCELID":"243S19000000000020","FACILITY_TYPE":"LOCAL CORRECTIONAL INSTITUTION"}},{"type":"Feature","id":10,"geometry":{"type":"Point","coordinates":[-82.121650495082363,30.295968640997689]},"properties":{"OBJECTID":10,"Name":"BAKER COUNTY JAIL","Address":"1 SHERIFF'S OFFICE DR","City":"MACCLENNY","Zip":"32063","COUNTY":"BAKER","X":-82.121650500000001,"Y":30.295968640000002,"LONGLAT":"-82.12165050,30.29596864","USNG":"17R LP 92138 52114","OWNERSHIP":"COUNTY","PARCELID":"312S22000000000387","FACILITY_TYPE":"LOCAL CORRECTIONAL INSTITUTION"}},{"type":"Feature","id":11,"geometry":{"type":"Point","coordinates":[-85.672091659733695,30.213919299600672]},"properties":{"OBJECTID":11,"Name":"PANAMA CITY COMMUNITY CORRECTIONS WORK RELEASE CENTER","Address":"3609 W HIGHWAY 390","City":"PANAMA CITY","Zip":"32405","COUNTY":"BAY","X":-85.672091660000007,"Y":30.213919300000001,"LONGLAT":"-85.67209166,30.21391930","USNG":"16R FU 27803 43235","OWNERSHIP":"STATE","PARCELID":"11774-000-000","FACILITY_TYPE":"LOCAL CORRECTIONAL INSTITUTION"}},{"type":"Feature","id":12,"geometry":{"type":"Point","coordinates":[-85.653873450860644,30.167278821115996]},"properties":{"OBJECTID":12,"Name":"BAY COUNTY SHERIFF'S BOOT CAMP","Address":"456 E 11TH ST","City":"PANAMA CITY","Zip":"32401","COUNTY":"BAY","X":-85.653873450000006,"Y":30.16727882,"LONGLAT":"-85.65387345,30.16727882","USNG":"16R FU 29618 38086","OWNERSHIP":"COUNTY","PARCELID":"16674-000-000","FACILITY_TYPE":"LOCAL CORRECTIONAL INSTITUTION"}},{"type":"Feature","id":13,"geometry":{"type":"Point","coordinates":[-85.562086509863192,30.226217310744854]},"properties":{"OBJECTID":13,"Name":"BAY COUNTY DETENTION ANNEX","Address":"5600 NEHI RD","City":"PANAMA CITY","Zip":"32404","COUNTY":"BAY","X":-85.56208651,"Y":30.226217309999999,"LONGLAT":"-85.56208651,30.22621731","USNG":"16R FU 38375 44726","OWNERSHIP":"COUNTY","PARCELID":"05908-000-000","FACILITY_TYPE":"LOCAL CORRECTIONAL INSTITUTION"}},{"type":"Feature","id":14,"geometry":{"type":"Point","coordinates":[-85.65757398011111,30.154333076602033]},"properties":{"OBJECTID":14,"Name":"BAY COUNTY JAIL/SHERIFF DEPT","Address":"300 E 4TH ST","City":"PANAMA CITY","Zip":"32401","COUNTY":"BAY","X":-85.657573979999995,"Y":30.154333080000001,"LONGLAT":"-85.65757398,30.15433308","USNG":"16R FU 29278 36647","OWNERSHIP":"COUNTY","PARCELID":"19888-000-000","FACILITY_TYPE":"LOCAL CORRECTIONAL INSTITUTION"}},{"type":"Feature","id":15,"geometry":{"type":"Point","coordinates":[-85.432079601068111,30.460467704584122]},"properties":{"OBJECTID":15,"Name":"FLORIDA DEPARTMENT OF JUVENILE JUSTICE NORTH REGION - HOPE PROGRAM","Address":"11712 VANDOREN LN","City":"FOUNTAIN","Zip":"32438","COUNTY":"BAY","X":-85.432079599999994,"Y":30.46046771,"LONGLAT":"-85.43207960,30.46046771","USNG":"16R FU 50528 70854","OWNERSHIP":"STATE","PARCELID":"02691-030-000","FACILITY_TYPE":"JUVENILE CORRECTIONAL INSTITUTION"}},{"type":"Feature","id":16,"geometry":{"type":"Point","coordinates":[-85.65464340245768,30.167337346317964]},"properties":{"OBJECTID":16,"Name":"BAY REGIONAL JUVENILE DETENTION CENTER","Address":"450 E 11TH ST","City":"PANAMA CITY","Zip":"32401","COUNTY":"BAY","X":-85.654643399999998,"Y":30.16733735,"LONGLAT":"-85.65464340,30.16733735","USNG":"16R FU 29544 38092","OWNERSHIP":"COUNTY","PARCELID":"16674-005-000","FACILITY_TYPE":"JUVENILE CORRECTIONAL INSTITUTION"}},{"type":"Feature","id":17,"geometry":{"type":"Point","coordinates":[-85.505883667780665,30.265589206746334]},"properties":{"OBJECTID":17,"Name":"BAY CORRECTIONAL FACILITY","Address":"5400 BAYLINE DR","City":"PANAMA CITY","Zip":"32404","COUNTY":"BAY","X":-85.505883670000003,"Y":30.265589210000002,"LONGLAT":"-85.50588367,30.26558921","USNG":"16R FU 43726 49160","OWNERSHIP":"COUNTY","PARCELID":"05637-020-000","FACILITY_TYPE":"LOCAL CORRECTIONAL INSTITUTION"}},{"type":"Feature","id":18,"geometry":{"type":"Point","coordinates":[-82.186457551548457,30.056760750730444]},"properties":{"OBJECTID":18,"Name":"FLORIDA DEPARTMENT OF CORRECTIONS REGION 2 - NEW RIVER CORRECTIONAL INSTITUTION - WEST UNIT","Address":"23688 NW 83RD AVE","City":"STARKE","Zip":"32091","COUNTY":"BRADFORD","X":-82.18645755,"Y":30.056760749999999,"LONGLAT":"-82.18645755,30.05676075","USNG":"17R LP 85629 25668","OWNERSHIP":null,"PARCELID":"00469-0-00300","FACILITY_TYPE":"LOCAL CORRECTIONAL INSTITUTION"}},{"type":"Feature","id":19,"geometry":{"type":"Point","coordinates":[-82.183942381437603,30.062910553867916]},"properties":{"OBJECTID":19,"Name":"NEW RIVER \"O\" UNIT WORK CAMP","Address":"7819 NW 228TH ST","City":"STARKE","Zip":"32091","COUNTY":"BRADFORD","X":-82.183942380000005,"Y":30.062910550000002,"LONGLAT":"-82.18394238,30.06291055","USNG":"17R LP 85879 26347","OWNERSHIP":null,"PARCELID":"00469-0-00300","FACILITY_TYPE":"LOCAL CORRECTIONAL INSTITUTION"}},{"type":"Feature","id":20,"geometry":{"type":"Point","coordinates":[-82.072275075420762,30.033366690003454]},"properties":{"OBJECTID":20,"Name":"LAWTEY CORRECTIONAL INSTITUTION","Address":"22298 NE COUNTY ROAD 200B","City":"LAWTEY","Zip":"32058","COUNTY":"BRADFORD","X":-82.072275079999997,"Y":30.033366690000001,"LONGLAT":"-82.07227508,30.03336669","USNG":"17R LP 96613 22966","OWNERSHIP":"STATE","PARCELID":"01702-0-00000","FACILITY_TYPE":"LOCAL CORRECTIONAL INSTITUTION"}},{"type":"Feature","id":21,"geometry":{"type":"Point","coordinates":[-82.184462042583903,30.058756750920683]},"properties":{"OBJECTID":21,"Name":"FLORIDA STATE PRISON","Address":"7819 NW 228TH ST","City":"STARKE","Zip":"32091","COUNTY":"BRADFORD","X":-82.18446204,"Y":30.058756750000001,"LONGLAT":"-82.18446204,30.05875675","USNG":"17R LP 85824 25887","OWNERSHIP":"STATE","PARCELID":"00469-0-00300","FACILITY_TYPE":"STATE CORRECTIONAL INSTITUTION"}},{"type":"Feature","id":22,"geometry":{"type":"Point","coordinates":[-82.072275075420762,30.033366690003454]},"properties":{"OBJECTID":22,"Name":"LAWTEY CORRECTIONAL INSTITUTION","Address":"22298 NE COUNTY ROAD 200B","City":"LAWTEY","Zip":"32058","COUNTY":"BRADFORD","X":-82.072275079999997,"Y":30.033366690000001,"LONGLAT":"-82.07227508,30.03336669","USNG":"17R LP 96613 22966","OWNERSHIP":"STATE","PARCELID":"01702-0-00000","FACILITY_TYPE":"STATE CORRECTIONAL INSTITUTION"}},{"type":"Feature","id":23,"geometry":{"type":"Point","coordinates":[-82.178368299874364,30.062534993963077]},"properties":{"OBJECTID":23,"Name":"NEW RIVER CORRECTIONAL INSTITUTION","Address":"NW STATE ROAD 16 & NW 237TH ST","City":"LAWTEY","Zip":"32058","COUNTY":"BRADFORD","X":-82.178368300000002,"Y":30.06253499,"LONGLAT":"-82.17836830,30.06253499","USNG":"17R LP 86416 26299","OWNERSHIP":null,"PARCELID":"00469-0-00200","FACILITY_TYPE":"LOCAL CORRECTIONAL INSTITUTION"}},{"type":"Feature","id":24,"geometry":{"type":"Point","coordinates":[-80.713109554673466,28.122832452910526]},"properties":{"OBJECTID":24,"Name":"SPACE COAST MARINE INSTITUTE","Address":"1000 INSPIRATION LN","City":"MELBOURNE","Zip":"32934","COUNTY":"BREVARD","X":-80.713109549999999,"Y":28.122832450000001,"LONGLAT":"-80.71310955,28.12283245","USNG":"17R NM 28175 10842","OWNERSHIP":"OTHER PUBLIC","PARCELID":"27 362200  255","FACILITY_TYPE":"LOCAL CORRECTIONAL INSTITUTION"}},{"type":"Feature","id":25,"geometry":{"type":"Point","coordinates":[-80.774538814325794,28.446438219806556]},"properties":{"OBJECTID":25,"Name":"COCOA WORK RELEASE CENTER","Address":"585 CAMP RD","City":"COCOA","Zip":"32927","COUNTY":"BREVARD","X":-80.774538809999996,"Y":28.446438220000001,"LONGLAT":"-80.77453881,28.44643822","USNG":"17R NM 22075 46678","OWNERSHIP":"STATE","PARCELID":"23 353600   12","FACILITY_TYPE":"LOCAL CORRECTIONAL INSTITUTION"}},{"type":"Feature","id":26,"geometry":{"type":"Point","coordinates":[-80.786728066030662,28.445947152166976]},"properties":{"OBJECTID":26,"Name":"BREVARD WORK CAMP","Address":"855 CAMP RD","City":"COCOA","Zip":"32926","COUNTY":"BREVARD","X":-80.786728069999995,"Y":28.445947149999999,"LONGLAT":"-80.78672807,28.44594715","USNG":"17R NM 20882 46622","OWNERSHIP":"STATE OF FLORIDA TIITF","PARCELID":"23 353600  250","FACILITY_TYPE":"LOCAL CORRECTIONAL INSTITUTION"}},{"type":"Feature","id":27,"geometry":{"type":"Point","coordinates":[-80.784340824158789,28.449279461082899]},"properties":{"OBJECTID":27,"Name":"BREVARD REGIONAL JUVENILE DETENTION CENTER","Address":"5225 DEWITT AVE","City":"COCOA","Zip":"32927","COUNTY":"BREVARD","X":-80.784340819999997,"Y":28.44927946,"LONGLAT":"-80.78434082,28.44927946","USNG":"17R NM 21115 46991","OWNERSHIP":"COUNTY","PARCELID":"23 352500  527","FACILITY_TYPE":"JUVENILE CORRECTIONAL INSTITUTION"}},{"type":"Feature","id":28,"geometry":{"type":"Point","coordinates":[-80.79158407644492,28.545813647841218]},"properties":{"OBJECTID":28,"Name":"WALKER HALFWAY HOUSE","Address":"5332 RIVEREDGE DR","City":"TITUSVILLE","Zip":"32780","COUNTY":"BREVARD","X":-80.791584080000007,"Y":28.545813649999999,"LONGLAT":"-80.79158408,28.54581365","USNG":"17R NM 20387 57685","OWNERSHIP":"STATE","PARCELID":"22 352650         301","FACILITY_TYPE":"JUVENILE CORRECTIONAL INSTITUTION"}},{"type":"Feature","id":29,"geometry":{"type":"Point","coordinates":[-80.784421140928018,28.4179538241115]},"properties":{"OBJECTID":29,"Name":"BREVARD GROUP TREATMENT HOME","Address":"3905 GRISSOM PKWY","City":"COCOA","Zip":"32926","COUNTY":"BREVARD","X":-80.784421140000006,"Y":28.417953820000001,"LONGLAT":"-80.78442114,28.41795382","USNG":"17R NM 21113 43521","OWNERSHIP":"OTHER PUBLIC","PARCELID":"24 351200  255","FACILITY_TYPE":"LOCAL CORRECTIONAL INSTITUTION"}},{"type":"Feature","id":30,"geometry":{"type":"Point","coordinates":[-80.782867732210164,28.444242602354198]},"properties":{"OBJECTID":30,"Name":"BREVARD CORRECTIONAL INSTITUTION","Address":"855 CAMP RD","City":"COCOA","Zip":"32927","COUNTY":"BREVARD","X":-80.782867730000007,"Y":28.444242599999999,"LONGLAT":"-80.78286773,28.44424260","USNG":"17R NM 21260 46434","OWNERSHIP":"STATE OF FLORIDA TIITF","PARCELID":"23 353600  250","FACILITY_TYPE":"LOCAL CORRECTIONAL INSTITUTION"}},{"type":"Feature","id":31,"geometry":{"type":"Point","coordinates":[-80.781767877746745,28.448135958613815]},"properties":{"OBJECTID":31,"Name":"BREVARD COUNTY JAIL COMPLEX","Address":"860 CAMP RD","City":"COCOA","Zip":"32927","COUNTY":"BREVARD","X":-80.781767880000004,"Y":28.448135959999998,"LONGLAT":"-80.78176788,28.44813596","USNG":"17R NM 21367 46865","OWNERSHIP":"COUNTY","PARCELID":"23 352500  500","FACILITY_TYPE":"LOCAL CORRECTIONAL INSTITUTION"}},{"type":"Feature","id":32,"geometry":{"type":"Point","coordinates":[-80.15503571753942,26.196369209744876]},"properties":{"OBJECTID":32,"Name":"POMPANO WORK RELEASE CENTER","Address":"5600 NW 9TH AVE","City":"FORT LAUDERDALE","Zip":"33309","COUNTY":"BROWARD","X":-80.155035720000001,"Y":26.19636921,"LONGLAT":"-80.15503572,26.19636921","USNG":"17R NJ 84422 97705","OWNERSHIP":"STATE","PARCELID":"494210000530","FACILITY_TYPE":"STATE CORRECTIONAL INSTITUTION"}},{"type":"Feature","id":33,"geometry":{"type":"Point","coordinates":[-80.131804200148011,26.229093810967015]},"properties":{"OBJECTID":33,"Name":"TURNING POINT WORK RELEASE","Address":"400 SW 2ND ST","City":"POMPANO BEACH","Zip":"33060","COUNTY":"BROWARD","X":-80.131804200000005,"Y":26.229093809999998,"LONGLAT":"-80.13180420,26.22909381","USNG":"17R NK 86719 01345","OWNERSHIP":"STATE","PARCELID":"494202021630","FACILITY_TYPE":"STATE CORRECTIONAL INSTITUTION"}},{"type":"Feature","id":34,"geometry":{"type":"Point","coordinates":[-80.250155460652167,25.9991922425694]},"properties":{"OBJECTID":34,"Name":"SOUTH FLORIDA STATE HOSPITAL","Address":" ","City":"HOLLYWOOD","Zip":"33025","COUNTY":"BROWARD","X":-80.250155460000002,"Y":25.999192239999999,"LONGLAT":"-80.25015546,25.99919224","USNG":"17R NJ 75044 75809","OWNERSHIP":"STATE OF FLORIDA TIITF","PARCELID":"514121250010","FACILITY_TYPE":"STATE CORRECTIONAL INSTITUTION"}},{"type":"Feature","id":35,"geometry":{"type":"Point","coordinates":[-80.256185328131821,26.003705216459778]},"properties":{"OBJECTID":35,"Name":"HOLLYWOOD WORK RELEASE CENTER","Address":"8501 W CYPRESS DR","City":"HOLLYWOOD","Zip":"33025","COUNTY":"BROWARD","X":-80.256185329999994,"Y":26.003705220000001,"LONGLAT":"-80.25618533,26.00370522","USNG":"17R NJ 74438 76306","OWNERSHIP":"STATE","PARCELID":"514116010040","FACILITY_TYPE":"STATE CORRECTIONAL INSTITUTION"}},{"type":"Feature","id":36,"geometry":{"type":"Point","coordinates":[-80.250920879219763,25.996809857086273]},"properties":{"OBJECTID":36,"Name":"SOUTH PINES ACADEMY","Address":"8200 S PALM DR","City":"HOLLYWOOD","Zip":"33025","COUNTY":"BROWARD","X":-80.250920879999995,"Y":25.996809859999999,"LONGLAT":"-80.25092088,25.99680986","USNG":"17R NJ 74969 75545","OWNERSHIP":"COUNTY","PARCELID":"514121250010","FACILITY_TYPE":"JUVENILE CORRECTIONAL INSTITUTION"}},{"type":"Feature","id":37,"geometry":{"type":"Point","coordinates":[-80.252749748411091,26.003449755420881]},"properties":{"OBJECTID":37,"Name":"ELAINE GORDON CENTER","Address":"701 HIBISCUS DR","City":"HOLLYWOOD","Zip":"33025","COUNTY":"BROWARD","X":-80.252749750000007,"Y":26.003449759999999,"LONGLAT":"-80.25274975,26.00344976","USNG":"17R NJ 74782 76279","OWNERSHIP":"COUNTY","PARCELID":"514116010040","FACILITY_TYPE":"JUVENILE CORRECTIONAL INSTITUTION"}},{"type":"Feature","id":38,"geometry":{"type":"Point","coordinates":[-80.148336344316135,26.268547949390534]},"properties":{"OBJECTID":38,"Name":"BROWARD HALFWAY HOUSE","Address":"3090 N POWERLINE RD","City":"POMPANO BEACH","Zip":"33064","COUNTY":"BROWARD","X":-80.14833634,"Y":26.268547949999999,"LONGLAT":"-80.14833634,26.26854795","USNG":"17R NK 85039 05704","OWNERSHIP":"COUNTY","PARCELID":"484222440010","FACILITY_TYPE":"JUVENILE CORRECTIONAL INSTITUTION"}},{"type":"Feature","id":39,"geometry":{"type":"Point","coordinates":[-80.170689974527178,26.124391476690338]},"properties":{"OBJECTID":39,"Name":"BROWARD REGIONAL JUVENILE DETENTION CENTER","Address":"222 NW 22ND AVE","City":"FORT LAUDERDALE","Zip":"33311","COUNTY":"BROWARD","X":-80.170689969999998,"Y":26.12439148,"LONGLAT":"-80.17068997,26.12439148","USNG":"17R NJ 82909 89723","OWNERSHIP":"COUNTY","PARCELID":"504205380010","FACILITY_TYPE":"JUVENILE CORRECTIONAL INSTITUTION"}},{"type":"Feature","id":40,"geometry":{"type":"Point","coordinates":[-80.141133317077291,26.122882466320359]},"properties":{"OBJECTID":40,"Name":"US FEDERAL BUILDING AND COURTHOUSE","Address":"299 E BROWARD BLVD","City":"FORT LAUDERDALE","Zip":"33301","COUNTY":"BROWARD","X":-80.141133319999994,"Y":26.12288247,"LONGLAT":"-80.14113332,26.12288247","USNG":"17R NJ 85865 89575","OWNERSHIP":"FEDERAL","PARCELID":"504210111010","FACILITY_TYPE":"FEDERAL CORRECTIONAL INSTITUTION"}},{"type":"Feature","id":41,"geometry":{"type":"Point","coordinates":[-80.158579238696746,26.250132014987546]},"properties":{"OBJECTID":41,"Name":"BSO DOCC KITCHEN  WAREHOUSE","Address":"2451 NW 16 STREET","City":"2421 NW 16 ST","Zip":" ","COUNTY":"BROWARD","X":-80.158579239999995,"Y":26.250132019999999,"LONGLAT":"-80.15857924,26.25013202","USNG":"17R NK 84030 03657","OWNERSHIP":null,"PARCELID":null,"FACILITY_TYPE":"CORRECTIONAL FACILITY"}},{"type":"Feature","id":42,"geometry":{"type":"Point","coordinates":[-80.253648127709695,25.999207671930868]},"properties":{"OBJECTID":42,"Name":"THOMPSON ACADEMY","Address":"1150 HIBISCUS DR","City":"HOLLYWOOD","Zip":"33025","COUNTY":"BROWARD","X":-80.253648130000002,"Y":25.999207670000001,"LONGLAT":"-80.25364813,25.99920767","USNG":"17R NJ 74694 75809","OWNERSHIP":"COUNTY","PARCELID":"514121250010","FACILITY_TYPE":"JUVENILE CORRECTIONAL INSTITUTION"}},{"type":"Feature","id":43,"geometry":{"type":"Point","coordinates":[-80.419349411254018,26.03321552974899]},"properties":{"OBJECTID":43,"Name":"BROWARD CORRECTIONAL INST","Address":"20421 SHERIDAN ST","City":"FORT LAUDERDALE","Zip":"33332","COUNTY":"BROWARD","X":-80.419349409999995,"Y":26.03321553,"LONGLAT":"-80.41934941,26.03321553","USNG":"17R NJ 58094 79491","OWNERSHIP":"STATE OF FLORIDA TIITF","PARCELID":"513902020010","FACILITY_TYPE":"LOCAL CORRECTIONAL INSTITUTION"}},{"type":"Feature","id":44,"geometry":{"type":"Point","coordinates":[-80.16313753725538,26.248141941581991]},"properties":{"OBJECTID":44,"Name":"NORTH BROWARD CO DETENTION FACILITY","Address":"1550 BLOUNT RD","City":"POMPANO BEACH","Zip":"33069","COUNTY":"BROWARD","X":-80.163137539999994,"Y":26.24814194,"LONGLAT":"-80.16313754,26.24814194","USNG":"17R NK 83576 03434","OWNERSHIP":"COUNTY","PARCELID":"484228250030","FACILITY_TYPE":"LOCAL CORRECTIONAL INSTITUTION"}},{"type":"Feature","id":45,"geometry":{"type":"Point","coordinates":[-80.160080926279775,26.248070435717135]},"properties":{"OBJECTID":45,"Name":"BROWARD CO J.V. CONTE FACILITY","Address":"1351 NW 27TH AVE","City":"POMPANO BEACH","Zip":"33069","COUNTY":"BROWARD","X":-80.160080930000007,"Y":26.248070439999999,"LONGLAT":"-80.16008093,26.24807044","USNG":"17R NK 83881 03428","OWNERSHIP":"COUNTY","PARCELID":"484228250030","FACILITY_TYPE":"LOCAL CORRECTIONAL INSTITUTION"}},{"type":"Feature","id":46,"geometry":{"type":"Point","coordinates":[-80.158780037690349,26.120743470956757]},"properties":{"OBJECTID":46,"Name":"FT LAUDERDALE MUNCIPAL JAIL","Address":"1300 W BROWARD BLVD","City":"FORT LAUDERDALE","Zip":"33312","COUNTY":"BROWARD","X":-80.158780039999996,"Y":26.120743470000001,"LONGLAT":"-80.15878004,26.12074347","USNG":"17R NJ 84102 89327","OWNERSHIP":"MUNICIPAL","PARCELID":"504209010070","FACILITY_TYPE":"LOCAL CORRECTIONAL INSTITUTION"}},{"type":"Feature","id":47,"geometry":{"type":"Point","coordinates":[-80.151194042051728,26.27727927701822]},"properties":{"OBJECTID":47,"Name":"BROWARD CO WORK RELEASE CENTER","Address":"3900 N POWERLINE RD","City":"POMPANO BEACH","Zip":"33064","COUNTY":"BROWARD","X":-80.151194039999993,"Y":26.277279279999998,"LONGLAT":"-80.15119404,26.27727928","USNG":"17R NK 84748 06669","OWNERSHIP":null,"PARCELID":"484215310020","FACILITY_TYPE":"LOCAL CORRECTIONAL INSTITUTION"}},{"type":"Feature","id":48,"geometry":{"type":"Point","coordinates":[-80.142193436900712,26.116201629969268]},"properties":{"OBJECTID":48,"Name":"BROWARD CO MAIN JAIL","Address":"555 SE 1ST AVE","City":"FORT LAUDERDALE","Zip":"33301","COUNTY":"BROWARD","X":-80.14219344,"Y":26.116201629999999,"LONGLAT":"-80.14219344,26.11620163","USNG":"17R NJ 85764 88835","OWNERSHIP":"COUNTY","PARCELID":"504210850010","FACILITY_TYPE":"LOCAL CORRECTIONAL INSTITUTION"}},{"type":"Feature","id":49,"geometry":{"type":"Point","coordinates":[-85.043118724514642,30.44347820511074]},"properties":{"OBJECTID":49,"Name":"CALHOUN COUNTY JAIL/SHERIFF","Address":"20830 NE W.C. REEDER DR","City":"BLOUNTSTOWN","Zip":"32424","COUNTY":"CALHOUN","X":-85.043118719999995,"Y":30.443478209999999,"LONGLAT":"-85.04311872,30.44347821","USNG":"16R FU 87909 69554","OWNERSHIP":"COUNTY","PARCELID":"33-1N-08-0000-0024-0000","FACILITY_TYPE":"LOCAL CORRECTIONAL INSTITUTION"}},{"type":"Feature","id":50,"geometry":{"type":"Point","coordinates":[-85.067734989032715,30.40851532302694]},"properties":{"OBJECTID":50,"Name":"FLORIDA DEPARTMENT OF CORRECTIONS REGION 1 - CALHOUN CORRECTIONAL INSTITUTION","Address":"19562 SE INSTITUTION DR","City":"BLOUNTSTOWN","Zip":"32424","COUNTY":"CALHOUN","X":-85.067734990000005,"Y":30.408515319999999,"LONGLAT":"-85.06773499,30.40851532","USNG":"16R FU 85611 65638","OWNERSHIP":null,"PARCELID":"07-1S-08-0000-0001-0100","FACILITY_TYPE":"LOCAL CORRECTIONAL INSTITUTION"}},{"type":"Feature","id":51,"geometry":{"type":"Point","coordinates":[-85.063969229468,30.405967762197982]},"properties":{"OBJECTID":51,"Name":"CALHOUN CORRECTIONAL INSTITUTION WORK CAMP","Address":"19562 SE INSTITUTION DR","City":"BLOUNTSTOWN","Zip":"32424","COUNTY":"CALHOUN","X":-85.063969229999998,"Y":30.405967759999999,"LONGLAT":"-85.06396923,30.40596776","USNG":"16R FU 85978 65361","OWNERSHIP":"STATE","PARCELID":"08-1S-08-0000-0005-0000","FACILITY_TYPE":"LOCAL CORRECTIONAL INSTITUTION"}},{"type":"Feature","id":52,"geometry":{"type":"Point","coordinates":[-82.006812784043163,26.914880583141482]},"properties":{"OBJECTID":52,"Name":"CHARLOTTE COUNTY JAIL","Address":"26571 AIRPORT RD","City":"PUNTA GORDA","Zip":"33982","COUNTY":"CHARLOTTE","X":-82.006812780000004,"Y":26.914880579999998,"LONGLAT":"-82.00681278,26.91488058","USNG":"17R MK 00030 77405","OWNERSHIP":"COUNTY","PARCELID":"412316200006","FACILITY_TYPE":"LOCAL CORRECTIONAL INSTITUTION"}},{"type":"Feature","id":53,"geometry":{"type":"Point","coordinates":[-81.903406315152452,26.803579308476607]},"properties":{"OBJECTID":53,"Name":"CHARLOTTE CORRECTIONAL INSTITUTION","Address":"33123 OIL WELL RD","City":"PUNTA GORDA","Zip":"33955","COUNTY":"CHARLOTTE","X":-81.903406320000002,"Y":26.80357931,"LONGLAT":"-81.90340632,26.80357931","USNG":"17R MK 10210 64999","OWNERSHIP":"STATE","PARCELID":"422427100001","FACILITY_TYPE":"STATE CORRECTIONAL INSTITUTION"}},{"type":"Feature","id":54,"geometry":{"type":"Point","coordinates":[-81.697179715919816,26.935328112617313]},"properties":{"OBJECTID":54,"Name":"CROSSROADS WILDERNESS INSTITUTE","Address":"45991 BERMONT RD","City":"PUNTA GORDA","Zip":"33982","COUNTY":"CHARLOTTE","X":-81.697179719999994,"Y":26.93532811,"LONGLAT":"-81.69717972,26.93532811","USNG":"17R MK 30788 79463","OWNERSHIP":"STATE OF FLORIDA TIITF","PARCELID":"412603400001","FACILITY_TYPE":"JUVENILE CORRECTIONAL INSTITUTION"}},{"type":"Feature","id":55,"geometry":{"type":"Point","coordinates":[-82.481381660067456,28.84474023086733]},"properties":{"OBJECTID":55,"Name":"CYPRESS CREEK JUVENILE OFFENDER CORRECTIONAL CENTER","Address":"2855 W WOODLAND RIDGE DR","City":"LECANTO","Zip":"34461","COUNTY":"CITRUS","X":-82.481381659999997,"Y":28.844740229999999,"LONGLAT":"-82.48138166,28.84474023","USNG":"17R LM 55489 91685","OWNERSHIP":"STATE","PARCELID":"18E19S09      70003 0040","FACILITY_TYPE":"JUVENILE CORRECTIONAL INSTITUTION"}},{"type":"Feature","id":56,"geometry":{"type":"Point","coordinates":[-82.322073652360231,28.745869651624556]},"properties":{"OBJECTID":56,"Name":"CAMP E-NINI-HASSEE","Address":"7027 E STAGE COACH TRL","City":"FLORAL CITY","Zip":"34436","COUNTY":"CITRUS","X":-82.322073649999993,"Y":28.745869649999999,"LONGLAT":"-82.32207365,28.74586965","USNG":"17R LM 70910 80547","OWNERSHIP":"COUNTY","PARCELID":"20E20S16      12000","FACILITY_TYPE":"JUVENILE CORRECTIONAL INSTITUTION"}},{"type":"Feature","id":57,"geometry":{"type":"Point","coordinates":[-82.477239388915677,28.845039024783087]},"properties":{"OBJECTID":57,"Name":"CITRUS COUNTY DETENTION CENTER","Address":"2604 W WOODLAND RIDGE DR","City":"LECANTO","Zip":"34461","COUNTY":"CITRUS","X":-82.477239389999994,"Y":28.845039029999999,"LONGLAT":"-82.47723939,28.84503903","USNG":"17R LM 55894 91713","OWNERSHIP":"COUNTY","PARCELID":"18E19S09      70003","FACILITY_TYPE":"LOCAL CORRECTIONAL INSTITUTION"}},{"type":"Feature","id":58,"geometry":{"type":"Point","coordinates":[-81.687101008484575,30.003817574071412]},"properties":{"OBJECTID":58,"Name":"CLAY COUNTY JAIL","Address":"901 N ORANGE AVE","City":"GREEN COVE SPRINGS","Zip":"32043","COUNTY":"CLAY","X":-81.687224349999994,"Y":30.00396916,"LONGLAT":"-81.68722435,30.00396916","USNG":"17R MP 33720 19423","OWNERSHIP":"COUNTY","PARCELID":"38-06-26-018020-000-00","FACILITY_TYPE":"LOCAL CORRECTIONAL INSTITUTION"}},{"type":"Feature","id":59,"geometry":{"type":"Point","coordinates":[-81.764351076878242,26.127896710811012]},"properties":{"OBJECTID":59,"Name":"COLLIER COUNTY JAIL/SHERIFF DEPT","Address":"3301 E TAMIAMI TRL","City":"NAPLES","Zip":"34112","COUNTY":"COLLIER","X":-81.764351079999997,"Y":26.127896710000002,"LONGLAT":"-81.76435108,26.12789671","USNG":"17R MJ 23587 90072","OWNERSHIP":"COUNTY","PARCELID":"00389600008","FACILITY_TYPE":"LOCAL CORRECTIONAL INSTITUTION"}},{"type":"Feature","id":60,"geometry":{"type":"Point","coordinates":[-81.763849019318698,26.129155703569136]},"properties":{"OBJECTID":60,"Name":"COLLIER JUVENILE DETENTION CENTER","Address":"3319 TAMIAMI TRL E BLDG J","City":"NAPLES","Zip":"34112","COUNTY":"COLLIER","X":-81.763849019999995,"Y":26.129155699999998,"LONGLAT":"-81.76384902,26.12915570","USNG":"17R MJ 23638 90211","OWNERSHIP":"COUNTY","PARCELID":"00389600008","FACILITY_TYPE":"JUVENILE CORRECTIONAL INSTITUTION"}},{"type":"Feature","id":61,"geometry":{"type":"Point","coordinates":[-81.41170148222082,26.396338910436217]},"properties":{"OBJECTID":61,"Name":"COLLIER COUNTY IMMOKALEE JAIL CENTER","Address":"302 STOCKADE RD","City":"IMMOKALEE","Zip":"34142","COUNTY":"COLLIER","X":-81.411701480000005,"Y":26.396338910000001,"LONGLAT":"-81.41170148,26.39633891","USNG":"17R MK 58936 19642","OWNERSHIP":"COUNTY","PARCELID":"00137680005","FACILITY_TYPE":"CORRECTIONAL FACILITY"}},{"type":"Feature","id":62,"geometry":{"type":"Point","coordinates":[-81.264645774931708,25.940245179224551]},"properties":{"OBJECTID":62,"Name":"BIG CYPRESS WILDERNESS INSTITUTE","Address":"259595 TURNER RIVER RD","City":"OCHOPEE","Zip":"34141","COUNTY":"COLLIER","X":-81.264645770000001,"Y":25.940245180000002,"LONGLAT":"-81.26464577,25.94024518","USNG":"17R MJ 73501 69093","OWNERSHIP":"FEDERAL","PARCELID":"01143120008","FACILITY_TYPE":"CORRECTIONAL FACILITY"}},{"type":"Feature","id":63,"geometry":{"type":"Point","coordinates":[-82.508432506671696,30.187850712952617]},"properties":{"OBJECTID":63,"Name":"FLORIDA DEPARTMENT OF CORRECTIONS REGION 2 - COLUMBIA CORRECTIONAL INSTITUTION ANNEX","Address":"216 SE CORRECTIONS WAY","City":"LAKE CITY","Zip":"32025","COUNTY":"COLUMBIA","X":-82.508432510000006,"Y":30.187850709999999,"LONGLAT":"-82.50843251,30.18785071","USNG":"17R LP 54781 40562","OWNERSHIP":null,"PARCELID":"34-3S-18-10339-003","FACILITY_TYPE":"LOCAL CORRECTIONAL INSTITUTION"}},{"type":"Feature","id":64,"geometry":{"type":"Point","coordinates":[-82.643468520926206,30.220525466995454]},"properties":{"OBJECTID":64,"Name":"COLUMBIA COUNTY DETENTION CENTER/SHERIFF DEPT","Address":"389 NW QUINTEN ST","City":"LAKE CITY","Zip":"32055","COUNTY":"COLUMBIA","X":-82.643468519999999,"Y":30.220525469999998,"LONGLAT":"-82.64346852,30.22052547","USNG":"17R LP 41832 44363","OWNERSHIP":"COUNTY","PARCELID":"20-3S-17-05222-000","FACILITY_TYPE":"LOCAL CORRECTIONAL INSTITUTION"}},{"type":"Feature","id":65,"geometry":{"type":"Point","coordinates":[-82.504870828518747,30.190716333699879]},"properties":{"OBJECTID":65,"Name":"COLUMBIA WORK CAMP","Address":"216 SE CORRECTIONS WAY","City":"LAKE CITY","Zip":"32025","COUNTY":"COLUMBIA","X":-82.504870830000002,"Y":30.190716330000001,"LONGLAT":"-82.50487083,30.19071633","USNG":"17R LP 55128 40875","OWNERSHIP":null,"PARCELID":"34-3S-18-10339-001","FACILITY_TYPE":"LOCAL CORRECTIONAL INSTITUTION"}},{"type":"Feature","id":66,"geometry":{"type":"Point","coordinates":[-82.507206297155108,30.192908491220248]},"properties":{"OBJECTID":66,"Name":"LAKE CITY CORRECTIONAL FACILITY","Address":"216 SE CORRECTIONS WAY","City":"LAKE CITY","Zip":"32025","COUNTY":"COLUMBIA","X":-82.507206300000007,"Y":30.192908490000001,"LONGLAT":"-82.50720630,30.19290849","USNG":"17R LP 54907 41121","OWNERSHIP":null,"PARCELID":"34-3S-18-10339-002","FACILITY_TYPE":"LOCAL CORRECTIONAL INSTITUTION"}},{"type":"Feature","id":67,"geometry":{"type":"Point","coordinates":[-82.500894188180794,30.192153022022588]},"properties":{"OBJECTID":67,"Name":"COLUMBIA CORRECTIONAL INSTITUTION","Address":"216 SE CORRECTIONS WAY","City":"LAKE CITY","Zip":"32025","COUNTY":"COLUMBIA","X":-82.500894189999997,"Y":30.192153019999999,"LONGLAT":"-82.50089419,30.19215302","USNG":"17R LP 55513 41029","OWNERSHIP":null,"PARCELID":"34-3S-18-10339-001","FACILITY_TYPE":"LOCAL CORRECTIONAL INSTITUTION"}},{"type":"Feature","id":68,"geometry":{"type":"Point","coordinates":[-82.653915396106925,30.19499206111508]},"properties":{"OBJECTID":68,"Name":"LAKE CITY WORK RELEASE CTR","Address":"1099 NW DOT GLEN","City":"LAKE CITY","Zip":"32055","COUNTY":"COLUMBIA","X":-82.653915400000002,"Y":30.194992060000001,"LONGLAT":"-82.65391540,30.19499206","USNG":"17R LP 40785 41548","OWNERSHIP":"STATE","PARCELID":"30-3S-17-05866-000","FACILITY_TYPE":"LOCAL CORRECTIONAL INSTITUTION"}},{"type":"Feature","id":69,"geometry":{"type":"Point","coordinates":[-81.856330850592059,27.217100068050584]},"properties":{"OBJECTID":69,"Name":"DESOTO COUNTY JAIL","Address":"208 E CYPRESS ST","City":"ARCADIA","Zip":"34266","COUNTY":"DESOTO","X":-81.856330850000006,"Y":27.217100070000001,"LONGLAT":"-81.85633085,27.21710007","USNG":"17R ML 15200 10771","OWNERSHIP":"COUNTY","PARCELID":"25-37-24-0012-0210-0010","FACILITY_TYPE":"LOCAL CORRECTIONAL INSTITUTION"}},{"type":"Feature","id":70,"geometry":{"type":"Point","coordinates":[-81.89267681496797,27.233885619279356]},"properties":{"OBJECTID":70,"Name":"ARCADIA ROAD PRISON","Address":"2961 NW COUNTY ROAD 661","City":"ARCADIA","Zip":"34266","COUNTY":"DESOTO","X":-81.892676809999998,"Y":27.233885619999999,"LONGLAT":"-81.89267681,27.23388562","USNG":"17R ML 11614 12655","OWNERSHIP":"STATE","PARCELID":"27-37-24-0000-0180-0000","FACILITY_TYPE":"CORRECTIONAL FACILITY"}},{"type":"Feature","id":71,"geometry":{"type":"Point","coordinates":[-81.801788603477902,27.134717668225154]},"properties":{"OBJECTID":71,"Name":"KINGSLEY CENTER","Address":"5867 SE STATE ROAD 31","City":"ARCADIA","Zip":"34266","COUNTY":"DESOTO","X":-81.801788599999995,"Y":27.134717670000001,"LONGLAT":"-81.80178860,27.13471767","USNG":"17R ML 20543 01610","OWNERSHIP":"SPECIAL TAXING DISTRICT","PARCELID":"34-38-25-0000-0010-0000","FACILITY_TYPE":"CORRECTIONAL FACILITY"}},{"type":"Feature","id":72,"geometry":{"type":"Point","coordinates":[-81.799488534693239,27.135194549780181]},"properties":{"OBJECTID":72,"Name":"DESOTO DUAL DIAGNOSED CORRECTIONAL FACILITY","Address":"5871 SE STATE ROAD 31","City":"ARCADIA","Zip":"34266","COUNTY":"DESOTO","X":-81.799488530000005,"Y":27.135194550000001,"LONGLAT":"-81.79948853,27.13519455","USNG":"17R ML 20772 01661","OWNERSHIP":"SPECIAL TAXING DISTRICT","PARCELID":"34-38-25-0000-0010-0000","FACILITY_TYPE":"CORRECTIONAL FACILITY"}},{"type":"Feature","id":73,"geometry":{"type":"Point","coordinates":[-81.670367069220887,27.20704784547674]},"properties":{"OBJECTID":73,"Name":"DESOTO CORRECTIONAL INSTITUTE","Address":"13617 SE STATE ROAD 70","City":"ARCADIA","Zip":"34266","COUNTY":"DESOTO","X":-81.670367069999998,"Y":27.207047849999999,"LONGLAT":"-81.67036707,27.20704785","USNG":"17R ML 33610 09545","OWNERSHIP":null,"PARCELID":null,"FACILITY_TYPE":"CORRECTIONAL FACILITY"}},{"type":"Feature","id":74,"geometry":{"type":"Point","coordinates":[-81.670367069220887,27.20704784547674]},"properties":{"OBJECTID":74,"Name":"DESOTO CORRECTIONAL INSTITUTE - STATE MENTAL HOSPITAL","Address":"13617 SE STATE ROAD 70","City":"ARCADIA","Zip":"34266","COUNTY":"DESOTO","X":-81.670367069999998,"Y":27.207047849999999,"LONGLAT":"-81.67036707,27.20704785","USNG":"17R ML 33610 09545","OWNERSHIP":null,"PARCELID":null,"FACILITY_TYPE":"CORRECTIONAL FACILITY"}},{"type":"Feature","id":75,"geometry":{"type":"Point","coordinates":[-81.798720620047362,27.131236602909194]},"properties":{"OBJECTID":75,"Name":"DESOTO JUVENILE RESIDENTIAL FACILITY","Address":"5991 SE STATE ROAD 31","City":"ARCADIA","Zip":"34266","COUNTY":"DESOTO","X":-81.798720619999997,"Y":27.131236600000001,"LONGLAT":"-81.79872062,27.13123660","USNG":"17R ML 20845 01222","OWNERSHIP":"COUNTY","PARCELID":"34-38-25-0000-0010-0000","FACILITY_TYPE":"JUVENILE CORRECTIONAL INSTITUTION"}},{"type":"Feature","id":76,"geometry":{"type":"Point","coordinates":[-81.988930367942899,27.111368183437762]},"properties":{"OBJECTID":76,"Name":"SPRING LAKE YOUTH ACADEMY","Address":"8806 SW START CENTER ST","City":"ARCADIA","Zip":"34269","COUNTY":"DESOTO","X":-81.988930370000006,"Y":27.111368179999999,"LONGLAT":"-81.98893037,27.11136818","USNG":"17R MK 01977 99155","OWNERSHIP":"STATE","PARCELID":"02-39-23-0000-0040-0000","FACILITY_TYPE":"JUVENILE CORRECTIONAL INSTITUTION"}},{"type":"Feature","id":77,"geometry":{"type":"Point","coordinates":[-83.098632696865877,29.631331903076859]},"properties":{"OBJECTID":77,"Name":"CROSS CITY WORK CAMP","Address":"568 NE 255th ST","City":"CROSS CITY","Zip":"32628","COUNTY":"DIXIE","X":-83.098632699999996,"Y":29.631331899999999,"LONGLAT":"-83.09863270,29.63133190","USNG":"17R KN 96824 79775","OWNERSHIP":null,"PARCELID":"111012000026560000","FACILITY_TYPE":"LOCAL CORRECTIONAL INSTITUTION"}},{"type":"Feature","id":78,"geometry":{"type":"Point","coordinates":[-83.098967838253543,29.635291320340347]},"properties":{"OBJECTID":78,"Name":"CROSS CITY CORRECTIONAL INSTITUTE","Address":"519 NE 255th ST","City":"CROSS CITY","Zip":"32628","COUNTY":"DIXIE","X":-83.09896784,"Y":29.63529132,"LONGLAT":"-83.09896784,29.63529132","USNG":"17R KN 96799 80214","OWNERSHIP":null,"PARCELID":"111012000026560000","FACILITY_TYPE":"LOCAL CORRECTIONAL INSTITUTION"}},{"type":"Feature","id":79,"geometry":{"type":"Point","coordinates":[-83.095560699254747,29.632479505316624]},"properties":{"OBJECTID":79,"Name":"DIXIE COUNTY JAIL/SHERIFF DEPT","Address":"386 NE 255TH ST","City":"CROSS CITY","Zip":"32628","COUNTY":"DIXIE","X":-83.095560699999993,"Y":29.63247951,"LONGLAT":"-83.09556070,29.63247951","USNG":"17R KN 97124 79897","OWNERSHIP":"COUNTY","PARCELID":"111012000026540000","FACILITY_TYPE":"LOCAL CORRECTIONAL INSTITUTION"}},{"type":"Feature","id":80,"geometry":{"type":"Point","coordinates":[-81.724853934869842,30.538410143782809]},"properties":{"OBJECTID":80,"Name":"J I MONTGOMERY CORRECTIONAL CENTER","Address":"4727 LANNIE RD","City":"JACKSONVILLE","Zip":"32218","COUNTY":"DUVAL","X":-81.724853929999995,"Y":30.53841014,"LONGLAT":"-81.72485393,30.53841014","USNG":"17R MP 30469 78671","OWNERSHIP":"COUNTY","PARCELID":"0196340100R","FACILITY_TYPE":"LOCAL CORRECTIONAL INSTITUTION"}},{"type":"Feature","id":81,"geometry":{"type":"Point","coordinates":[-81.638362720572616,30.345824452596922]},"properties":{"OBJECTID":81,"Name":"DUVAL REGIONAL JUVENILE DETENTION CENTER","Address":"1283 E 8TH ST","City":"JACKSONVILLE","Zip":"32206","COUNTY":"DUVAL","X":-81.638362720000003,"Y":30.345824449999999,"LONGLAT":"-81.63836272,30.34582445","USNG":"17R MP 38645 57279","OWNERSHIP":"COUNTY","PARCELID":"1149850000R","FACILITY_TYPE":"JUVENILE CORRECTIONAL INSTITUTION"}},{"type":"Feature","id":82,"geometry":{"type":"Point","coordinates":[-81.649246443830762,30.327806898149074]},"properties":{"OBJECTID":82,"Name":"DUVAL COUNTY COMMUNITY CORRECTIONS DIVISION","Address":"451 N CATHERINE ST","City":"JACKSONVILLE","Zip":"32202","COUNTY":"DUVAL","X":-81.649246439999999,"Y":30.327806899999999,"LONGLAT":"-81.64924644,30.32780690","USNG":"17R MP 37587 55288","OWNERSHIP":"COUNTY","PARCELID":"0733180000R","FACILITY_TYPE":"LOCAL CORRECTIONAL INSTITUTION"}},{"type":"Feature","id":83,"geometry":{"type":"Point","coordinates":[-81.696802654240798,30.307868697055504]},"properties":{"OBJECTID":83,"Name":"SHISA HOUSE E","Address":"2830 PARK ST","City":"JACKSONVILLE","Zip":"32205","COUNTY":"DUVAL","X":-81.696802649999995,"Y":30.3078687,"LONGLAT":"-81.69680265,30.30786870","USNG":"17R MP 33002 53106","OWNERSHIP":"STATE","PARCELID":"0783520000R","FACILITY_TYPE":"LOCAL CORRECTIONAL INSTITUTION"}},{"type":"Feature","id":84,"geometry":{"type":"Point","coordinates":[-81.641707026966415,30.297005437635939]},"properties":{"OBJECTID":84,"Name":"FLORIDA DOJJ NORTH REGION - DUVAL JUVENILE RESIDENTIAL FACILITY","Address":"3036 PHILLIPS HWY","City":"JACKSONVILLE","Zip":"32207","COUNTY":"DUVAL","X":-81.641707030000006,"Y":30.29700544,"LONGLAT":"-81.64170703,30.29700544","USNG":"17R MP 38293 51871","OWNERSHIP":"STATE","PARCELID":"1304120100R","FACILITY_TYPE":"JUVENILE CORRECTIONAL INSTITUTION"}},{"type":"Feature","id":85,"geometry":{"type":"Point","coordinates":[-81.722113518738368,30.541063605886073]},"properties":{"OBJECTID":85,"Name":"TIGER SUCCESS CENTER (SHOP)","Address":"4501 LANNIE RD","City":"JACKSONVILLE","Zip":"32218","COUNTY":"DUVAL","X":-81.722113519999994,"Y":30.541063609999998,"LONGLAT":"-81.72211352,30.54106361","USNG":"17R MP 30733 78963","OWNERSHIP":"STATE","PARCELID":"0196340010R","FACILITY_TYPE":"JUVENILE CORRECTIONAL INSTITUTION"}},{"type":"Feature","id":86,"geometry":{"type":"Point","coordinates":[-81.650620225967842,30.325770120279952]},"properties":{"OBJECTID":86,"Name":"JOHN E GOODE DETENTION FACILITY","Address":"500 E ADAMS ST","City":"JACKSONVILLE","Zip":"32202","COUNTY":"DUVAL","X":-81.650620230000001,"Y":30.325770120000001,"LONGLAT":"-81.65062023,30.32577012","USNG":"17R MP 37454 55063","OWNERSHIP":"COUNTY","PARCELID":"0734020000R","FACILITY_TYPE":"CORRECTIONAL FACILITY"}},{"type":"Feature","id":87,"geometry":{"type":"Point","coordinates":[-81.638385626953195,30.334101995370546]},"properties":{"OBJECTID":87,"Name":"IMPACT HALFWAY HOUSE","Address":"940 BRIDIER ST","City":"JACKSONVILLE","Zip":"32206","COUNTY":"DUVAL","X":-81.638385630000002,"Y":30.334102000000001,"LONGLAT":"-81.63838563,30.33410200","USNG":"17R MP 38635 55980","OWNERSHIP":null,"PARCELID":"1225660000R","FACILITY_TYPE":"LOCAL CORRECTIONAL INSTITUTION"}},{"type":"Feature","id":88,"geometry":{"type":"Point","coordinates":[-81.786409806302487,30.474218364564109]},"properties":{"OBJECTID":88,"Name":"DINSMORE COMMUNITY CORRECTIONAL CENTER","Address":"13200 OLD KINGS RD","City":"JACKSONVILLE","Zip":"32219","COUNTY":"DUVAL","X":-81.786409809999995,"Y":30.474218369999999,"LONGLAT":"-81.78640981,30.47421837","USNG":"17R MP 24514 71597","OWNERSHIP":"STATE","PARCELID":"0024890000R","FACILITY_TYPE":"LOCAL CORRECTIONAL INSTITUTION"}},{"type":"Feature","id":89,"geometry":{"type":"Point","coordinates":[-81.733853649675694,30.350411879905607]},"properties":{"OBJECTID":89,"Name":"FLORIDA DEPARTMENT OF CORRECTIONS REGION 2 - BRIDGES OF JACKSONVILLE WORK RELEASE CENTER","Address":"5110 W 12TH ST","City":"JACKSONVILLE","Zip":"32254","COUNTY":"DUVAL","X":-81.73385365,"Y":30.350411879999999,"LONGLAT":"-81.73385365,30.35041188","USNG":"17R MP 29470 57843","OWNERSHIP":null,"PARCELID":"0489260200R","FACILITY_TYPE":"LOCAL CORRECTIONAL INSTITUTION"}},{"type":"Feature","id":90,"geometry":{"type":"Point","coordinates":[-87.23277442813098,30.442025840380044]},"properties":{"OBJECTID":90,"Name":"ESCAMBIA COUNTY DETENTION FACILITY/SHERIFF DEPT","Address":"1200 W LEONARD ST","City":"PENSACOLA","Zip":"32501","COUNTY":"ESCAMBIA","X":-87.232774430000006,"Y":30.442025839999999,"LONGLAT":"-87.23277443,30.44202584","USNG":"16R DU 77649 67790","OWNERSHIP":"COUNTY","PARCELID":"172S305016000002","FACILITY_TYPE":"LOCAL CORRECTIONAL INSTITUTION"}},{"type":"Feature","id":91,"geometry":{"type":"Point","coordinates":[-87.236614034721285,30.443573620007822]},"properties":{"OBJECTID":91,"Name":"ESCAMBIA COUNTY JAIL","Address":"2920 N L ST","City":"PENSACOLA","Zip":"32501","COUNTY":"ESCAMBIA","X":-87.236614029999998,"Y":30.443573619999999,"LONGLAT":"-87.23661403,30.44357362","USNG":"16R DU 77281 67962","OWNERSHIP":"COUNTY","PARCELID":"172S305015000002","FACILITY_TYPE":"LOCAL CORRECTIONAL INSTITUTION"}},{"type":"Feature","id":92,"geometry":{"type":"Point","coordinates":[-87.292822202124484,30.959295204219771]},"properties":{"OBJECTID":92,"Name":"CENTURY CORRECTIONAL INSTITUTE","Address":"400 TEDDER RD","City":"CENTURY","Zip":"32535","COUNTY":"ESCAMBIA","X":-87.292822200000003,"Y":30.959295210000001,"LONGLAT":"-87.29282220,30.95929521","USNG":"16R DV 72033 25127","OWNERSHIP":"STATE","PARCELID":"125N313101000001","FACILITY_TYPE":"STATE CORRECTIONAL INSTITUTION"}},{"type":"Feature","id":93,"geometry":{"type":"Point","coordinates":[-87.299847765748908,30.957984188323543]},"properties":{"OBJECTID":93,"Name":"CENTURY WORK CAMP","Address":"430 TEDDER RD","City":"CENTURY","Zip":"32535","COUNTY":"ESCAMBIA","X":-87.29984777,"Y":30.957984190000001,"LONGLAT":"-87.29984777,30.95798419","USNG":"16R DV 71362 24984","OWNERSHIP":"STATE OF FLORIDA TIITF","PARCELID":"125N313101000001","FACILITY_TYPE":"CORRECTIONAL FACILITY"}},{"type":"Feature","id":94,"geometry":{"type":"Point","coordinates":[-87.299847765748908,30.957984188323543]},"properties":{"OBJECTID":94,"Name":"CENTURY WORK CAMP","Address":"430 TEDDER RD","City":"CENTURY","Zip":"32535","COUNTY":"ESCAMBIA","X":-87.29984777,"Y":30.957984190000001,"LONGLAT":"-87.29984777,30.95798419","USNG":"16R DV 71362 24984","OWNERSHIP":"STATE OF FLORIDA TIITF","PARCELID":"125N313101000001","FACILITY_TYPE":"CORRECTIONAL FACILITY"}},{"type":"Feature","id":95,"geometry":{"type":"Point","coordinates":[-87.236544589680818,30.44249833545517]},"properties":{"OBJECTID":95,"Name":"ESCAMBIA JUVENILE DETENTION CENTER","Address":"1800 ST. MARY AVE","City":"PENSACOLA","Zip":"32501","COUNTY":"ESCAMBIA","X":-87.236544589999994,"Y":30.44249834,"LONGLAT":"-87.23654459,30.44249834","USNG":"16R DU 77287 67843","OWNERSHIP":"COUNTY","PARCELID":"172S305015000002","FACILITY_TYPE":"JUVENILE CORRECTIONAL INSTITUTION"}},{"type":"Feature","id":96,"geometry":{"type":"Point","coordinates":[-87.34158613241469,30.462809839006038]},"properties":{"OBJECTID":96,"Name":"FPC PENSACOLA","Address":"110 RABY AVE","City":"PENSACOLA","Zip":"32526","COUNTY":"ESCAMBIA","X":-87.341586129999996,"Y":30.462809839999998,"LONGLAT":"-87.34158613,30.46280984","USNG":"16R DU 67208 70119","OWNERSHIP":null,"PARCELID":"371S311100000000","FACILITY_TYPE":"FEDERAL CORRECTIONAL INSTITUTION"}},{"type":"Feature","id":97,"geometry":{"type":"Point","coordinates":[-87.235447493569723,30.443448581434222]},"properties":{"OBJECTID":97,"Name":"PENSACOLA COMM CORRECTIONAL CENTER","Address":"3050 N L ST","City":"PENSACOLA","Zip":"32501","COUNTY":"ESCAMBIA","X":-87.235447489999999,"Y":30.443448579999998,"LONGLAT":"-87.23544749,30.44344858","USNG":"16R DU 77393 67948","OWNERSHIP":"STATE","PARCELID":"172S305016000002","FACILITY_TYPE":"LOCAL CORRECTIONAL INSTITUTION"}},{"type":"Feature","id":98,"geometry":{"type":"Point","coordinates":[-87.299847765748908,30.957984188323543]},"properties":{"OBJECTID":98,"Name":"ESCAMBIA OUTWARD BOUND I & II","Address":"430 TEDDER RD","City":"CENTURY","Zip":"32535","COUNTY":"ESCAMBIA","X":-87.29984777,"Y":30.957984190000001,"LONGLAT":"-87.29984777,30.95798419","USNG":"16R DV 71362 24984","OWNERSHIP":"STATE OF FLORIDA TIITF","PARCELID":"125N313101000001","FACILITY_TYPE":"LOCAL CORRECTIONAL INSTITUTION"}},{"type":"Feature","id":99,"geometry":{"type":"Point","coordinates":[-87.331820972753576,30.598646960227175]},"properties":{"OBJECTID":99,"Name":"ESCAMBIA COUNTY ROAD PRISON","Address":"601 HIGHWAY 297A","City":"CANTONMENT","Zip":"32533","COUNTY":"ESCAMBIA","X":-87.331820969999995,"Y":30.59864696,"LONGLAT":"-87.33182097,30.59864696","USNG":"16R DU 68190 85170","OWNERSHIP":"COUNTY","PARCELID":"161N314101000000","FACILITY_TYPE":"LOCAL CORRECTIONAL INSTITUTION"}},{"type":"Feature","id":100,"geometry":{"type":"Point","coordinates":[-81.256119013353597,29.452367530197495]},"properties":{"OBJECTID":100,"Name":"FLAGLER COUNTY INMATE FACILITY","Address":"1002 JUSTICE LN","City":"BUNNELL","Zip":"32110","COUNTY":"FLAGLER","X":-81.256119010000006,"Y":29.45236753,"LONGLAT":"-81.25611901,29.45236753","USNG":"17R MN 75163 58133","OWNERSHIP":"COUNTY","PARCELID":"22-12-30-0650-000A0-0011","FACILITY_TYPE":"LOCAL CORRECTIONAL INSTITUTION"}},{"type":"Feature","id":101,"geometry":{"type":"Point","coordinates":[-84.645861765782911,29.878369637952819]},"properties":{"OBJECTID":101,"Name":"FRANKLIN CORRECTIONAL INSTITUTION","Address":"1760 N COUNTY ROAD 67","City":"CARRABELLE","Zip":"32322","COUNTY":"FRANKLIN","X":-84.645861769999996,"Y":29.878369639999999,"LONGLAT":"-84.64586177,29.87836964","USNG":"16R GU 27360 07635","OWNERSHIP":null,"PARCELID":null,"FACILITY_TYPE":"LOCAL CORRECTIONAL INSTITUTION"}},{"type":"Feature","id":102,"geometry":{"type":"Point","coordinates":[-84.830914287132146,29.776128629750957]},"properties":{"OBJECTID":102,"Name":"FRANKLIN COUNTY JAIL","Address":"270 STATE ROAD 65","City":"EASTPOINT","Zip":"32328","COUNTY":"FRANKLIN","X":-84.830914289999996,"Y":29.776128629999999,"LONGLAT":"-84.83091429,29.77612863","USNG":"16R GT 09696 95950","OWNERSHIP":"COUNTY","PARCELID":"15-08S-06W-0000-0010-0010","FACILITY_TYPE":"LOCAL CORRECTIONAL INSTITUTION"}},{"type":"Feature","id":103,"geometry":{"type":"Point","coordinates":[-85.038820022430343,29.719998889496441]},"properties":{"OBJECTID":103,"Name":"FRANKLIN COUNTY WORK CAMP","Address":"1001 US HWY 98","City":"APALACHICOLA","Zip":"32320","COUNTY":"FRANKLIN","X":-85.038820020000003,"Y":29.719998889999999,"LONGLAT":"-85.03882002,29.71999889","USNG":"16R FT 89698 89369","OWNERSHIP":null,"PARCELID":"04-09S-08W-0000-0020-0000","FACILITY_TYPE":"LOCAL CORRECTIONAL INSTITUTION"}},{"type":"Feature","id":104,"geometry":{"type":"Point","coordinates":[-84.656347559562263,30.589756741343297]},"properties":{"OBJECTID":104,"Name":"GADSDEN CORRECTIONAL INSTITUTION","Address":"6044 GREENSBORO HWY","City":"QUINCY","Zip":"32351","COUNTY":"GADSDEN","X":-84.65634756,"Y":30.589756739999999,"LONGLAT":"-84.65634756,30.58975674","USNG":"16R GU 24721 86477","OWNERSHIP":"COUNTY","PARCELID":"3-08-2N-4W-0000-00120-0000","FACILITY_TYPE":"LOCAL CORRECTIONAL INSTITUTION"}},{"type":"Feature","id":105,"geometry":{"type":"Point","coordinates":[-84.83468595866178,30.707010673903579]},"properties":{"OBJECTID":105,"Name":"RIVER JUNCTION WORK CAMP","Address":"300 PECAN LN","City":"CHATTAHOOCHEE","Zip":"32324","COUNTY":"GADSDEN","X":-84.834685960000002,"Y":30.707010669999999,"LONGLAT":"-84.83468596,30.70701067","USNG":"16R GU 07367 99133","OWNERSHIP":null,"PARCELID":"1-33-4N-6W-0000-00110-0000","FACILITY_TYPE":"LOCAL CORRECTIONAL INSTITUTION"}},{"type":"Feature","id":106,"geometry":{"type":"Point","coordinates":[-84.590556976670442,30.553041238617499]},"properties":{"OBJECTID":106,"Name":"QUINCY CORRECTIONAL INSTITUTION","Address":"2049 PAT THOMAS PKWY","City":"QUINCY","Zip":"32351","COUNTY":"GADSDEN","X":-84.590556980000002,"Y":30.553041239999999,"LONGLAT":"-84.59055698,30.55304124","USNG":"16R GU 31119 82540","OWNERSHIP":"COUNTY","PARCELID":"3-24-2N-4W-0000-00311-0100","FACILITY_TYPE":"LOCAL CORRECTIONAL INSTITUTION"}},{"type":"Feature","id":107,"geometry":{"type":"Point","coordinates":[-82.869074668307448,29.607775258295334]},"properties":{"OBJECTID":107,"Name":"LANCASTER WORK CAMP","Address":"3449 SW STATE ROAD 26","City":"TRENTON","Zip":"32693","COUNTY":"GILCHRIST","X":-82.869074670000003,"Y":29.60777526,"LONGLAT":"-82.86907467,29.60777526","USNG":"17R LN 19010 76783","OWNERSHIP":null,"PARCELID":"13-10-14-0000-0003-0000","FACILITY_TYPE":"LOCAL CORRECTIONAL INSTITUTION"}},{"type":"Feature","id":108,"geometry":{"type":"Point","coordinates":[-82.818790195960347,29.602518077452686]},"properties":{"OBJECTID":108,"Name":"GILCHRIST COUNTY JAIL","Address":"9239 S US HWY 129","City":"TRENTON","Zip":"32693","COUNTY":"GILCHRIST","X":-82.818790199999995,"Y":29.602518079999999,"LONGLAT":"-82.81879020,29.60251808","USNG":"17R LN 23871 76123","OWNERSHIP":"COUNTY","PARCELID":"21-10-15-0000-0013-0000","FACILITY_TYPE":"LOCAL CORRECTIONAL INSTITUTION"}},{"type":"Feature","id":109,"geometry":{"type":"Point","coordinates":[-82.864367156273246,29.608566843349742]},"properties":{"OBJECTID":109,"Name":"LANCASTER CORRECTIONAL INSTITUTION","Address":"3449 SW STATE ROAD 26","City":"TRENTON","Zip":"32693","COUNTY":"GILCHRIST","X":-82.86436716,"Y":29.608566840000002,"LONGLAT":"-82.86436716,29.60856684","USNG":"17R LN 19468 76864","OWNERSHIP":null,"PARCELID":"13-10-14-0000-0003-0000","FACILITY_TYPE":"LOCAL CORRECTIONAL INSTITUTION"}},{"type":"Feature","id":110,"geometry":{"type":"Point","coordinates":[-81.120202952201751,26.838451964552714]},"properties":{"OBJECTID":110,"Name":"GLADES COUNTY JAIL/SHERIFF DEPT","Address":"1297 EAST STATE ROAD 78 ","City":"MOORE HAVEN","Zip":"33471","COUNTY":"GLADES","X":-81.120202950000007,"Y":26.838451970000001,"LONGLAT":"-81.12020295,26.83845197","USNG":"17R MK 88057 68548","OWNERSHIP":"COUNTY","PARCELID":"A09-42-32-A00-001B-0000","FACILITY_TYPE":"LOCAL CORRECTIONAL INSTITUTION"}},{"type":"Feature","id":111,"geometry":{"type":"Point","coordinates":[-81.120095468434727,26.838051975135254]},"properties":{"OBJECTID":111,"Name":"MOORE HAVEN CORR FACILITY","Address":"1282 EAST STATE ROAD 78 ","City":"MOORE HAVEN","Zip":"33471","COUNTY":"GLADES","X":-81.120095469999995,"Y":26.838051979999999,"LONGLAT":"-81.12009547,26.83805198","USNG":"17R MK 88067 68503","OWNERSHIP":null,"PARCELID":"A10-42-32-A01-002C-0000","FACILITY_TYPE":"CORRECTIONAL FACILITY"}},{"type":"Feature","id":112,"geometry":{"type":"Point","coordinates":[-85.137616480332326,29.908534995387388]},"properties":{"OBJECTID":112,"Name":"GULF CORRECTIONAL INSTITUTION WORK CAMP ","Address":"3222 DOC WHITFIELD RD","City":"PORT SAINT JOE","Zip":"32456","COUNTY":"GULF","X":-85.137616480000005,"Y":29.908535000000001,"LONGLAT":"-85.13761648,29.90853500","USNG":"16R FU 79803 10107","OWNERSHIP":"STATE","PARCELID":"01111-050R","FACILITY_TYPE":"STATE CORRECTIONAL INSTITUTION"}},{"type":"Feature","id":113,"geometry":{"type":"Point","coordinates":[-85.260927046434063,30.174078521877814]},"properties":{"OBJECTID":113,"Name":"GULF CORRECTIONAL INSTITUTION - ANNEX","Address":"699 IKE STEELE RD","City":"WEWAHITCHKA","Zip":"32465","COUNTY":"GULF","X":-85.260927050000006,"Y":30.174078519999998,"LONGLAT":"-85.26092705,30.17407852","USNG":"16R FU 67448 39352","OWNERSHIP":"STATE","PARCELID":"01355-050R","FACILITY_TYPE":"STATE CORRECTIONAL INSTITUTION"}},{"type":"Feature","id":114,"geometry":{"type":"Point","coordinates":[-85.267244577361623,30.175102891015818]},"properties":{"OBJECTID":114,"Name":"GULF CORRECTIONAL INST","Address":"500 IKE STEELE RD","City":"WEWAHITCHKA","Zip":"32465","COUNTY":"GULF","X":-85.267244579999996,"Y":30.175102890000002,"LONGLAT":"-85.26724458,30.17510289","USNG":"16R FU 66838 39456","OWNERSHIP":"STATE","PARCELID":"01355-051R","FACILITY_TYPE":"STATE CORRECTIONAL INSTITUTION"}},{"type":"Feature","id":115,"geometry":{"type":"Point","coordinates":[-82.937790753048517,30.52707171737433]},"properties":{"OBJECTID":115,"Name":"FLORIDA DOJJ NORTH REGION - PANTHER SUCCESS CENTER","Address":"11180 NE 38TH ST","City":"JASPER","Zip":"32052","COUNTY":"HAMILTON","X":-82.937790750000005,"Y":30.527071719999999,"LONGLAT":"-82.93779075,30.52707172","USNG":"17R LP 14082 78788","OWNERSHIP":"STATE","PARCELID":"2582-000","FACILITY_TYPE":"STATE CORRECTIONAL INSTITUTION"}},{"type":"Feature","id":116,"geometry":{"type":"Point","coordinates":[-82.967148800627015,30.503600383350101]},"properties":{"OBJECTID":116,"Name":"FLORIDA DEPARTMENT OF CORRECTIONS REGION 2 - HAMILTON CORRECTIONAL INSTITUTION-ANNEX","Address":"11419 COUNTY ROAD 249","City":"JASPER","Zip":"32052","COUNTY":"HAMILTON","X":-82.967148800000004,"Y":30.503600380000002,"LONGLAT":"-82.96714880,30.50360038","USNG":"17R LP 11220 76235","OWNERSHIP":"STATE","PARCELID":"6992-001","FACILITY_TYPE":"STATE CORRECTIONAL INSTITUTION"}},{"type":"Feature","id":117,"geometry":{"type":"Point","coordinates":[-82.961544770976687,30.501841244507954]},"properties":{"OBJECTID":117,"Name":"HAMILTON CORRECTIONAL INSTITUTION","Address":"10650 SW 46TH ST","City":"JASPER","Zip":"32052","COUNTY":"HAMILTON","X":-82.961544770000003,"Y":30.501841249999998,"LONGLAT":"-82.96154477,30.50184125","USNG":"17R LP 11754 76031","OWNERSHIP":"STATE","PARCELID":"2096-000","FACILITY_TYPE":"LOCAL CORRECTIONAL INSTITUTION"}},{"type":"Feature","id":118,"geometry":{"type":"Point","coordinates":[-82.959794675028178,30.50648254618844]},"properties":{"OBJECTID":118,"Name":"HAMILTON WORK CAMP","Address":"10650 SW 46TH ST","City":"JASPER","Zip":"32052","COUNTY":"HAMILTON","X":-82.959794680000002,"Y":30.506482550000001,"LONGLAT":"-82.95979468,30.50648255","USNG":"17R LP 11931 76543","OWNERSHIP":"STATE","PARCELID":"2096-000","FACILITY_TYPE":"LOCAL CORRECTIONAL INSTITUTION"}},{"type":"Feature","id":119,"geometry":{"type":"Point","coordinates":[-82.941347907039713,30.526284682175376]},"properties":{"OBJECTID":119,"Name":"HAMILTON COUNTY JAIL","Address":"3995 COUNTY ROAD 51 N","City":"JASPER","Zip":"32052","COUNTY":"HAMILTON","X":-82.941347910000005,"Y":30.52628468,"LONGLAT":"-82.94134791,30.52628468","USNG":"17R LP 13739 78707","OWNERSHIP":"COUNTY","PARCELID":"6987-000","FACILITY_TYPE":"LOCAL CORRECTIONAL INSTITUTION"}},{"type":"Feature","id":120,"geometry":{"type":"Point","coordinates":[-82.006799395347841,27.593812386643378]},"properties":{"OBJECTID":120,"Name":"HARDEE WORK CAMP","Address":"6899 STATE ROAD 62","City":"BOWLING GREEN","Zip":"33834","COUNTY":"HARDEE","X":-82.006799400000006,"Y":27.59381239,"LONGLAT":"-82.00679940,27.59381239","USNG":"17R ML 00637 52612","OWNERSHIP":null,"PARCELID":"21-33-23-0000-09910-0000","FACILITY_TYPE":"LOCAL CORRECTIONAL INSTITUTION"}},{"type":"Feature","id":121,"geometry":{"type":"Point","coordinates":[-82.014864713586846,27.590355264401651]},"properties":{"OBJECTID":121,"Name":"HARDEE CORRECTIONAL INSTITUTE","Address":"6901 STATE ROAD 62","City":"BOWLING GREEN","Zip":"33834","COUNTY":"HARDEE","X":-82.014864709999998,"Y":27.59035527,"LONGLAT":"-82.01486471,27.59035527","USNG":"17R LL 99838 52236","OWNERSHIP":null,"PARCELID":"21-33-23-0000-09910-0000","FACILITY_TYPE":"LOCAL CORRECTIONAL INSTITUTION"}},{"type":"Feature","id":122,"geometry":{"type":"Point","coordinates":[-81.259900965932275,26.310175787147738]},"properties":{"OBJECTID":122,"Name":"HENDRY WORK CAMP","Address":"11569 WAINWRIGHT DR","City":"IMMOKALEE","Zip":"34142","COUNTY":"HENDRY","X":-81.259900970000004,"Y":26.310175789999999,"LONGLAT":"-81.25990097,26.31017579","USNG":"17R MK 74058 10060","OWNERSHIP":"STATE","PARCELID":"1 31 48 18 A00 0001.0000","FACILITY_TYPE":"CORRECTIONAL FACILITY"}},{"type":"Feature","id":123,"geometry":{"type":"Point","coordinates":[-82.3752518937915,28.437282973273678]},"properties":{"OBJECTID":123,"Name":"ECKERD CHALLENGE PROGRAM","Address":"397 CULBREATH RD","City":"BROOKSVILLE","Zip":"34604","COUNTY":"HERNANDO","X":-82.375251890000001,"Y":28.437282969999998,"LONGLAT":"-82.37525189,28.43728297","USNG":"17R LM 65324 46413","OWNERSHIP":"COUNTY","PARCELID":"R35 423 19 0000 0020 0000","FACILITY_TYPE":"JUVENILE CORRECTIONAL INSTITUTION"}},{"type":"Feature","id":124,"geometry":{"type":"Point","coordinates":[-82.451069681009002,28.483473166019738]},"properties":{"OBJECTID":124,"Name":"HERNANDO COUNTY SHERIFF'S OFFICE - JAIL","Address":"16425 SPRING HILL DR","City":"BROOKSVILLE","Zip":"34604","COUNTY":"HERNANDO","X":-82.451069680000003,"Y":28.48347317,"LONGLAT":"-82.45106968,28.48347317","USNG":"17R LM 57960 51618","OWNERSHIP":"COUNTY","PARCELID":"R18 423 19 0000 0310 0010","FACILITY_TYPE":"LOCAL CORRECTIONAL INSTITUTION"}},{"type":"Feature","id":125,"geometry":{"type":"Point","coordinates":[-82.454252187933761,28.483455731500662]},"properties":{"OBJECTID":125,"Name":"HERNANDO CORRECTIONAL INSTITUTION","Address":"16411 SPRING HILL DR","City":"BROOKSVILLE","Zip":"34604","COUNTY":"HERNANDO","X":-82.454252190000005,"Y":28.483455729999999,"LONGLAT":"-82.45425219,28.48345573","USNG":"17R LM 57649 51620","OWNERSHIP":"COUNTY","PARCELID":"R13 423 18 0000 0030 0000","FACILITY_TYPE":"LOCAL CORRECTIONAL INSTITUTION"}},{"type":"Feature","id":126,"geometry":{"type":"Point","coordinates":[-81.443324867117909,27.043621761223971]},"properties":{"OBJECTID":126,"Name":"FLORIDA ENVIRONMENTAL INST","Address":"122 RANCH RD","City":"VENUS","Zip":"33960","COUNTY":"HIGHLANDS","X":-81.443324869999998,"Y":27.043621760000001,"LONGLAT":"-81.44332487,27.04362176","USNG":"17R MK 56032 91344","OWNERSHIP":"STATE","PARCELID":"C323929A0000100000","FACILITY_TYPE":"JUVENILE CORRECTIONAL INSTITUTION"}},{"type":"Feature","id":127,"geometry":{"type":"Point","coordinates":[-81.436619938894637,27.492855160361213]},"properties":{"OBJECTID":127,"Name":"HIGHLANDS CO JAIL/SHERIFF DEPT","Address":"338 S ORANGE ST","City":"SEBRING","Zip":"33870","COUNTY":"HIGHLANDS","X":-81.43661994,"Y":27.492855160000001,"LONGLAT":"-81.43661994,27.49285516","USNG":"17R ML 56870 41101","OWNERSHIP":"COUNTY","PARCELID":"S29342907007400010","FACILITY_TYPE":"LOCAL CORRECTIONAL INSTITUTION"}},{"type":"Feature","id":128,"geometry":{"type":"Point","coordinates":[-82.340906598773358,27.967431309303862]},"properties":{"OBJECTID":128,"Name":"HILLSBOROUGH REGIONAL JUVENILE DETENTION CENTER-EAST","Address":"9504 E COLUMBUS DR","City":"TAMPA","Zip":"33619","COUNTY":"HILLSBOROUGH","X":-82.340906599999997,"Y":27.967431309999998,"LONGLAT":"-82.34090660,27.96743131","USNG":"17R LL 68112 94318","OWNERSHIP":"COUNTY","PARCELID":"202907ZZZ000002401500U","FACILITY_TYPE":"JUVENILE CORRECTIONAL INSTITUTION"}},{"type":"Feature","id":129,"geometry":{"type":"Point","coordinates":[-82.371967646062828,27.958843002359892]},"properties":{"OBJECTID":129,"Name":"HILLSBOROUGH COUNTY ORIENT ROAD JAIL","Address":"1201 ORIENT RD","City":"TAMPA","Zip":"33619","COUNTY":"HILLSBOROUGH","X":-82.371967650000002,"Y":27.958843000000002,"LONGLAT":"-82.37196765,27.95884300","USNG":"17R LL 65046 93400","OWNERSHIP":"COUNTY","PARCELID":"192914ZZZ000005793600A","FACILITY_TYPE":"LOCAL CORRECTIONAL INSTITUTION"}},{"type":"Feature","id":130,"geometry":{"type":"Point","coordinates":[-82.336369438954904,27.959989740281962]},"properties":{"OBJECTID":130,"Name":"FALKENBURG ROAD JAIL","Address":"520 N FALKENBURG RD","City":"TAMPA","Zip":"33619","COUNTY":"HILLSBOROUGH","X":-82.336369439999999,"Y":27.959989740000001,"LONGLAT":"-82.33636944,27.95998974","USNG":"17R LL 68549 93489","OWNERSHIP":"COUNTY","PARCELID":"202918ZZZ000002512900U","FACILITY_TYPE":"CORRECTIONAL FACILITY"}},{"type":"Feature","id":131,"geometry":{"type":"Point","coordinates":[-82.509502654821787,27.980911869224645]},"properties":{"OBJECTID":131,"Name":"LESLIE PETERS HALFWAY HOUSE","Address":"3930 W DR MARTIN LUTHER KING JR BLVD","City":"TAMPA","Zip":"33614","COUNTY":"HILLSBOROUGH","X":-82.509502650000002,"Y":27.98091187,"LONGLAT":"-82.50950265,27.98091187","USNG":"17R LL 51546 96005","OWNERSHIP":"STATE","PARCELID":"182909ZZZ000005460900A","FACILITY_TYPE":"JUVENILE CORRECTIONAL INSTITUTION"}},{"type":"Feature","id":132,"geometry":{"type":"Point","coordinates":[-82.321286349147897,27.654285841946177]},"properties":{"OBJECTID":132,"Name":"YOUTH ENVIRONMENTAL SERVICES","Address":"4337 SAFFOLD RD","City":"WIMAUMA","Zip":"33598","COUNTY":"HILLSBOROUGH","X":-82.321286349999994,"Y":27.65428584,"LONGLAT":"-82.32128635,27.65428584","USNG":"17R LL 69668 59604","OWNERSHIP":"STATE","PARCELID":"203232ZZZ000003271000U","FACILITY_TYPE":"JUVENILE CORRECTIONAL INSTITUTION"}},{"type":"Feature","id":133,"geometry":{"type":"Point","coordinates":[-82.341797549633966,27.966734050806654]},"properties":{"OBJECTID":133,"Name":"FLORIDA DEPARTMENT OF JUVENILE JUSTICE CENTRAL REGION - COLUMBUS JUVENILE RESIDENTIAL FACILITY","Address":"9502 E COLUMBUS DR","City":"TAMPA","Zip":"33619","COUNTY":"HILLSBOROUGH","X":-82.341797549999995,"Y":27.966734049999999,"LONGLAT":"-82.34179755,27.96673405","USNG":"17R LL 68023 94242","OWNERSHIP":"STATE","PARCELID":"202918ZZZ000002512900U","FACILITY_TYPE":"JUVENILE CORRECTIONAL INSTITUTION"}},{"type":"Feature","id":134,"geometry":{"type":"Point","coordinates":[-82.510907193671898,27.980904242406879]},"properties":{"OBJECTID":134,"Name":"HILLSBOROUGH REGIONAL JUVENILE DETENTION CENTER","Address":"3948 W DR MARTIN LUTHER KING JR BLVD","City":"TAMPA","Zip":"33614","COUNTY":"HILLSBOROUGH","X":-82.510907189999998,"Y":27.980904240000001,"LONGLAT":"-82.51090719,27.98090424","USNG":"17R LL 51407 96006","OWNERSHIP":"COUNTY","PARCELID":"182909ZZZ000005460900A","FACILITY_TYPE":"JUVENILE CORRECTIONAL INSTITUTION"}},{"type":"Feature","id":135,"geometry":{"type":"Point","coordinates":[-82.340818328920889,27.968766441906325]},"properties":{"OBJECTID":135,"Name":"FLORIDA DEPARTMENT OF JUVENILE JUSTICE CENTRAL REGION - HILLSBOROUGH ACADEMY INTENSIVE RESIDENTIAL TREATMENT","Address":"9506 E COLUMBUS DR","City":"TAMPA","Zip":"33619","COUNTY":"HILLSBOROUGH","X":-82.340818330000005,"Y":27.96876644,"LONGLAT":"-82.34081833,27.96876644","USNG":"17R LL 68122 94466","OWNERSHIP":"STATE","PARCELID":"202907ZZZ000002401500U","FACILITY_TYPE":"JUVENILE CORRECTIONAL INSTITUTION"}},{"type":"Feature","id":136,"geometry":{"type":"Point","coordinates":[-82.342163269445777,27.967555682168769]},"properties":{"OBJECTID":136,"Name":"FALKENBURG ACADEMY","Address":"9508 E COLUMBUS DR","City":"TAMPA","Zip":"33619","COUNTY":"HILLSBOROUGH","X":-82.34216327,"Y":27.96755568,"LONGLAT":"-82.34216327,27.96755568","USNG":"17R LL 67988 94333","OWNERSHIP":"COUNTY","PARCELID":"202907ZZZ000002401500U","FACILITY_TYPE":"CORRECTIONAL FACILITY"}},{"type":"Feature","id":137,"geometry":{"type":"Point","coordinates":[-82.319270000265732,27.774879998950592]},"properties":{"OBJECTID":137,"Name":"HILLSBOROUGH CNTY CORRECTIONAL INSTITUTION","Address":"11150 672 HW","City":" ","Zip":" ","COUNTY":"HILLSBOROUGH","X":-82.319270000000003,"Y":27.77488,"LONGLAT":"-82.31927000,27.77488000","USNG":"17R LL 70010 72962","OWNERSHIP":null,"PARCELID":null,"FACILITY_TYPE":"CORRECTIONAL FACILITY"}},{"type":"Feature","id":138,"geometry":{"type":"Point","coordinates":[-82.473554701747688,27.982346459284134]},"properties":{"OBJECTID":138,"Name":"RIVERSIDE ACADEMY","Address":"4004 N RIVERSIDE DR","City":"TAMPA","Zip":"33603","COUNTY":"HILLSBOROUGH","X":-82.473554699999994,"Y":27.982346459999999,"LONGLAT":"-82.47355470,27.98234646","USNG":"17R LL 55083 96121","OWNERSHIP":null,"PARCELID":"182902ZZZ000005862500A","FACILITY_TYPE":"CORRECTIONAL FACILITY"}},{"type":"Feature","id":139,"geometry":{"type":"Point","coordinates":[-82.321815268435074,27.775259342348797]},"properties":{"OBJECTID":139,"Name":"HILLSBOROUGH CORR INST","Address":"11150 COUNTY ROAD 672","City":"RIVERVIEW","Zip":"33569","COUNTY":"HILLSBOROUGH","X":-82.321815270000002,"Y":27.775259340000002,"LONGLAT":"-82.32181527,27.77525934","USNG":"17R LL 69760 73007","OWNERSHIP":"STATE OF FLORIDA TIITF","PARCELID":"203120ZZZ000003160700U","FACILITY_TYPE":"LOCAL CORRECTIONAL INSTITUTION"}},{"type":"Feature","id":140,"geometry":{"type":"Point","coordinates":[-82.373506616674703,27.959972606119777]},"properties":{"OBJECTID":140,"Name":"HILLSBOROUGH COUNTY WORK RELEASE CENTER","Address":"1800 ORIENT RD","City":"TAMPA","Zip":"33619","COUNTY":"HILLSBOROUGH","X":-82.373506620000001,"Y":27.959972610000001,"LONGLAT":"-82.37350662,27.95997261","USNG":"17R LL 64896 93527","OWNERSHIP":"COUNTY","PARCELID":"1929144CE000012000010A","FACILITY_TYPE":"LOCAL CORRECTIONAL INSTITUTION"}},{"type":"Feature","id":141,"geometry":{"type":"Point","coordinates":[-85.669319718278871,30.747383891929175]},"properties":{"OBJECTID":141,"Name":"HOLMES WORK CAMP","Address":"3182 THOMAS DR","City":"BONIFAY","Zip":"32425","COUNTY":"HOLMES","X":-85.669319720000004,"Y":30.747383889999998,"LONGLAT":"-85.66931972,30.74738389","USNG":"16R FV 27373 02362","OWNERSHIP":null,"PARCELID":"0618.00-000-000-003.000","FACILITY_TYPE":"LOCAL CORRECTIONAL INSTITUTION"}},{"type":"Feature","id":142,"geometry":{"type":"Point","coordinates":[-85.670152128313688,30.755239283276421]},"properties":{"OBJECTID":142,"Name":"HOLMES CORRECTIONAL INSTITUTION","Address":"3142 THOMAS DR","City":"BONIFAY","Zip":"32425","COUNTY":"HOLMES","X":-85.670152130000005,"Y":30.755239280000001,"LONGLAT":"-85.67015213,30.75523928","USNG":"16R FV 27283 03232","OWNERSHIP":"STATE","PARCELID":"0618.00-000-000-002.100","FACILITY_TYPE":"LOCAL CORRECTIONAL INSTITUTION"}},{"type":"Feature","id":143,"geometry":{"type":"Point","coordinates":[-85.664455213856016,30.751127054060778]},"properties":{"OBJECTID":143,"Name":"HOLMES COUNTY JAIL/SHERIFF DEPT","Address":"3207 LONNY LINDSEY DR","City":"BONIFAY","Zip":"32425","COUNTY":"HOLMES","X":-85.66445521,"Y":30.751127050000001,"LONGLAT":"-85.66445521,30.75112705","USNG":"16R FV 27834 02782","OWNERSHIP":"STATE","PARCELID":"0618.00-000-000-002.100","FACILITY_TYPE":"LOCAL CORRECTIONAL INSTITUTION"}},{"type":"Feature","id":144,"geometry":{"type":"Point","coordinates":[-80.427545137970128,27.66490844057358]},"properties":{"OBJECTID":144,"Name":"INDIAN RIVER COUNTY JAIL","Address":"4055 41ST ST","City":"VERO BEACH","Zip":"32960","COUNTY":"INDIAN RIVER","X":-80.427545140000007,"Y":27.664908440000001,"LONGLAT":"-80.42754514,27.66490844","USNG":"17R NL 56458 60214","OWNERSHIP":"COUNTY","PARCELID":"32392700009012000002.0","FACILITY_TYPE":"LOCAL CORRECTIONAL INSTITUTION"}},{"type":"Feature","id":145,"geometry":{"type":"Point","coordinates":[-85.258776814531473,30.764842013468865]},"properties":{"OBJECTID":145,"Name":"JACKSON COUNTY CORRECTIONAL FACILITY","Address":"2737 PENN AVE","City":"MARIANNA","Zip":"32448","COUNTY":"JACKSON","X":-85.258776810000001,"Y":30.764842009999999,"LONGLAT":"-85.25877681,30.76484201","USNG":"16R FV 66646 04836","OWNERSHIP":"STATE","PARCELID":"08-4N-10-0000-0100-0000","FACILITY_TYPE":"LOCAL CORRECTIONAL INSTITUTION"}},{"type":"Feature","id":146,"geometry":{"type":"Point","coordinates":[-85.169056428165419,30.972184597381467]},"properties":{"OBJECTID":146,"Name":"JACKSON WORK CAMP","Address":"5607 10TH ST","City":"MALONE","Zip":"32445","COUNTY":"JACKSON","X":-85.169056429999998,"Y":30.972184599999999,"LONGLAT":"-85.16905643,30.97218460","USNG":"16R FV 74857 27957","OWNERSHIP":"STATE","PARCELID":"30-7N-09-0000-0120-0010","FACILITY_TYPE":"CORRECTIONAL FACILITY"}},{"type":"Feature","id":147,"geometry":{"type":"Point","coordinates":[-84.888629131436645,30.710795164767973]},"properties":{"OBJECTID":147,"Name":"APALACHEE CORRECTIONAL INSTITUTION WEST","Address":"52 W UNIT DR","City":"SNEADS","Zip":"32460","COUNTY":"JACKSON","X":-84.888629129999998,"Y":30.710795170000001,"LONGLAT":"-84.88862913,30.71079517","USNG":"16R GU 02192 99454","OWNERSHIP":"STATE","PARCELID":"25-4N-07-0000-0020-0000","FACILITY_TYPE":"CORRECTIONAL FACILITY"}},{"type":"Feature","id":148,"geometry":{"type":"Point","coordinates":[-85.168877144234131,30.968759149117393]},"properties":{"OBJECTID":148,"Name":"JACKSON CORRECTIONAL INSTITUTION","Address":"5563 10TH ST","City":"MALONE","Zip":"32445","COUNTY":"JACKSON","X":-85.168877140000006,"Y":30.96875915,"LONGLAT":"-85.16887714,30.96875915","USNG":"16R FV 74881 27577","OWNERSHIP":"STATE","PARCELID":"31-7N-09-0000-0030-0000","FACILITY_TYPE":"CORRECTIONAL FACILITY"}},{"type":"Feature","id":149,"geometry":{"type":"Point","coordinates":[-85.492198213408201,30.948237875875446]},"properties":{"OBJECTID":149,"Name":"GRACEVILLE WORK CAMP","Address":"5230 EZELL RD","City":"GRACEVILLE","Zip":"32440","COUNTY":"JACKSON","X":-85.492198209999998,"Y":30.948237880000001,"LONGLAT":"-85.49219821,30.94823788","USNG":"16R FV 44029 24840","OWNERSHIP":null,"PARCELID":"01-6N-13-0000-0100-0120","FACILITY_TYPE":"CORRECTIONAL FACILITY"}},{"type":"Feature","id":150,"geometry":{"type":"Point","coordinates":[-84.876651927693317,30.708973563251384]},"properties":{"OBJECTID":150,"Name":"APALACHEE CORRECTIONAL INSTITUTION","Address":"35 APALACHEE DR","City":"SNEADS","Zip":"32460","COUNTY":"JACKSON","X":-84.876651929999994,"Y":30.70897356,"LONGLAT":"-84.87665193,30.70897356","USNG":"16R GU 03343 99274","OWNERSHIP":null,"PARCELID":"30-4N-06-0000-0010-0000","FACILITY_TYPE":"CORRECTIONAL FACILITY"}},{"type":"Feature","id":151,"geometry":{"type":"Point","coordinates":[-85.494243929180243,30.95151656713778]},"properties":{"OBJECTID":151,"Name":"FLORIDA DOJJ NORTH REGION - DOVE VOCATIONAL ACADEMY","Address":"5270 EZELL RD","City":"GRACEVILLE","Zip":"32440","COUNTY":"JACKSON","X":-85.494243929999996,"Y":30.951516569999999,"LONGLAT":"-85.49424393,30.95151657","USNG":"16R FV 43829 25200","OWNERSHIP":"STATE","PARCELID":"01-6N-13-0000-0100-0061","FACILITY_TYPE":"JUVENILE CORRECTIONAL INSTITUTION"}},{"type":"Feature","id":152,"geometry":{"type":"Point","coordinates":[-85.190596724296682,30.828653684197977]},"properties":{"OBJECTID":152,"Name":"FEDERAL CORRECTIONAL INSTITUTION - MARIANNA SATELLITE CAMP","Address":"3625 FCI ROAD","City":"MARIANNA","Zip":"32446","COUNTY":"JACKSON","X":-85.190596720000002,"Y":30.828653689999999,"LONGLAT":"-85.19059672,30.82865369","USNG":"16R FV 73058 12013","OWNERSHIP":"FEDERAL","PARCELID":"13-5N-10-0000-0010-0010","FACILITY_TYPE":"FEDERAL CORRECTIONAL INSTITUTION"}},{"type":"Feature","id":153,"geometry":{"type":"Point","coordinates":[-85.190635390461281,30.83428655886841]},"properties":{"OBJECTID":153,"Name":"MARIANNA FEDERAL CORRECTIONAL INSTITUTION","Address":"3625 F C I RD","City":"MARIANNA","Zip":"32446","COUNTY":"JACKSON","X":-85.190635389999997,"Y":30.834286559999999,"LONGLAT":"-85.19063539,30.83428656","USNG":"16R FV 73044 12637","OWNERSHIP":"FEDERAL","PARCELID":"13-5N-10-0000-0010-0010","FACILITY_TYPE":"FEDERAL CORRECTIONAL INSTITUTION"}},{"type":"Feature","id":154,"geometry":{"type":"Point","coordinates":[-85.49457340052038,30.947746172082844]},"properties":{"OBJECTID":154,"Name":"FLORIDA DOJJ NORTH REGION - GRACEVILLE VOCATIONAL YOUTH CENTER","Address":"5229 EZELL RD","City":"GRACEVILLE","Zip":"32440","COUNTY":"JACKSON","X":-85.494573399999993,"Y":30.947746169999999,"LONGLAT":"-85.49457340,30.94774617","USNG":"16R FV 43803 24782","OWNERSHIP":"STATE","PARCELID":"01-6N-13-0000-0100-0000","FACILITY_TYPE":"JUVENILE CORRECTIONAL INSTITUTION"}},{"type":"Feature","id":155,"geometry":{"type":"Point","coordinates":[-83.881464207932908,30.503016556731762]},"properties":{"OBJECTID":155,"Name":"JEFFERSON COUNTY JAIL/SHERIFF DEPT","Address":"171 INDUSTRIAL PARK","City":"MONTICELLO","Zip":"32344","COUNTY":"JEFFERSON","X":-83.881464210000004,"Y":30.503016559999999,"LONGLAT":"-83.88146421,30.50301656","USNG":"17R KP 23444 78057","OWNERSHIP":"COUNTY","PARCELID":"12-1N-4E-0000-0068-0000","FACILITY_TYPE":"LOCAL CORRECTIONAL INSTITUTION"}},{"type":"Feature","id":156,"geometry":{"type":"Point","coordinates":[-83.800807506228807,30.50971545055318]},"properties":{"OBJECTID":156,"Name":"JEFFERSON CORRECTIONAL INSTITUTION","Address":"1050 BIG JOE RD","City":"MONTICELLO","Zip":"32344","COUNTY":"JEFFERSON","X":-83.800807509999999,"Y":30.509715450000002,"LONGLAT":"-83.80080751,30.50971545","USNG":"17R KP 31207 78605","OWNERSHIP":"STATE","PARCELID":"02-1N-5E-0000-0050-0000","FACILITY_TYPE":"LOCAL CORRECTIONAL INSTITUTION"}},{"type":"Feature","id":157,"geometry":{"type":"Point","coordinates":[-83.176617812831054,30.054784761675911]},"properties":{"OBJECTID":157,"Name":"LAFAYETTE COUNTY JAIL","Address":"164 NW CRAWFORD ST","City":"MAYO","Zip":"32066","COUNTY":"LAFAYETTE","X":-83.176617809999996,"Y":30.05478476,"LONGLAT":"-83.17661781,30.05478476","USNG":"17R KP 90160 26852","OWNERSHIP":"COUNTY","PARCELID":"1305110011031000010","FACILITY_TYPE":"LOCAL CORRECTIONAL INSTITUTION"}},{"type":"Feature","id":158,"geometry":{"type":"Point","coordinates":[-83.309672590634349,30.132765102368609]},"properties":{"OBJECTID":158,"Name":"FLORIDA DEPARTMENT OF CORRECTIONS REGION 2 - MAYO WORK CAMP","Address":"8784 W US HWY 27","City":"DAY","Zip":"32013","COUNTY":"LAFAYETTE","X":-83.309672590000005,"Y":30.1327651,"LONGLAT":"-83.30967259,30.13276510","USNG":"17R KP 77504 35748","OWNERSHIP":"STATE","PARCELID":"1504100000000000500","FACILITY_TYPE":"STATE CORRECTIONAL INSTITUTION"}},{"type":"Feature","id":159,"geometry":{"type":"Point","coordinates":[-83.30485563404514,30.132741992328004]},"properties":{"OBJECTID":159,"Name":"MAYO CORRECTIONAL INSTITUTION","Address":"8784 W US HWY 27","City":"DAY","Zip":"32013","COUNTY":"LAFAYETTE","X":-83.304855630000006,"Y":30.13274199,"LONGLAT":"-83.30485563,30.13274199","USNG":"17R KP 77968 35737","OWNERSHIP":"STATE","PARCELID":"1504100000000000501","FACILITY_TYPE":"LOCAL CORRECTIONAL INSTITUTION"}},{"type":"Feature","id":160,"geometry":{"type":"Point","coordinates":[-81.765350384383723,28.622109677771032]},"properties":{"OBJECTID":160,"Name":"LAKE CORRECTIONAL INSTITUTION","Address":"11110 LAKE CIRCLE DR","City":"CLERMONT","Zip":"34715","COUNTY":"LAKE","X":-81.765350380000001,"Y":28.622109680000001,"LONGLAT":"-81.76535038,28.62210968","USNG":"17R MM 25184 66359","OWNERSHIP":"STATE OF FLORIDA TIITF","PARCELID":"362125000200001100","FACILITY_TYPE":"LOCAL CORRECTIONAL INSTITUTION"}},{"type":"Feature","id":161,"geometry":{"type":"Point","coordinates":[-81.73292577117023,28.801928930298381]},"properties":{"OBJECTID":161,"Name":"LAKE COUNTY JAIL","Address":"551 W MAIN ST","City":"TAVARES","Zip":"32778","COUNTY":"LAKE","X":-81.732925769999994,"Y":28.801928929999999,"LONGLAT":"-81.73292577,28.80192893","USNG":"17R MM 28476 86261","OWNERSHIP":"COUNTY","PARCELID":"291926010004100A00","FACILITY_TYPE":"LOCAL CORRECTIONAL INSTITUTION"}},{"type":"Feature","id":162,"geometry":{"type":"Point","coordinates":[-81.667955770768401,28.935406792411378]},"properties":{"OBJECTID":162,"Name":"UMATILLA JUVENILE RESIDENTIAL FACILITY","Address":"633 UMATILLA BLVD","City":"UMATILLA","Zip":"32784","COUNTY":"LAKE","X":-81.667955770000006,"Y":28.935406789999998,"LONGLAT":"-81.66795577,28.93540679","USNG":"17R MN 34899 01012","OWNERSHIP":"COUNTY","PARCELID":"121826060001000100","FACILITY_TYPE":"JUVENILE CORRECTIONAL INSTITUTION"}},{"type":"Feature","id":163,"geometry":{"type":"Point","coordinates":[-81.808308537602969,26.63331761111386]},"properties":{"OBJECTID":163,"Name":"SW FLORIDA REG JUVENILE DETENTION CENTER","Address":"2525 ORTIZ AVE","City":"FORT MYERS","Zip":"33905","COUNTY":"LEE","X":-81.808308539999999,"Y":26.633317609999999,"LONGLAT":"-81.80830854,26.63331761","USNG":"17R MK 19543 46077","OWNERSHIP":"MUNICIPAL","PARCELID":"214425P1001000710","FACILITY_TYPE":"JUVENILE CORRECTIONAL INSTITUTION"}},{"type":"Feature","id":164,"geometry":{"type":"Point","coordinates":[-81.810729411470177,26.631480040002799]},"properties":{"OBJECTID":164,"Name":"FORT MYERS WORK CAMP","Address":"2625 ORTIZ AVE","City":"FORT MYERS","Zip":"33905","COUNTY":"LEE","X":-81.810729409999993,"Y":26.63148004,"LONGLAT":"-81.81072941,26.63148004","USNG":"17R MK 19301 45875","OWNERSHIP":"STATE OF FLORIDA TIITF","PARCELID":"214425P3001000900","FACILITY_TYPE":"CORRECTIONAL FACILITY"}},{"type":"Feature","id":165,"geometry":{"type":"Point","coordinates":[-81.808214001538587,26.632330140541715]},"properties":{"OBJECTID":165,"Name":"PRICE HALFWAY HOUSE","Address":"2515 ORTIZ AVE","City":"FORT MYERS","Zip":"33905","COUNTY":"LEE","X":-81.808214000000007,"Y":26.632330140000001,"LONGLAT":"-81.80821400,26.63233014","USNG":"17R MK 19552 45967","OWNERSHIP":null,"PARCELID":null,"FACILITY_TYPE":"CORRECTIONAL FACILITY"}},{"type":"Feature","id":166,"geometry":{"type":"Point","coordinates":[-81.870913014300569,26.641514831984676]},"properties":{"OBJECTID":166,"Name":"LEE COUNTY JAIL","Address":"2115 DR MARTIN LUTHER KING BLVD","City":"FORT MYERS","Zip":"33901","COUNTY":"LEE","X":-81.870913009999995,"Y":26.641514829999998,"LONGLAT":"-81.87091301,26.64151483","USNG":"17R MK 13317 47026","OWNERSHIP":"COUNTY","PARCELID":"134424P4004100020","FACILITY_TYPE":"LOCAL CORRECTIONAL INSTITUTION"}},{"type":"Feature","id":167,"geometry":{"type":"Point","coordinates":[-81.871916551961704,26.641110430040516]},"properties":{"OBJECTID":167,"Name":"LEE COUNTY JUSTICE CENTER ANNEX","Address":"2020 DR MARTIN LUTHER KING JR BLVD","City":"FORT MYERS","Zip":"33901","COUNTY":"LEE","X":-81.871916549999995,"Y":26.641110430000001,"LONGLAT":"-81.87191655,26.64111043","USNG":"17R MK 13217 46982","OWNERSHIP":null,"PARCELID":null,"FACILITY_TYPE":"LOCAL CORRECTIONAL INSTITUTION"}},{"type":"Feature","id":168,"geometry":{"type":"Point","coordinates":[-81.809275798076868,26.634105503935235]},"properties":{"OBJECTID":168,"Name":"FORT MYERS CORRECTIONAL CENTER","Address":"2501 ORTIZ AVE","City":"FORT MYERS","Zip":"33905","COUNTY":"LEE","X":-81.809275799999995,"Y":26.6341055,"LONGLAT":"-81.80927580,26.63410550","USNG":"17R MK 19447 46165","OWNERSHIP":"MUNICIPAL","PARCELID":"214425P1001000710","FACILITY_TYPE":"LOCAL CORRECTIONAL INSTITUTION"}},{"type":"Feature","id":169,"geometry":{"type":"Point","coordinates":[-84.335359977601144,30.437784233693563]},"properties":{"OBJECTID":169,"Name":"LEON COUNTY DETENTION FACILITY/SHERIFF DEPT","Address":"535 APPLEYARD DR","City":"TALLAHASSEE","Zip":"32304","COUNTY":"LEON","X":-84.335359980000007,"Y":30.437784229999998,"LONGLAT":"-84.33535998,30.43778423","USNG":"16R GU 55908 70313","OWNERSHIP":"COUNTY","PARCELID":"2133208510000","FACILITY_TYPE":"LOCAL CORRECTIONAL INSTITUTION"}},{"type":"Feature","id":170,"geometry":{"type":"Point","coordinates":[-84.304894955241096,30.410314578801422]},"properties":{"OBJECTID":170,"Name":"TALLAHASSEE WORK RELEASE CENTER","Address":"2616A SPRINGHILL RD","City":"TALLAHASSEE","Zip":"32310","COUNTY":"LEON","X":-84.304894959999999,"Y":30.410314580000001,"LONGLAT":"-84.30489496,30.41031458","USNG":"16R GU 58907 67336","OWNERSHIP":"STATE OF FLORIDA TIITF","PARCELID":"4111209020000","FACILITY_TYPE":"LOCAL CORRECTIONAL INSTITUTION"}},{"type":"Feature","id":171,"geometry":{"type":"Point","coordinates":[-84.338990133659237,30.397334005040847]},"properties":{"OBJECTID":171,"Name":"SEMINOLE WORK & LEARN CENTER","Address":"3420 CAPITAL CIR SW","City":"TALLAHASSEE","Zip":"32310","COUNTY":"LEON","X":-84.338990129999999,"Y":30.397334010000002,"LONGLAT":"-84.33899013,30.39733401","USNG":"16R GU 55664 65819","OWNERSHIP":"STATE","PARCELID":"4116209020000","FACILITY_TYPE":"LOCAL CORRECTIONAL INSTITUTION"}},{"type":"Feature","id":172,"geometry":{"type":"Point","coordinates":[-84.286480046446528,30.446098794318321]},"properties":{"OBJECTID":172,"Name":"SHISHA HOUSE - WEST","Address":"418 W VIRGINIA ST","City":"TALLAHASSEE","Zip":"32301","COUNTY":"LEON","X":-84.286480049999994,"Y":30.446098800000001,"LONGLAT":"-84.28648005,30.44609880","USNG":"16R GU 60582 71346","OWNERSHIP":null,"PARCELID":"2136500135300","FACILITY_TYPE":"LOCAL CORRECTIONAL INSTITUTION"}},{"type":"Feature","id":173,"geometry":{"type":"Point","coordinates":[-84.304329845912761,30.411638916074253]},"properties":{"OBJECTID":173,"Name":"TALLAHASSEE ROAD PRISON","Address":"2628 SPRINGHILL RD","City":"TALLAHASSEE","Zip":"32310","COUNTY":"LEON","X":-84.304329850000002,"Y":30.411638920000001,"LONGLAT":"-84.30432985,30.41163892","USNG":"16R GU 58958 67484","OWNERSHIP":null,"PARCELID":"4111206040000","FACILITY_TYPE":"LOCAL CORRECTIONAL INSTITUTION"}},{"type":"Feature","id":174,"geometry":{"type":"Point","coordinates":[-84.33824295703441,30.415644861744312]},"properties":{"OBJECTID":174,"Name":"LEON COUNTY REGIONAL JUVENILE DETENTION CENTER","Address":"2303 RONELLIS DR","City":"TALLAHASSEE","Zip":"32310","COUNTY":"LEON","X":-84.338242960000002,"Y":30.41564486,"LONGLAT":"-84.33824296,30.41564486","USNG":"16R GU 55688 67851","OWNERSHIP":"COUNTY","PARCELID":"4109208530000","FACILITY_TYPE":"JUVENILE CORRECTIONAL INSTITUTION"}},{"type":"Feature","id":175,"geometry":{"type":"Point","coordinates":[-84.224145823587961,30.443297541851024]},"properties":{"OBJECTID":175,"Name":"TALLAHASSEE FEDERAL CORRECTIONAL INSTITUTION","Address":"501 CAPITAL CIR NE","City":"TALLAHASSEE","Zip":"32311","COUNTY":"LEON","X":-84.224145820000004,"Y":30.44329754,"LONGLAT":"-84.22414582,30.44329754","USNG":"16R GU 66577 71181","OWNERSHIP":"FEDERAL","PARCELID":"1134209810000","FACILITY_TYPE":"FEDERAL CORRECTIONAL INSTITUTION"}},{"type":"Feature","id":176,"geometry":{"type":"Point","coordinates":[-82.58429519138403,29.125738743983927]},"properties":{"OBJECTID":176,"Name":"FORESTRY YOUTH ACADEMY","Address":"14251 SE GLASS RD","City":"INGLIS","Zip":"34449","COUNTY":"LEVY","X":-82.584295190000006,"Y":29.125738739999999,"LONGLAT":"-82.58429519,29.12573874","USNG":"17R LN 45866 22953","OWNERSHIP":"STATE","PARCELID":"0383500000","FACILITY_TYPE":"JUVENILE CORRECTIONAL INSTITUTION"}},{"type":"Feature","id":177,"geometry":{"type":"Point","coordinates":[-82.635423910897984,29.348611377709517]},"properties":{"OBJECTID":177,"Name":"LEVY FORESTRY CAMP","Address":"1251 NE COUNTY ROAD 343","City":"BRONSON","Zip":"32621","COUNTY":"LEVY","X":-82.63542391,"Y":29.348611380000001,"LONGLAT":"-82.63542391,29.34861138","USNG":"17R LN 41235 47720","OWNERSHIP":null,"PARCELID":"0365200100","FACILITY_TYPE":"LOCAL CORRECTIONAL INSTITUTION"}},{"type":"Feature","id":178,"geometry":{"type":"Point","coordinates":[-82.640698936905224,29.465313005802631]},"properties":{"OBJECTID":178,"Name":"LEVY COUNTY JAIL/SHERIFF DEPT","Address":"9150 NE 80TH AVE","City":"BRONSON","Zip":"32621","COUNTY":"LEVY","X":-82.640698939999993,"Y":29.465313009999999,"LONGLAT":"-82.64069894,29.46531301","USNG":"17R LN 40905 60660","OWNERSHIP":"COUNTY","PARCELID":"0329300200","FACILITY_TYPE":"LOCAL CORRECTIONAL INSTITUTION"}},{"type":"Feature","id":179,"geometry":{"type":"Point","coordinates":[-84.866190654779686,30.468183838310086]},"properties":{"OBJECTID":179,"Name":"LIBERTY WORK CAMP","Address":"11064 NW DEMPSEY BARRON RD","City":"BRISTOL","Zip":"32321","COUNTY":"LIBERTY","X":-84.866190649999993,"Y":30.468183839999998,"LONGLAT":"-84.86619065,30.46818384","USNG":"16R GU 04851 72600","OWNERSHIP":null,"PARCELID":"019-1N-6W-00344 001","FACILITY_TYPE":"LOCAL CORRECTIONAL INSTITUTION"}},{"type":"Feature","id":180,"geometry":{"type":"Point","coordinates":[-84.861847625126273,30.466010779297228]},"properties":{"OBJECTID":180,"Name":"LIBERTY CORRECTIONAL INSTITUTION","Address":"11064 NW DEMPSEY BARRON RD","City":"BRISTOL","Zip":"32321","COUNTY":"LIBERTY","X":-84.86184763,"Y":30.466010780000001,"LONGLAT":"-84.86184763,30.46601078","USNG":"16R GU 05272 72367","OWNERSHIP":null,"PARCELID":"019-1N-6W-00344 001","FACILITY_TYPE":"LOCAL CORRECTIONAL INSTITUTION"}},{"type":"Feature","id":181,"geometry":{"type":"Point","coordinates":[-84.939915618411916,30.184629904463648]},"properties":{"OBJECTID":181,"Name":"FLORIDA DOJJ NORTH REGION - J.U.S.T. PROGRAM","Address":"STATE ROAD 65","City":"BRISTOL","Zip":"32321","COUNTY":"LIBERTY","X":-84.939915619999994,"Y":30.184629910000002,"LONGLAT":"-84.93991562,30.18462991","USNG":"16R FU 98342 41037","OWNERSHIP":"STATE","PARCELID":"028-3S-7W-02087 000","FACILITY_TYPE":"JUVENILE CORRECTIONAL INSTITUTION"}},{"type":"Feature","id":182,"geometry":{"type":"Point","coordinates":[-83.616509611571686,30.454198196268795]},"properties":{"OBJECTID":182,"Name":"JOANN BRIDGE ACADEMY","Address":"950 SW GREENVILLE HILLS RD","City":"GREENVILLE","Zip":"32331","COUNTY":"MADISON","X":-83.616509609999994,"Y":30.4541982,"LONGLAT":"-83.61650961,30.45419820","USNG":"17R KP 48758 72024","OWNERSHIP":null,"PARCELID":"27-1N-07-2534-002-000","FACILITY_TYPE":"CORRECTIONAL FACILITY"}},{"type":"Feature","id":183,"geometry":{"type":"Point","coordinates":[-83.617635163517321,30.450813664227837]},"properties":{"OBJECTID":183,"Name":"GREENVILLE HILLS ACADEMY","Address":"742 SW GREENVILLE HILLS RD","City":"GREENVILLE","Zip":"32331","COUNTY":"MADISON","X":-83.617635160000006,"Y":30.450813669999999,"LONGLAT":"-83.61763516,30.45081367","USNG":"17R KP 48641 71652","OWNERSHIP":null,"PARCELID":"18-1N-07-1903-001-000","FACILITY_TYPE":"CORRECTIONAL FACILITY"}},{"type":"Feature","id":184,"geometry":{"type":"Point","coordinates":[-83.423018607499259,30.444373149105513]},"properties":{"OBJECTID":184,"Name":"MADISON WORK CAMP","Address":"382 SW MCI WAY","City":"MADISON","Zip":"32340","COUNTY":"MADISON","X":-83.42301861,"Y":30.444373150000001,"LONGLAT":"-83.42301861,30.44437315","USNG":"17R KP 67319 70521","OWNERSHIP":null,"PARCELID":"33-1N-09-5134-00A-000","FACILITY_TYPE":"LOCAL CORRECTIONAL INSTITUTION"}},{"type":"Feature","id":185,"geometry":{"type":"Point","coordinates":[-83.421388239060391,30.440700854809588]},"properties":{"OBJECTID":185,"Name":"MADISON CORRECTIONAL INSTITUTION","Address":"382 SW MCI WAY","City":"MADISON","Zip":"32340","COUNTY":"MADISON","X":-83.421388239999999,"Y":30.44070086,"LONGLAT":"-83.42138824,30.44070086","USNG":"17R KP 67467 70110","OWNERSHIP":null,"PARCELID":"33-1N-09-5134-00A-000","FACILITY_TYPE":"LOCAL CORRECTIONAL INSTITUTION"}},{"type":"Feature","id":186,"geometry":{"type":"Point","coordinates":[-83.422178864205861,30.468292226559512]},"properties":{"OBJECTID":186,"Name":"MADISON COUNTY JAIL","Address":"823 SW PINCKNEY ST","City":"MADISON","Zip":"32340","COUNTY":"MADISON","X":-83.422178860000002,"Y":30.468292229999999,"LONGLAT":"-83.42217886,30.46829223","USNG":"17R KP 67457 73171","OWNERSHIP":"COUNTY","PARCELID":"00-00-00-3677-000-000","FACILITY_TYPE":"LOCAL CORRECTIONAL INSTITUTION"}},{"type":"Feature","id":187,"geometry":{"type":"Point","coordinates":[-82.626672217969926,27.497418666987787]},"properties":{"OBJECTID":187,"Name":"WEST MANATEE FIRE DISTRICT ADMINISTRATION","Address":"6417 3RD AVE W","City":"WEST MANATEE","Zip":" ","COUNTY":"MANATEE","X":-82.626672220000003,"Y":27.497418669999998,"LONGLAT":"-82.62667222,27.49741867","USNG":"17R LL 39313 42584","OWNERSHIP":null,"PARCELID":null,"FACILITY_TYPE":"LOCAL CORRECTIONAL INSTITUTION"}},{"type":"Feature","id":188,"geometry":{"type":"Point","coordinates":[-82.537663085131385,27.428811083899934]},"properties":{"OBJECTID":188,"Name":"BRADENTON WORK RELEASE CENTER","Address":"2104 63RD AVENUE EAST","City":"BRADENTON","Zip":"34203","COUNTY":"MANATEE","X":-82.537663089999995,"Y":27.428811079999999,"LONGLAT":"-82.53766309,27.42881108","USNG":"17R LL 48012 34871","OWNERSHIP":"STATE","PARCELID":"1849810005","FACILITY_TYPE":"LOCAL CORRECTIONAL INSTITUTION"}},{"type":"Feature","id":189,"geometry":{"type":"Point","coordinates":[-82.538772363898005,27.642831262328038]},"properties":{"OBJECTID":189,"Name":"OMEGA PRISON","Address":"14490 HARLEE RD","City":"PALMETTO","Zip":"34221","COUNTY":"MANATEE","X":-82.538772359999996,"Y":27.642831260000001,"LONGLAT":"-82.53877236,27.64283126","USNG":"17R LL 48197 58583","OWNERSHIP":"COUNTY","PARCELID":"593105000","FACILITY_TYPE":"LOCAL CORRECTIONAL INSTITUTION"}},{"type":"Feature","id":190,"geometry":{"type":"Point","coordinates":[-82.535787348747704,27.641240366504352]},"properties":{"OBJECTID":190,"Name":"MANATEE COUNTY JAIL","Address":"14470 HARLEE RD","City":"PALMETTO","Zip":"34221","COUNTY":"MANATEE","X":-82.535787350000007,"Y":27.641240369999998,"LONGLAT":"-82.53578735,27.64124037","USNG":"17R LL 48489 58403","OWNERSHIP":"COUNTY","PARCELID":"593105000","FACILITY_TYPE":"LOCAL CORRECTIONAL INSTITUTION"}},{"type":"Feature","id":191,"geometry":{"type":"Point","coordinates":[-82.566700007661453,27.482999985963168]},"properties":{"OBJECTID":191,"Name":"MANATEE REG JUVENILE DETENTION CENTER","Address":"1803 5TH ST W","City":"BRADENTON","Zip":"34205","COUNTY":"MANATEE","X":-82.566700010000005,"Y":27.48299999,"LONGLAT":"-82.56670001,27.48299999","USNG":"17R LL 45218 40910","OWNERSHIP":"COUNTY","PARCELID":"4493800109","FACILITY_TYPE":"JUVENILE CORRECTIONAL INSTITUTION"}},{"type":"Feature","id":192,"geometry":{"type":"Point","coordinates":[-82.536840923630805,27.643473325915348]},"properties":{"OBJECTID":192,"Name":"FLORIDA DEPARTMENT OF JUVENILE JUSTICE CENTRAL REGION - PALMETTO YOUTH ACADEMY","Address":"14494 HARLEE RD","City":"PALMETTO","Zip":"34221","COUNTY":"MANATEE","X":-82.536840920000003,"Y":27.643473329999999,"LONGLAT":"-82.53684092,27.64347333","USNG":"17R LL 48389 58652","OWNERSHIP":"STATE","PARCELID":"593105000","FACILITY_TYPE":"JUVENILE CORRECTIONAL INSTITUTION"}},{"type":"Feature","id":193,"geometry":{"type":"Point","coordinates":[-82.549699981855483,27.465600011475381]},"properties":{"OBJECTID":193,"Name":"MANATEE ADOLESCENT TREATMENT SERVICES (MATS)","Address":"1324 37TH AVE E","City":"BRADENTON","Zip":"34208","COUNTY":"MANATEE","X":-82.54969998,"Y":27.465600009999999,"LONGLAT":"-82.54969998,27.46560001","USNG":"17R LL 46873 38961","OWNERSHIP":"COUNTY","PARCELID":"4801400005","FACILITY_TYPE":"JUVENILE CORRECTIONAL INSTITUTION"}},{"type":"Feature","id":194,"geometry":{"type":"Point","coordinates":[-82.145678960939151,27.459487553996627]},"properties":{"OBJECTID":194,"Name":"MANATEE WILDERNESS CAMP","Address":"38620 STATE ROAD 64 E","City":"MYAKKA CITY","Zip":"34251","COUNTY":"MANATEE","X":-82.145678959999998,"Y":27.459487549999999,"LONGLAT":"-82.14567896,27.45948755","USNG":"17R LL 86792 37851","OWNERSHIP":"STATE OF FLORIDA TIITF","PARCELID":"57520009","FACILITY_TYPE":"LOCAL CORRECTIONAL INSTITUTION"}},{"type":"Feature","id":195,"geometry":{"type":"Point","coordinates":[-82.201356989829435,29.313561047558316]},"properties":{"OBJECTID":195,"Name":"LOWELL WOMENS CORRECTIONAL INSTITUTION ANNEX","Address":"11120 NW GAINESVILLE RD","City":"OCALA","Zip":"34482","COUNTY":"MARION","X":-82.201356989999994,"Y":29.313561050000001,"LONGLAT":"-82.20135699,29.31356105","USNG":"17R LN 83338 43325","OWNERSHIP":null,"PARCELID":"07399-083-00","FACILITY_TYPE":"LOCAL CORRECTIONAL INSTITUTION"}},{"type":"Feature","id":196,"geometry":{"type":"Point","coordinates":[-82.174749776463855,29.195089212530885]},"properties":{"OBJECTID":196,"Name":"MARION COUNTY JAIL / MARION COUNTY SHERIFF - FUGITIVE DIVISION","Address":"700 NW 30TH AVE","City":"OCALA","Zip":"34475","COUNTY":"MARION","X":-82.174749779999999,"Y":29.195089209999999,"LONGLAT":"-82.17474978,29.19508921","USNG":"17R LN 85790 30171","OWNERSHIP":"COUNTY","PARCELID":"21915-000-00","FACILITY_TYPE":"LOCAL CORRECTIONAL INSTITUTION"}},{"type":"Feature","id":197,"geometry":{"type":"Point","coordinates":[-82.181944607293019,29.304443643010853]},"properties":{"OBJECTID":197,"Name":"MARION WORK CAMP","Address":"3269 NW 105TH ST","City":"OCALA","Zip":"34475","COUNTY":"MARION","X":-82.181944610000002,"Y":29.304443639999999,"LONGLAT":"-82.18194461,29.30444364","USNG":"17R LN 85213 42295","OWNERSHIP":null,"PARCELID":"12678-000-00","FACILITY_TYPE":"LOCAL CORRECTIONAL INSTITUTION"}},{"type":"Feature","id":198,"geometry":{"type":"Point","coordinates":[-81.835361510066136,29.200264897021789]},"properties":{"OBJECTID":198,"Name":"E-KEL-ETU JUVENILE CENTER","Address":"19186 NE 13TH ST","City":"SILVER SPRINGS","Zip":"34488","COUNTY":"MARION","X":-81.835361509999998,"Y":29.200264900000001,"LONGLAT":"-81.83536151,29.20026490","USNG":"17R MN 18791 30462","OWNERSHIP":"COUNTY","PARCELID":"32840-009-00","FACILITY_TYPE":"JUVENILE CORRECTIONAL INSTITUTION"}},{"type":"Feature","id":199,"geometry":{"type":"Point","coordinates":[-82.18847779308733,29.304265585496751]},"properties":{"OBJECTID":199,"Name":"MARION YOUTH DEVELOPMENT CENTER","Address":"4055 NW 105TH ST","City":"OCALA","Zip":"34475","COUNTY":"MARION","X":-82.188477789999993,"Y":29.30426559,"LONGLAT":"-82.18847779,29.30426559","USNG":"17R LN 84578 42282","OWNERSHIP":"COUNTY","PARCELID":"12683-000-00","FACILITY_TYPE":"JUVENILE CORRECTIONAL INSTITUTION"}},{"type":"Feature","id":200,"geometry":{"type":"Point","coordinates":[-82.199832721362597,29.31100308394819]},"properties":{"OBJECTID":200,"Name":"FLORIDA DEPARTMENT OF CORRECTIONS REGION 3 - LOWELL CORRECTIONAL INSTITUTE","Address":"11120 NW GAINESVILLE RD","City":"OCALA","Zip":"34482","COUNTY":"MARION","X":-82.199832720000003,"Y":29.311003079999999,"LONGLAT":"-82.19983272,29.31100308","USNG":"17R LN 83483 43040","OWNERSHIP":null,"PARCELID":"07399-083-00","FACILITY_TYPE":"CORRECTIONAL FACILITY"}},{"type":"Feature","id":201,"geometry":{"type":"Point","coordinates":[-82.193951978055168,29.301023721963581]},"properties":{"OBJECTID":201,"Name":"MARION CO JUVENILE CORRECTIONAL FACILITY","Address":"10420 NW GAINESVILLE RD","City":"OCALA","Zip":"34482","COUNTY":"MARION","X":-82.193951979999994,"Y":29.30102372,"LONGLAT":"-82.19395198,29.30102372","USNG":"17R LN 84043 41928","OWNERSHIP":"STATE","PARCELID":"07399-083-00","FACILITY_TYPE":"JUVENILE CORRECTIONAL INSTITUTION"}},{"type":"Feature","id":202,"geometry":{"type":"Point","coordinates":[-82.17446348927561,29.196534576806936]},"properties":{"OBJECTID":202,"Name":"FLORIDA DEPARTMENT OF JUVENILE JUSTICE NORTH REGION - MARION REGIONAL JUVENILE DETENTION CENTER","Address":"3040 NW 10TH ST","City":"OCALA","Zip":"34475","COUNTY":"MARION","X":-82.174463489999994,"Y":29.196534580000002,"LONGLAT":"-82.17446349,29.19653458","USNG":"17R LN 85820 30331","OWNERSHIP":"STATE","PARCELID":"21916-000-00","FACILITY_TYPE":"JUVENILE CORRECTIONAL INSTITUTION"}},{"type":"Feature","id":203,"geometry":{"type":"Point","coordinates":[-82.128987348253972,29.207412998819393]},"properties":{"OBJECTID":203,"Name":"RE-ENTRY OF OCALA WORK CAMP","Address":"2006 NE 8TH RD","City":"OCALA","Zip":"34470","COUNTY":"MARION","X":-82.128987350000003,"Y":29.207412999999999,"LONGLAT":"-82.12898735,29.20741300","USNG":"17R LN 90253 31493","OWNERSHIP":null,"PARCELID":"2590-001-009","FACILITY_TYPE":"LOCAL CORRECTIONAL INSTITUTION"}},{"type":"Feature","id":204,"geometry":{"type":"Point","coordinates":[-82.197017924456517,29.309013172741903]},"properties":{"OBJECTID":204,"Name":"LOWELL CORRECTIONAL INSTITUTION BOOT CAMP","Address":"11120 NW GAINESVILLE RD","City":"OCALA","Zip":"34482","COUNTY":"MARION","X":-82.197017919999993,"Y":29.30901317,"LONGLAT":"-82.19701792,29.30901317","USNG":"17R LN 83754 42816","OWNERSHIP":null,"PARCELID":"07399-083-00","FACILITY_TYPE":"LOCAL CORRECTIONAL INSTITUTION"}},{"type":"Feature","id":205,"geometry":{"type":"Point","coordinates":[-82.199832721362597,29.31100308394819]},"properties":{"OBJECTID":205,"Name":"FLORIDA DEPARTMENT OF CORRECTIONS REGION 3 - LOWELL CORRECTIONAL INSTITUTE","Address":"11120 NW GAINESVILLE RD","City":"OCALA","Zip":"34482","COUNTY":"MARION","X":-82.199832720000003,"Y":29.311003079999999,"LONGLAT":"-82.19983272,29.31100308","USNG":"17R LN 83483 43040","OWNERSHIP":null,"PARCELID":"07399-083-00","FACILITY_TYPE":"LOCAL CORRECTIONAL INSTITUTION"}},{"type":"Feature","id":206,"geometry":{"type":"Point","coordinates":[-82.176228179613787,29.308620984802623]},"properties":{"OBJECTID":206,"Name":"MARION MENS CORRECTIONAL INSTITUTION","Address":"3269 NW 105TH ST","City":"OCALA","Zip":"34475","COUNTY":"MARION","X":-82.176228179999995,"Y":29.308620990000001,"LONGLAT":"-82.17622818,29.30862099","USNG":"17R LN 85773 42752","OWNERSHIP":null,"PARCELID":"12678-000-00","FACILITY_TYPE":"LOCAL CORRECTIONAL INSTITUTION"}},{"type":"Feature","id":207,"geometry":{"type":"Point","coordinates":[-80.242962029277905,27.170140530628281]},"properties":{"OBJECTID":207,"Name":"MARTIN COUNTY JAIL","Address":"800 SE MONTEREY RD","City":"STUART","Zip":"34994","COUNTY":"MARTIN","X":-80.242962030000001,"Y":27.170140530000001,"LONGLAT":"-80.24296203,27.17014053","USNG":"17R NL 74997 05506","OWNERSHIP":"COUNTY","PARCELID":"163841000000000509","FACILITY_TYPE":"LOCAL CORRECTIONAL INSTITUTION"}},{"type":"Feature","id":208,"geometry":{"type":"Point","coordinates":[-80.112475020859577,27.011639742314038]},"properties":{"OBJECTID":208,"Name":"JONATHON DICKINSON S.T.O.P. CAMP","Address":"16450 SE FEDERAL HWY","City":"JUPITER","Zip":"33469","COUNTY":"MARTIN","X":-80.112475020000005,"Y":27.01163974,"LONGLAT":"-80.11247502,27.01163974","USNG":"17R NK 88048 88034","OWNERSHIP":null,"PARCELID":"114042000000000103","FACILITY_TYPE":"CORRECTIONAL FACILITY"}},{"type":"Feature","id":209,"geometry":{"type":"Point","coordinates":[-80.483790559573194,27.196949546478884]},"properties":{"OBJECTID":209,"Name":"MARTIN CORRECTIONAL INSTITUTION","Address":"1150 SW ALLAPATTAH RD","City":"INDIANTOWN","Zip":"34956","COUNTY":"MARTIN","X":-80.483790560000003,"Y":27.196949549999999,"LONGLAT":"-80.48379056,27.19694955","USNG":"17R NL 51126 08354","OWNERSHIP":null,"PARCELID":"ROW","FACILITY_TYPE":"CORRECTIONAL FACILITY"}},{"type":"Feature","id":210,"geometry":{"type":"Point","coordinates":[-80.482512565208097,27.204291499502826]},"properties":{"OBJECTID":210,"Name":"MARTIN WORK CAMP","Address":"1100 SW ALLAPATTAH RD","City":"INDIANTOWN","Zip":"34956","COUNTY":"MARTIN","X":-80.482512569999997,"Y":27.2042915,"LONGLAT":"-80.48251257,27.20429150","USNG":"17R NL 51249 09168","OWNERSHIP":"STATE OF FLORIDA TIITF","PARCELID":"013838000000000106","FACILITY_TYPE":"CORRECTIONAL FACILITY"}},{"type":"Feature","id":211,"geometry":{"type":"Point","coordinates":[-80.491231880953862,25.750107612291984]},"properties":{"OBJECTID":211,"Name":"Everglades Correctional Ctr","Address":"1601 SW 187TH AV","City":"UNINCORPORATED MIAMI-DADE","Zip":"33185","COUNTY":"MIAMI-DADE","X":-80.491231880000001,"Y":25.750107610000001,"LONGLAT":"-80.49123188,25.75010761","USNG":"17R NJ 51023 48108","OWNERSHIP":null,"PARCELID":null,"FACILITY_TYPE":"CORRECTIONAL FACILITY"}},{"type":"Feature","id":212,"geometry":{"type":"Point","coordinates":[-80.510126662938092,25.530636771279433]},"properties":{"OBJECTID":212,"Name":"DADE GROUP HOME","Address":"25345 SW 197TH AVE","City":"HOMESTEAD","Zip":"33031","COUNTY":"MIAMI-DADE","X":-80.510126659999997,"Y":25.530636770000001,"LONGLAT":"-80.51012666,25.53063677","USNG":"17R NJ 49218 23797","OWNERSHIP":"STATE OF FLORIDA TIITF","PARCELID":"3068260000340","FACILITY_TYPE":"CORRECTIONAL FACILITY"}},{"type":"Feature","id":213,"geometry":{"type":"Point","coordinates":[-80.289524579200204,25.897413660164521]},"properties":{"OBJECTID":213,"Name":"OPA LOCKA COMMUNITY CORRECTIONAL CENTER","Address":"5400 NW 135TH ST","City":"OPA LOCKA","Zip":"33054","COUNTY":"MIAMI-DADE","X":-80.289524580000005,"Y":25.897413660000002,"LONGLAT":"-80.28952458,25.89741366","USNG":"17R NJ 71165 64515","OWNERSHIP":"STATE","PARCELID":"3021190020030","FACILITY_TYPE":"CORRECTIONAL FACILITY"}},{"type":"Feature","id":214,"geometry":{"type":"Point","coordinates":[-80.406287633501933,25.534387942063486]},"properties":{"OBJECTID":214,"Name":"BAYPOINT SCHOOL WEST","Address":"25005 SW 133RD AVE","City":"HOMESTEAD","Zip":"33032","COUNTY":"MIAMI-DADE","X":-80.406287629999994,"Y":25.534387939999998,"LONGLAT":"-80.40628763,25.53438794","USNG":"17R NJ 59650 24255","OWNERSHIP":"COUNTY","PARCELID":"3069260000044","FACILITY_TYPE":"CORRECTIONAL FACILITY"}},{"type":"Feature","id":215,"geometry":{"type":"Point","coordinates":[-80.567106427124912,25.385720718524702]},"properties":{"OBJECTID":215,"Name":"SOUTHERN GLADES YOUTH CAMP","Address":"41600 SW 232ND AVE","City":"HOMESTEAD","Zip":"33034","COUNTY":"MIAMI-DADE","X":-80.567106429999995,"Y":25.385720719999998,"LONGLAT":"-80.56710643,25.38572072","USNG":"17R NJ 43546 07729","OWNERSHIP":null,"PARCELID":null,"FACILITY_TYPE":"CORRECTIONAL FACILITY"}},{"type":"Feature","id":216,"geometry":{"type":"Point","coordinates":[-80.425585197666564,25.8069066265865]},"properties":{"OBJECTID":216,"Name":"SOUTH FLORIDA RECEPTION CENTER","Address":"14000 NW 41ST ST","City":"MIAMI","Zip":"33178","COUNTY":"MIAMI-DADE","X":-80.4255852,"Y":25.80690663,"LONGLAT":"-80.42558520,25.80690663","USNG":"17R NJ 57580 54425","OWNERSHIP":"STATE OF FLORIDA TIITF","PARCELID":"3039270000040","FACILITY_TYPE":"CORRECTIONAL FACILITY"}},{"type":"Feature","id":217,"geometry":{"type":"Point","coordinates":[-80.480907550691938,25.372432043074046]},"properties":{"OBJECTID":217,"Name":"EVERGLADES YOUTH DEV CTR","Address":"18500 SW 424TH ST","City":"HOMESTEAD","Zip":"33034","COUNTY":"MIAMI-DADE","X":-80.480907549999998,"Y":25.37243204,"LONGLAT":"-80.48090755,25.37243204","USNG":"17R NJ 52222 06289","OWNERSHIP":"STATE","PARCELID":"3088240000040","FACILITY_TYPE":"CORRECTIONAL FACILITY"}},{"type":"Feature","id":218,"geometry":{"type":"Point","coordinates":[-80.312446696430413,25.810997161491017]},"properties":{"OBJECTID":218,"Name":"MIAMI NORTH WORK RELEASE CENTER","Address":"7090 NW 41ST ST","City":"MIAMI","Zip":"33166","COUNTY":"MIAMI-DADE","X":-80.312446699999995,"Y":25.810997159999999,"LONGLAT":"-80.31244670,25.81099716","USNG":"17R NJ 68919 54933","OWNERSHIP":"STATE","PARCELID":"3030260000020","FACILITY_TYPE":"CORRECTIONAL FACILITY"}},{"type":"Feature","id":219,"geometry":{"type":"Point","coordinates":[-80.489104513255455,25.754310083757918]},"properties":{"OBJECTID":219,"Name":"KROME REGIONAL DETENTION CENTER","Address":"18201 SW 12TH ST","City":"MIAMI","Zip":"33194","COUNTY":"MIAMI-DADE","X":-80.489104510000004,"Y":25.75431008,"LONGLAT":"-80.48910451,25.75431008","USNG":"17R NJ 51235 48574","OWNERSHIP":null,"PARCELID":"3048110000015","FACILITY_TYPE":"CORRECTIONAL FACILITY"}},{"type":"Feature","id":220,"geometry":{"type":"Point","coordinates":[-80.281511251232459,25.963623963456946]},"properties":{"OBJECTID":220,"Name":"BAY POINT SCHOOL NORTH","Address":"20660 NW 47TH AVE","City":"OPA LOCKA","Zip":"33055","COUNTY":"MIAMI-DADE","X":-80.281511249999994,"Y":25.96362396,"LONGLAT":"-80.28151125,25.96362396","USNG":"17R NJ 71927 71852","OWNERSHIP":"STATE","PARCELID":"3011310010020","FACILITY_TYPE":"CORRECTIONAL FACILITY"}},{"type":"Feature","id":221,"geometry":{"type":"Point","coordinates":[-80.497461437987667,25.412994706492086]},"properties":{"OBJECTID":221,"Name":"DADE CORRECTIONAL INST","Address":"19000 SW 377TH ST","City":"HOMESTEAD","Zip":"33034","COUNTY":"MIAMI-DADE","X":-80.497461439999995,"Y":25.41299471,"LONGLAT":"-80.49746144,25.41299471","USNG":"17R NJ 50540 10774","OWNERSHIP":"STATE","PARCELID":"3088020000040","FACILITY_TYPE":"CORRECTIONAL FACILITY"}},{"type":"Feature","id":222,"geometry":{"type":"Point","coordinates":[-80.499913129167339,25.415488276285604]},"properties":{"OBJECTID":222,"Name":"HOMESTEAD CORRECTIONAL INSTITUTION","Address":"19000 SW 377TH ST","City":"HOMESTEAD","Zip":"33034","COUNTY":"MIAMI-DADE","X":-80.499913129999996,"Y":25.415488280000002,"LONGLAT":"-80.49991313,25.41548828","USNG":"17R NJ 50293 11049","OWNERSHIP":null,"PARCELID":"3088020000030","FACILITY_TYPE":"CORRECTIONAL FACILITY"}},{"type":"Feature","id":223,"geometry":{"type":"Point","coordinates":[-80.369357173774944,25.562115071335267]},"properties":{"OBJECTID":223,"Name":"WINGS FOR LIFE JUV CTR","Address":"11000 SW 220TH ST","City":"MIAMI","Zip":"33170","COUNTY":"MIAMI-DADE","X":-80.369357170000001,"Y":25.562115070000001,"LONGLAT":"-80.36935717,25.56211507","USNG":"17R NJ 63346 27342","OWNERSHIP":"STATE","PARCELID":"3060180000021","FACILITY_TYPE":"CORRECTIONAL FACILITY"}},{"type":"Feature","id":224,"geometry":{"type":"Point","coordinates":[-80.241584910935572,25.806203568171881]},"properties":{"OBJECTID":224,"Name":"MIAMI DADE REGIONAL JUVENILE DETENTION CENTER","Address":"3300 NW 27TH AVE","City":"MIAMI","Zip":"33142","COUNTY":"MIAMI-DADE","X":-80.24158491,"Y":25.806203570000001,"LONGLAT":"-80.24158491,25.80620357","USNG":"17R NJ 76025 54441","OWNERSHIP":"COUNTY","PARCELID":"3031280160010","FACILITY_TYPE":"JUVENILE CORRECTIONAL INSTITUTION"}},{"type":"Feature","id":225,"geometry":{"type":"Point","coordinates":[-80.19296390143387,25.778457180145857]},"properties":{"OBJECTID":225,"Name":"FDC MIAMI","Address":"33 NE 4TH ST","City":"MIAMI","Zip":"33132","COUNTY":"MIAMI-DADE","X":-80.192963899999995,"Y":25.77845718,"LONGLAT":"-80.19296390,25.77845718","USNG":"17R NJ 80918 51397","OWNERSHIP":"STATE OF FLORIDA TIITF","PARCELID":"0141370400030","FACILITY_TYPE":"FEDERAL CORRECTIONAL INSTITUTION"}},{"type":"Feature","id":226,"geometry":{"type":"Point","coordinates":[-80.414135785673651,25.620785674344951]},"properties":{"OBJECTID":226,"Name":"FCI MIAMI","Address":"15801 SW 137TH AVE","City":"MIAMI","Zip":"33177","COUNTY":"MIAMI-DADE","X":-80.414135790000003,"Y":25.620785680000001,"LONGLAT":"-80.41413579,25.62078568","USNG":"17R NJ 58819 33819","OWNERSHIP":null,"PARCELID":"3059260160001","FACILITY_TYPE":"FEDERAL CORRECTIONAL INSTITUTION"}},{"type":"Feature","id":227,"geometry":{"type":"Point","coordinates":[-80.418218198898231,25.809999749638628]},"properties":{"OBJECTID":227,"Name":"MIAMI-DADE COUNTY METRO W DET CENTER","Address":"13850 NW 41ST ST","City":"MIAMI","Zip":"33178","COUNTY":"MIAMI-DADE","X":-80.418218199999998,"Y":25.809999749999999,"LONGLAT":"-80.41821820,25.80999975","USNG":"17R NJ 58317 54771","OWNERSHIP":"STATE OF FLORIDA TIITF","PARCELID":"3039270000010","FACILITY_TYPE":"LOCAL CORRECTIONAL INSTITUTION"}},{"type":"Feature","id":228,"geometry":{"type":"Point","coordinates":[-80.310210798729955,25.8102972571509]},"properties":{"OBJECTID":228,"Name":"MIAMI-DADE COUNTY TRAINING/TREATMENT CENTER","Address":"6950 NW 41ST ST","City":"MIAMI","Zip":"33166","COUNTY":"MIAMI-DADE","X":-80.310210799999993,"Y":25.810297259999999,"LONGLAT":"-80.31021080,25.81029726","USNG":"17R NJ 69144 54856","OWNERSHIP":"COUNTY","PARCELID":"3030260000020","FACILITY_TYPE":"LOCAL CORRECTIONAL INSTITUTION"}},{"type":"Feature","id":229,"geometry":{"type":"Point","coordinates":[-80.216857045782447,25.78665320688588]},"properties":{"OBJECTID":229,"Name":"MIAMI-DADE COUNTY DETENTION CENTER","Address":"1321 NW 13TH ST","City":"MIAMI","Zip":"33125","COUNTY":"MIAMI-DADE","X":-80.216857050000002,"Y":25.786653210000001,"LONGLAT":"-80.21685705,25.78665321","USNG":"17R NJ 78517 52290","OWNERSHIP":"COUNTY","PARCELID":"0131350370050","FACILITY_TYPE":"LOCAL CORRECTIONAL INSTITUTION"}},{"type":"Feature","id":230,"geometry":{"type":"Point","coordinates":[-80.311469382902402,25.810151387490244]},"properties":{"OBJECTID":230,"Name":"T G KNIGHT CORRECTIONS CENTER","Address":"7000 NW 41ST ST","City":"MIAMI","Zip":"33166","COUNTY":"MIAMI-DADE","X":-80.311469380000005,"Y":25.810151390000001,"LONGLAT":"-80.31146938,25.81015139","USNG":"17R NJ 69017 54840","OWNERSHIP":"COUNTY","PARCELID":"3030260000020","FACILITY_TYPE":"LOCAL CORRECTIONAL INSTITUTION"}},{"type":"Feature","id":231,"geometry":{"type":"Point","coordinates":[-80.2179318620625,25.919016931686237]},"properties":{"OBJECTID":231,"Name":"NORTH MIAMI-DADE COUNTY DETENTION CENTER","Address":"15801 NW 7TH AVE","City":"MIAMI","Zip":"33169","COUNTY":"MIAMI-DADE","X":-80.217931859999993,"Y":25.919016930000002,"LONGLAT":"-80.21793186,25.91901693","USNG":"17R NJ 78322 66949","OWNERSHIP":"COUNTY","PARCELID":"3021140000120","FACILITY_TYPE":"LOCAL CORRECTIONAL INSTITUTION"}},{"type":"Feature","id":232,"geometry":{"type":"Point","coordinates":[-80.335578222406724,25.769232523937536]},"properties":{"OBJECTID":232,"Name":"MIAMI-DADE COUNTY CORR/REHAB HDQTRS","Address":"8660 W FLAGLER ST","City":"MIAMI","Zip":"33144","COUNTY":"MIAMI-DADE","X":-80.335578220000002,"Y":25.769232519999999,"LONGLAT":"-80.33557822,25.76923252","USNG":"17R NJ 66624 50296","OWNERSHIP":null,"PARCELID":"3040030060395","FACILITY_TYPE":"LOCAL CORRECTIONAL INSTITUTION"}},{"type":"Feature","id":233,"geometry":{"type":"Point","coordinates":[-80.310210798729955,25.8102972571509]},"properties":{"OBJECTID":233,"Name":"MIAMI-DADE COUNTY BOOT CAMP","Address":"6950 NW 41ST ST","City":"MIAMI","Zip":"33166","COUNTY":"MIAMI-DADE","X":-80.310210799999993,"Y":25.810297259999999,"LONGLAT":"-80.31021080,25.81029726","USNG":"17R NJ 69144 54856","OWNERSHIP":"COUNTY","PARCELID":"3030260000020","FACILITY_TYPE":"LOCAL CORRECTIONAL INSTITUTION"}},{"type":"Feature","id":234,"geometry":{"type":"Point","coordinates":[-80.20648578357374,25.788192253793479]},"properties":{"OBJECTID":234,"Name":"MIAMI-DADE COUNTY WOMENS DETENTION CENTER","Address":"1401 NW 7TH AVE","City":"MIAMI","Zip":"33136","COUNTY":"MIAMI-DADE","X":-80.206485779999994,"Y":25.788192250000002,"LONGLAT":"-80.20648578,25.78819225","USNG":"17R NJ 79556 52467","OWNERSHIP":"COUNTY","PARCELID":"0131360350010","FACILITY_TYPE":"LOCAL CORRECTIONAL INSTITUTION"}},{"type":"Feature","id":235,"geometry":{"type":"Point","coordinates":[-80.239647020871701,25.831578910809096]},"properties":{"OBJECTID":235,"Name":"MIAMI-DADE COUNTY DOC AND REHABILITATION","Address":"2525 N.W. 62ND STREET","City":"MIAMI","Zip":"33147","COUNTY":"MIAMI-DADE","X":-80.239647020000007,"Y":25.831578910000001,"LONGLAT":"-80.23964702,25.83157891","USNG":"17R NJ 76203 57252","OWNERSHIP":"COUNTY","PARCELID":"3031150530010","FACILITY_TYPE":"LOCAL CORRECTIONAL INSTITUTION"}},{"type":"Feature","id":236,"geometry":{"type":"Point","coordinates":[-81.751312859727406,24.576537588838676]},"properties":{"OBJECTID":236,"Name":"MONROE COUNTY JUVENILE JUSTICE CENTER","Address":"5501 COLLEGE RD","City":"KEY WEST","Zip":"33040","COUNTY":"MONROE","X":-81.751312859999999,"Y":24.576537590000001,"LONGLAT":"-81.75131286,24.57653759","USNG":"17R MH 23926 18267","OWNERSHIP":"COUNTY","PARCELID":"2767 25 00072080000101","FACILITY_TYPE":"JUVENILE CORRECTIONAL INSTITUTION"}},{"type":"Feature","id":237,"geometry":{"type":"Point","coordinates":[-80.551628786108026,24.980235011073763]},"properties":{"OBJECTID":237,"Name":"PLANTATION DETENTION CENTER","Address":"53 HIGHPOINT RD","City":"TAVERNIER","Zip":"33070","COUNTY":"MONROE","X":-80.551628789999995,"Y":24.980235010000001,"LONGLAT":"-80.55162879,24.98023501","USNG":"17R NH 45252 62833","OWNERSHIP":"COUNTY","PARCELID":"0563 38 00418900000000","FACILITY_TYPE":"CORRECTIONAL FACILITY"}},{"type":"Feature","id":238,"geometry":{"type":"Point","coordinates":[-81.087810725761571,24.71154751947978]},"properties":{"OBJECTID":238,"Name":"MARATHON DETENTION FACILITY","Address":"3981 OCEAN TER","City":"MARATHON","Zip":"33050","COUNTY":"MONROE","X":-81.087810730000001,"Y":24.71154752,"LONGLAT":"-81.08781073,24.71154752","USNG":"17R MH 91118 33011","OWNERSHIP":"COUNTY","PARCELID":"1066 32 00103350000100","FACILITY_TYPE":"CORRECTIONAL FACILITY"}},{"type":"Feature","id":239,"geometry":{"type":"Point","coordinates":[-81.361794794051121,24.675853322646795]},"properties":{"OBJECTID":239,"Name":"BIG PINE KEY ROAD PRISON (MALE)","Address":"450 KEY DEER BLVD","City":"BIG PINE KEY","Zip":"33043","COUNTY":"MONROE","X":-81.361794790000005,"Y":24.675853320000002,"LONGLAT":"-81.36179479,24.67585332","USNG":"17R MH 63396 29104","OWNERSHIP":"STATE","PARCELID":"2666 29 00111650000000","FACILITY_TYPE":"CORRECTIONAL FACILITY"}},{"type":"Feature","id":240,"geometry":{"type":"Point","coordinates":[-81.561314839784629,30.690604894940567]},"properties":{"OBJECTID":240,"Name":"FLORIDA DEPARTMENT OF JUVENILE JUSTICE NORTH REGION - OUTWARD BOUND","Address":"87692 BELL RIVER ESTATES RD","City":"YULEE","Zip":"32097","COUNTY":"NASSAU","X":-81.561314839999994,"Y":30.6906049,"LONGLAT":"-81.56131484,30.69060490","USNG":"17R MP 46240 95448","OWNERSHIP":"STATE","PARCELID":"39-3N-27-0000-0001-0110","FACILITY_TYPE":"JUVENILE CORRECTIONAL INSTITUTION"}},{"type":"Feature","id":241,"geometry":{"type":"Point","coordinates":[-81.433969886561471,30.691505152533331]},"properties":{"OBJECTID":241,"Name":"NASSAU HALFWAY HOUSE","Address":"1781 LISA AVE","City":"FERNANDINA BEACH","Zip":"32034","COUNTY":"NASSAU","X":-81.43396989,"Y":30.691505150000001,"LONGLAT":"-81.43396989,30.69150515","USNG":"17R MP 58437 95494","OWNERSHIP":"COUNTY","PARCELID":"09-3N-29-0000-0001-0000","FACILITY_TYPE":"JUVENILE CORRECTIONAL INSTITUTION"}},{"type":"Feature","id":242,"geometry":{"type":"Point","coordinates":[-81.630973589761055,30.611026643356038]},"properties":{"OBJECTID":242,"Name":"NASSAU COUNTY DETENTION FACILITY/SHERIFF DEPT","Address":"76212 NICHOLAS CUTINHA RD","City":"YULEE","Zip":"32097","COUNTY":"NASSAU","X":-81.630973589999996,"Y":30.611026639999999,"LONGLAT":"-81.63097359,30.61102664","USNG":"17R MP 39519 86664","OWNERSHIP":"COUNTY","PARCELID":"07-2N-27-0000-0001-0060","FACILITY_TYPE":"LOCAL CORRECTIONAL INSTITUTION"}},{"type":"Feature","id":243,"geometry":{"type":"Point","coordinates":[-86.558016404951701,30.762836410515629]},"properties":{"OBJECTID":243,"Name":"OKALOOSA COUNTY JAIL","Address":"1200 E JAMES LEE BLVD","City":"CRESTVIEW","Zip":"32539","COUNTY":"OKALOOSA","X":-86.5580164,"Y":30.762836409999998,"LONGLAT":"-86.55801640,30.76283641","USNG":"16R EV 42298 03402","OWNERSHIP":"COUNTY","PARCELID":"16-3N-23-0000-0005-0000","FACILITY_TYPE":"LOCAL CORRECTIONAL INSTITUTION"}},{"type":"Feature","id":244,"geometry":{"type":"Point","coordinates":[-86.524399960143285,30.696075212302457]},"properties":{"OBJECTID":244,"Name":"OKALOOSA WORK CAMP","Address":"3189 LITTLE SILVER RD","City":"CRESTVIEW","Zip":"32539","COUNTY":"OKALOOSA","X":-86.524399959999997,"Y":30.69607521,"LONGLAT":"-86.52439996,30.69607521","USNG":"16R EU 45547 96016","OWNERSHIP":null,"PARCELID":"02-2N-23-0000-0005-0010","FACILITY_TYPE":"LOCAL CORRECTIONAL INSTITUTION"}},{"type":"Feature","id":245,"geometry":{"type":"Point","coordinates":[-86.527328653740682,30.696807903468535]},"properties":{"OBJECTID":245,"Name":"OSKALOOSA CORRECTIONAL INSTITUTION","Address":"3189 LITTLE SILVER RD","City":"CRESTVIEW","Zip":"32539","COUNTY":"OKALOOSA","X":-86.527328650000001,"Y":30.6968079,"LONGLAT":"-86.52732865,30.69680790","USNG":"16R EU 45266 96096","OWNERSHIP":null,"PARCELID":"03-2N-23-0000-0002-0000","FACILITY_TYPE":"LOCAL CORRECTIONAL INSTITUTION"}},{"type":"Feature","id":246,"geometry":{"type":"Point","coordinates":[-86.491570224829928,30.477998387500076]},"properties":{"OBJECTID":246,"Name":"FPC EGLIN","Address":"504 INVERNESS RD","City":"EGLIN AFB","Zip":"32542","COUNTY":"OKALOOSA","X":-86.49157022,"Y":30.47799839,"LONGLAT":"-86.49157022,30.47799839","USNG":"16R EU 48800 71863","OWNERSHIP":null,"PARCELID":"19-1S-22-0000-0006-0000","FACILITY_TYPE":"FEDERAL CORRECTIONAL INSTITUTION"}},{"type":"Feature","id":247,"geometry":{"type":"Point","coordinates":[-86.522999537574989,30.700758123712042]},"properties":{"OBJECTID":247,"Name":"OKALOOSA YOUTH DEVELOPMENT CENTER","Address":"4449 STRAIGHT LINE RD","City":"CRESTVIEW","Zip":"32539","COUNTY":"OKALOOSA","X":-86.522999540000001,"Y":30.70075812,"LONGLAT":"-86.52299954,30.70075812","USNG":"16R EU 45679 96536","OWNERSHIP":"STATE","PARCELID":"02-2N-23-0000-0001-0030","FACILITY_TYPE":"JUVENILE CORRECTIONAL INSTITUTION"}},{"type":"Feature","id":248,"geometry":{"type":"Point","coordinates":[-86.521364700952816,30.700316145347838]},"properties":{"OBJECTID":248,"Name":"OKALOOSA YOUTH ACADEMY","Address":"4455 STRAIGHT LINE RD","City":"CRESTVIEW","Zip":"32539","COUNTY":"OKALOOSA","X":-86.521364700000007,"Y":30.700316149999999,"LONGLAT":"-86.52136470,30.70031615","USNG":"16R EU 45835 96487","OWNERSHIP":"STATE","PARCELID":"02-2N-23-0000-0001-0030","FACILITY_TYPE":"JUVENILE CORRECTIONAL INSTITUTION"}},{"type":"Feature","id":249,"geometry":{"type":"Point","coordinates":[-80.776025200471139,27.394065284622982]},"properties":{"OBJECTID":249,"Name":"OKEECHOBEE JUVENILE CORR CTR","Address":"5050 NE 168TH ST","City":"OKEECHOBEE","Zip":"34972","COUNTY":"OKEECHOBEE","X":-80.776025200000007,"Y":27.39406529,"LONGLAT":"-80.77602520,27.39406529","USNG":"17R NL 22143 30102","OWNERSHIP":"STATE","PARCELID":"1-30-35-36-0A00-00003-0000","FACILITY_TYPE":"JUVENILE CORRECTIONAL INSTITUTION"}},{"type":"Feature","id":250,"geometry":{"type":"Point","coordinates":[-80.823908208128486,27.307324318725176]},"properties":{"OBJECTID":250,"Name":"FLORIDA DEPARTMENT OF JUVENILE JUSTICE SOUTH REGION - ECKERD YOUTH DEVELOPMENT CENTER","Address":"7200 UNITED STATES HIGHWAY 441","City":"OKEECHOBEE","Zip":"34972","COUNTY":"OKEECHOBEE","X":-80.823908209999999,"Y":27.307324319999999,"LONGLAT":"-80.82390821,27.30732432","USNG":"17R NL 17423 20487","OWNERSHIP":"STATE","PARCELID":"1-27-36-35-0A00-00003-0000","FACILITY_TYPE":"JUVENILE CORRECTIONAL INSTITUTION"}},{"type":"Feature","id":251,"geometry":{"type":"Point","coordinates":[-80.862829254268874,27.638119651809941]},"properties":{"OBJECTID":251,"Name":"VISION QUEST CTR","Address":"42660 US HIGHWAY 441 N","City":"OKEECHOBEE","Zip":"34972","COUNTY":"OKEECHOBEE","X":-80.862829250000004,"Y":27.63811965,"LONGLAT":"-80.86282925,27.63811965","USNG":"17R NL 13531 57123","OWNERSHIP":null,"PARCELID":"1-06-33-35-0A00-00032-0000","FACILITY_TYPE":"CORRECTIONAL FACILITY"}},{"type":"Feature","id":252,"geometry":{"type":"Point","coordinates":[-80.836029545426427,27.247431514982555]},"properties":{"OBJECTID":252,"Name":"OKEECHOBEE COUNTY JAIL","Address":"499 NW 5TH AVE","City":"OKEECHOBEE","Zip":"34972","COUNTY":"OKEECHOBEE","X":-80.836029550000006,"Y":27.247431519999999,"LONGLAT":"-80.83602955,27.24743152","USNG":"17R NL 16232 13851","OWNERSHIP":"COUNTY","PARCELID":"3-15-37-35-0010-00950-0070","FACILITY_TYPE":"LOCAL CORRECTIONAL INSTITUTION"}},{"type":"Feature","id":253,"geometry":{"type":"Point","coordinates":[-80.819501727077522,27.294563964044276]},"properties":{"OBJECTID":253,"Name":"FLORIDA DEPARTMENT OF JUVENILE JUSTICE SOUTH REGION - RED ROAD ACADEMY","Address":"1117 NE 39TH BLVD","City":"OKEECHOBEE","Zip":"34972","COUNTY":"OKEECHOBEE","X":-80.819501729999999,"Y":27.294563960000001,"LONGLAT":"-80.81950173,27.29456396","USNG":"17R NL 17861 19074","OWNERSHIP":"STATE","PARCELID":"1-34-36-35-0A00-00001-0000","FACILITY_TYPE":"JUVENILE CORRECTIONAL INSTITUTION"}},{"type":"Feature","id":254,"geometry":{"type":"Point","coordinates":[-80.82019577595922,27.307130296104138]},"properties":{"OBJECTID":254,"Name":"FLORIDA DEPARTMENT OF JUVENILE JUSTICE SOUTH REGION - ECKARD INTENSIVE HALFWAY HOUSE","Address":"800 NORTHEAST 72ND CIRCLE NORTH","City":"OKEECHOBEE","Zip":"34972","COUNTY":"OKEECHOBEE","X":-80.820195780000006,"Y":27.307130300000001,"LONGLAT":"-80.82019578,27.30713030","USNG":"17R NL 17790 20466","OWNERSHIP":null,"PARCELID":"1-27-36-35-0A00-00003-0000","FACILITY_TYPE":"LOCAL CORRECTIONAL INSTITUTION"}},{"type":"Feature","id":255,"geometry":{"type":"Point","coordinates":[-80.784411048545152,27.396099970204499]},"properties":{"OBJECTID":255,"Name":"OKEECHOBEE CORR INSTITUTION","Address":"3420 NE 168TH ST","City":"OKEECHOBEE","Zip":"34972","COUNTY":"OKEECHOBEE","X":-80.784411050000003,"Y":27.396099970000002,"LONGLAT":"-80.78441105,27.39609997","USNG":"17R NL 21314 30326","OWNERSHIP":"STATE","PARCELID":"1-25-35-35-0A00-00002-0000","FACILITY_TYPE":"STATE CORRECTIONAL INSTITUTION"}},{"type":"Feature","id":256,"geometry":{"type":"Point","coordinates":[-81.159528508277006,28.453098676355445]},"properties":{"OBJECTID":256,"Name":"CENTRAL FLORIDA RECEPTION CENTER","Address":"7000 HC KELLEY RD","City":"ORLANDO","Zip":"32831","COUNTY":"ORANGE","X":-81.159528510000001,"Y":28.45309868,"LONGLAT":"-81.15952851,28.45309868","USNG":"17R MM 84380 47406","OWNERSHIP":"STATE","PARCELID":"322330000000001","FACILITY_TYPE":"STATE CORRECTIONAL INSTITUTION"}},{"type":"Feature","id":257,"geometry":{"type":"Point","coordinates":[-81.416377250232415,28.5038006080676]},"properties":{"OBJECTID":257,"Name":"ORANGE COUNTY HORIZON FACILITY","Address":"3851 VISION BLVD","City":"ORLANDO","Zip":"32839","COUNTY":"ORANGE","X":-81.416377249999996,"Y":28.503800609999999,"LONGLAT":"-81.41637725,28.50380061","USNG":"17R MM 59252 53083","OWNERSHIP":"COUNTY","PARCELID":"292309862000000","FACILITY_TYPE":"LOCAL CORRECTIONAL INSTITUTION"}},{"type":"Feature","id":258,"geometry":{"type":"Point","coordinates":[-81.354875280422817,28.51278872762725]},"properties":{"OBJECTID":258,"Name":"JUVENILE JUSTICE CENTER","Address":"2000 E MICHIGAN STREET","City":"ORLANDO","Zip":"32806","COUNTY":"ORANGE","X":-81.354875280000002,"Y":28.51278873,"LONGLAT":"-81.35487528,28.51278873","USNG":"17R MM 65274 54060","OWNERSHIP":null,"PARCELID":null,"FACILITY_TYPE":"JUVENILE CORRECTIONAL INSTITUTION"}},{"type":"Feature","id":259,"geometry":{"type":"Point","coordinates":[-81.480719186319874,28.568970032557395]},"properties":{"OBJECTID":259,"Name":"ORLANDO WORK RELEASE CENTER","Address":"7300 LAUREL HILL RD","City":"ORLANDO","Zip":"32818","COUNTY":"ORANGE","X":-81.480719190000002,"Y":28.568970029999999,"LONGLAT":"-81.48071919,28.56897003","USNG":"17R MM 52984 60327","OWNERSHIP":"STATE","PARCELID":"282214000000009","FACILITY_TYPE":"LOCAL CORRECTIONAL INSTITUTION"}},{"type":"Feature","id":260,"geometry":{"type":"Point","coordinates":[-81.380323925035995,28.519773349995386]},"properties":{"OBJECTID":260,"Name":"ORANGE CO WORK RELEASE CTR","Address":"130 W KALEY ST","City":"ORLANDO","Zip":"32806","COUNTY":"ORANGE","X":-81.380323930000003,"Y":28.519773350000001,"LONGLAT":"-81.38032393,28.51977335","USNG":"17R MM 62786 54841","OWNERSHIP":"MUNICIPAL","PARCELID":"292302944900010","FACILITY_TYPE":"LOCAL CORRECTIONAL INSTITUTION"}},{"type":"Feature","id":261,"geometry":{"type":"Point","coordinates":[-81.429055930919276,28.5694989652369]},"properties":{"OBJECTID":261,"Name":"ORLANDO BRIDGE WORK RELEASE","Address":"2025 NORTH MERCY DRIVE","City":"ORLANDO","Zip":"32808","COUNTY":"ORANGE","X":-81.429055930000004,"Y":28.569498970000001,"LONGLAT":"-81.42905593,28.56949897","USNG":"17R MM 58037 60366","OWNERSHIP":null,"PARCELID":"292217133100010","FACILITY_TYPE":"LOCAL CORRECTIONAL INSTITUTION"}},{"type":"Feature","id":262,"geometry":{"type":"Point","coordinates":[-81.414582485554959,28.504831035859127]},"properties":{"OBJECTID":262,"Name":"ORANGE COUNTY JAIL","Address":"3883 VISION BLVD","City":"ORLANDO","Zip":"32839","COUNTY":"ORANGE","X":-81.414582490000001,"Y":28.504831039999999,"LONGLAT":"-81.41458249,28.50483104","USNG":"17R MM 59428 53197","OWNERSHIP":"COUNTY","PARCELID":"292309862000000","FACILITY_TYPE":"LOCAL CORRECTIONAL INSTITUTION"}},{"type":"Feature","id":263,"geometry":{"type":"Point","coordinates":[-81.415359955472894,28.504143176134772]},"properties":{"OBJECTID":263,"Name":"ORANGE COUNTY PHOENIX FACILITY","Address":"3883 VISION BLVD","City":"ORLANDO","Zip":"32839","COUNTY":"ORANGE","X":-81.415359960000004,"Y":28.50414318,"LONGLAT":"-81.41535996,28.50414318","USNG":"17R MM 59352 53121","OWNERSHIP":"COUNTY","PARCELID":"292309862000000","FACILITY_TYPE":"LOCAL CORRECTIONAL INSTITUTION"}},{"type":"Feature","id":264,"geometry":{"type":"Point","coordinates":[-81.352362209966472,28.510160713186988]},"properties":{"OBJECTID":264,"Name":"ORANGE REGIONAL JUVENILE DETENTION CENTER","Address":"2800 S BUMBY AVE","City":"ORLANDO","Zip":"32806","COUNTY":"ORANGE","X":-81.352362209999995,"Y":28.510160710000001,"LONGLAT":"-81.35236221,28.51016071","USNG":"17R MM 65519 53768","OWNERSHIP":"COUNTY","PARCELID":"302306000000025","FACILITY_TYPE":"JUVENILE CORRECTIONAL INSTITUTION"}},{"type":"Feature","id":265,"geometry":{"type":"Point","coordinates":[-80.986606278240771,28.544625947137988]},"properties":{"OBJECTID":265,"Name":"ECKERD ACADEMY","Address":"451 ST NICHOLAS AVE","City":"CHRISTMAS","Zip":"32709","COUNTY":"ORANGE","X":-80.986606280000004,"Y":28.54462595,"LONGLAT":"-80.98660628,28.54462595","USNG":"17R NM 01310 57535","OWNERSHIP":"COUNTY","PARCELID":"332226000000001","FACILITY_TYPE":"JUVENILE CORRECTIONAL INSTITUTION"}},{"type":"Feature","id":266,"geometry":{"type":"Point","coordinates":[-81.420620294842919,28.502696304983509]},"properties":{"OBJECTID":266,"Name":"ORLANDO YOUTH ACADEMY","Address":"3150 39TH ST","City":"ORLANDO","Zip":"32839","COUNTY":"ORANGE","X":-81.420620290000002,"Y":28.502696310000001,"LONGLAT":"-81.42062029,28.50269631","USNG":"17R MM 58836 52962","OWNERSHIP":"STATE","PARCELID":"292309000000021","FACILITY_TYPE":"JUVENILE CORRECTIONAL INSTITUTION"}},{"type":"Feature","id":267,"geometry":{"type":"Point","coordinates":[-81.523355935888119,28.262162411793753]},"properties":{"OBJECTID":267,"Name":"ARC HALFWAY HOUSE A & B","Address":"5970 S ORANGE BLOSSOM TRL","City":"KISSIMMEE","Zip":"34758","COUNTY":"OSCEOLA","X":-81.523355940000002,"Y":28.262162409999998,"LONGLAT":"-81.52335594,28.26216241","USNG":"17R MM 48667 26355","OWNERSHIP":"SPECIAL TAXING DISTRICT","PARCELID":"33-25-28-0000-0350-0000","FACILITY_TYPE":"CORRECTIONAL FACILITY"}},{"type":"Feature","id":268,"geometry":{"type":"Point","coordinates":[-81.352389537675549,28.295405742157378]},"properties":{"OBJECTID":268,"Name":"OSCEOLA COUNTY JAIL","Address":"402 SIMPSON RD","City":"KISSIMMEE","Zip":"34744","COUNTY":"OSCEOLA","X":-81.352389540000004,"Y":28.29540574,"LONGLAT":"-81.35238954,28.29540574","USNG":"17R MM 65446 29977","OWNERSHIP":"COUNTY","PARCELID":"19-25-30-0000-0130-0000","FACILITY_TYPE":"LOCAL CORRECTIONAL INSTITUTION"}},{"type":"Feature","id":269,"geometry":{"type":"Point","coordinates":[-81.389159055147729,28.335014277583593]},"properties":{"OBJECTID":269,"Name":"KISSIMMEE WORK RELEASE CENTER","Address":"2925 MICHIGAN AVE","City":"KISSIMMEE","Zip":"34744","COUNTY":"OSCEOLA","X":-81.389159059999997,"Y":28.335014279999999,"LONGLAT":"-81.38915906,28.33501428","USNG":"17R MM 61855 34376","OWNERSHIP":"STATE","PARCELID":"02-25-29-1557-0001-0010","FACILITY_TYPE":"LOCAL CORRECTIONAL INSTITUTION"}},{"type":"Feature","id":270,"geometry":{"type":"Point","coordinates":[-81.349629999928993,28.294089998981317]},"properties":{"OBJECTID":270,"Name":"OSCEOLA JUVENILE DETENTION CENTER","Address":"2330 NEW BEGINNINGS RD","City":"KISSIMMEE","Zip":"34744","COUNTY":"OSCEOLA","X":-81.349630000000005,"Y":28.294090000000001,"LONGLAT":"-81.34963000,28.29409000","USNG":"17R MM 65717 29830","OWNERSHIP":"COUNTY","PARCELID":"19-25-30-0000-0040-0000","FACILITY_TYPE":"JUVENILE CORRECTIONAL INSTITUTION"}},{"type":"Feature","id":271,"geometry":{"type":"Point","coordinates":[-81.395726836756623,28.303717268470912]},"properties":{"OBJECTID":271,"Name":"THE TRANSITION HOUSE","Address":"900 E VINE ST","City":"KISSIMMEE","Zip":"34744","COUNTY":"OSCEOLA","X":-81.395726839999995,"Y":28.30371727,"LONGLAT":"-81.39572684,28.30371727","USNG":"17R MM 61200 30910","OWNERSHIP":"STATE","PARCELID":"22-25-29-00U0-0020-0000","FACILITY_TYPE":"LOCAL CORRECTIONAL INSTITUTION"}},{"type":"Feature","id":272,"geometry":{"type":"Point","coordinates":[-80.067528446560218,26.751362870171512]},"properties":{"OBJECTID":272,"Name":"PALM BEACH REGIONAL JUVENILE DETENTION CENTER","Address":"1100 45TH ST","City":"WEST PALM BEACH","Zip":"33407","COUNTY":"PALM BEACH","X":-80.067528449999998,"Y":26.751362870000001,"LONGLAT":"-80.06752845,26.75136287","USNG":"17R NK 92720 59236","OWNERSHIP":"STATE OF FLORIDA TIITF","PARCELID":"74434304150000093","FACILITY_TYPE":"JUVENILE CORRECTIONAL INSTITUTION"}},{"type":"Feature","id":273,"geometry":{"type":"Point","coordinates":[-80.092437898102375,26.670112422223983]},"properties":{"OBJECTID":273,"Name":"PALM BEACH COUNTY JAIL","Address":"3228 GUN CLUB RD","City":"WEST PALM BEACH","Zip":"33406","COUNTY":"PALM BEACH","X":-80.092437899999993,"Y":26.670112419999999,"LONGLAT":"-80.09243790,26.67011242","USNG":"17R NK 90307 50219","OWNERSHIP":"COUNTY","PARCELID":"00434406000001050","FACILITY_TYPE":"LOCAL CORRECTIONAL INSTITUTION"}},{"type":"Feature","id":274,"geometry":{"type":"Point","coordinates":[-80.674236891485052,26.717362349172458]},"properties":{"OBJECTID":274,"Name":"GLADES CORRECTIONAL INSTITUTION","Address":"500 ORANGE AVENUE CIR","City":"BELLE GLADE","Zip":"33430","COUNTY":"PALM BEACH","X":-80.674236890000003,"Y":26.717362349999998,"LONGLAT":"-80.67423689,26.71736235","USNG":"17R NK 32401 55172","OWNERSHIP":"STATE OF FLORIDA TIITF","PARCELID":"00374319000005010","FACILITY_TYPE":"LOCAL CORRECTIONAL INSTITUTION"}},{"type":"Feature","id":275,"geometry":{"type":"Point","coordinates":[-80.720319726238102,26.67308049215394]},"properties":{"OBJECTID":275,"Name":"PALM BEACH COUNTY FIRE RESCUE STATION #74","Address":"530 US HIGHWAY 27 N","City":"SOUTH BAY","Zip":"33493","COUNTY":"PALM BEACH","X":-80.72031973,"Y":26.67308049,"LONGLAT":"-80.72031973,26.67308049","USNG":"17R NK 27828 50257","OWNERSHIP":null,"PARCELID":null,"FACILITY_TYPE":"FEDERAL CORRECTIONAL INSTITUTION"}},{"type":"Feature","id":276,"geometry":{"type":"Point","coordinates":[-80.635610787681571,26.840182037801519]},"properties":{"OBJECTID":276,"Name":"SAGO PALM ACADEMY","Address":"500 BAY BOTTOM RD","City":"PAHOKEE","Zip":"33476","COUNTY":"PALM BEACH","X":-80.635610790000001,"Y":26.840182039999998,"LONGLAT":"-80.63561079,26.84018204","USNG":"17R NK 36204 68786","OWNERSHIP":null,"PARCELID":"48374209010000022","FACILITY_TYPE":"CORRECTIONAL FACILITY"}},{"type":"Feature","id":277,"geometry":{"type":"Point","coordinates":[-80.192803986970858,26.682717849332484]},"properties":{"OBJECTID":277,"Name":"WEST PALM BEACH WORK RELEASE CENTER (MALE)","Address":"261 FAIRGROUNDS RD","City":"WEST PALM BEACH","Zip":"33411","COUNTY":"PALM BEACH","X":-80.192803990000002,"Y":26.68271785,"LONGLAT":"-80.19280399,26.68271785","USNG":"17R NK 80311 51548","OWNERSHIP":"STATE OF FLORIDA TIITF","PARCELID":"00424327050080132","FACILITY_TYPE":"CORRECTIONAL FACILITY"}},{"type":"Feature","id":278,"geometry":{"type":"Point","coordinates":[-80.71829891449201,26.657530223536138]},"properties":{"OBJECTID":278,"Name":"SOUTH BAY CORRECTIONAL FACILITY (MALE)","Address":"600 US HIGHWAY 27 S","City":"SOUTH BAY","Zip":"33493","COUNTY":"PALM BEACH","X":-80.718298910000001,"Y":26.657530220000002,"LONGLAT":"-80.71829891,26.65753022","USNG":"17R NK 28033 48535","OWNERSHIP":"STATE","PARCELID":"58364414150700050","FACILITY_TYPE":"CORRECTIONAL FACILITY"}},{"type":"Feature","id":279,"geometry":{"type":"Point","coordinates":[-80.193734766930476,26.683483137647308]},"properties":{"OBJECTID":279,"Name":"LOXAHATCHEE ROAD PRISON","Address":"230 SUNSHINE RD","City":"WEST PALM BEACH","Zip":"33411","COUNTY":"PALM BEACH","X":-80.193734770000006,"Y":26.68348314,"LONGLAT":"-80.19373477,26.68348314","USNG":"17R NK 80218 51632","OWNERSHIP":"STATE","PARCELID":"00424327050080132","FACILITY_TYPE":"CORRECTIONAL FACILITY"}},{"type":"Feature","id":280,"geometry":{"type":"Point","coordinates":[-80.192763485441688,26.683437894190504]},"properties":{"OBJECTID":280,"Name":"ATLANTIC WORK RELEASE CENTER (FEMALE)","Address":"263 FAIRGROUNDS RD","City":"WEST PALM BEACH","Zip":"33411","COUNTY":"PALM BEACH","X":-80.192763490000004,"Y":26.68343789,"LONGLAT":"-80.19276349,26.68343789","USNG":"17R NK 80314 51627","OWNERSHIP":"STATE OF FLORIDA TIITF","PARCELID":"00424327050080132","FACILITY_TYPE":"CORRECTIONAL FACILITY"}},{"type":"Feature","id":281,"geometry":{"type":"Point","coordinates":[-80.667179086656915,26.719901656273471]},"properties":{"OBJECTID":281,"Name":"GLADES WORK CAMP","Address":"2600 N MAIN ST","City":"BELLE GLADE","Zip":"33430","COUNTY":"PALM BEACH","X":-80.667179090000005,"Y":26.719901660000001,"LONGLAT":"-80.66717909,26.71990166","USNG":"17R NK 33102 55455","OWNERSHIP":"STATE OF FLORIDA TIITF","PARCELID":"00374320000001000","FACILITY_TYPE":"CORRECTIONAL FACILITY"}},{"type":"Feature","id":282,"geometry":{"type":"Point","coordinates":[-80.19776478860318,26.687426555563281]},"properties":{"OBJECTID":282,"Name":"PALM BEACH JUVENILE CORRECTIONAL FACILITY","Address":"9680 FAIRGROUNDS RD","City":"WEST PALM BEACH","Zip":"33411","COUNTY":"PALM BEACH","X":-80.197764789999994,"Y":26.687426559999999,"LONGLAT":"-80.19776479,26.68742656","USNG":"17R NK 79814 52066","OWNERSHIP":"STATE","PARCELID":"00424327050080081","FACILITY_TYPE":"JUVENILE CORRECTIONAL INSTITUTION"}},{"type":"Feature","id":283,"geometry":{"type":"Point","coordinates":[-82.477371040168165,28.200658879537826]},"properties":{"OBJECTID":283,"Name":"WILSON YOUTH ACADEMY","Address":"2953 WILSON RD","City":"LAND O LAKES","Zip":"34638","COUNTY":"PASCO","X":-82.477371039999994,"Y":28.200658879999999,"LONGLAT":"-82.47737104,28.20065888","USNG":"17R LM 55002 20314","OWNERSHIP":"COUNTY","PARCELID":"182626    49900","FACILITY_TYPE":"JUVENILE CORRECTIONAL INSTITUTION"}},{"type":"Feature","id":284,"geometry":{"type":"Point","coordinates":[-82.678242929354838,28.274564268201878]},"properties":{"OBJECTID":284,"Name":"MANDALA JUVENILE JUSTICE FACILITY","Address":"8005 KING HELIE BLVD","City":"NEW PORT RICHEY","Zip":"34653","COUNTY":"PASCO","X":-82.678242929999996,"Y":28.274564269999999,"LONGLAT":"-82.67824293,28.27456427","USNG":"17R LM 35397 28760","OWNERSHIP":"COUNTY","PARCELID":"1625260000002000000","FACILITY_TYPE":"JUVENILE CORRECTIONAL INSTITUTION"}},{"type":"Feature","id":285,"geometry":{"type":"Point","coordinates":[-82.343627086260241,28.323414381252448]},"properties":{"OBJECTID":285,"Name":"PASCO REGIONAL JUVENILE DETENTION CENTER","Address":"28534 STATE ROAD 52","City":"SAN ANTONIO","Zip":"33576","COUNTY":"PASCO","X":-82.343627089999998,"Y":28.323414379999999,"LONGLAT":"-82.34362709,28.32341438","USNG":"17R LM 68281 33762","OWNERSHIP":"COUNTY","PARCELID":"2025070000003000000","FACILITY_TYPE":"JUVENILE CORRECTIONAL INSTITUTION"}},{"type":"Feature","id":286,"geometry":{"type":"Point","coordinates":[-82.670336656369912,28.267008260407149]},"properties":{"OBJECTID":286,"Name":"WEST PASCO COUNTY JAIL","Address":"8700 CITIZEN DR","City":"NEW PORT RICHEY","Zip":"34654","COUNTY":"PASCO","X":-82.670336660000004,"Y":28.267008260000001,"LONGLAT":"-82.67033666,28.26700826","USNG":"17R LM 36161 27912","OWNERSHIP":"COUNTY","PARCELID":"1625350030010000000","FACILITY_TYPE":"CORRECTIONAL FACILITY"}},{"type":"Feature","id":287,"geometry":{"type":"Point","coordinates":[-82.483847944736013,28.307500499330008]},"properties":{"OBJECTID":287,"Name":"PASCO COUNTY DETENTION CENTER","Address":"20101 CENTRAL BLVD","City":"LAND O LAKES","Zip":"34637","COUNTY":"PASCO","X":-82.483847940000004,"Y":28.3075005,"LONGLAT":"-82.48384794,28.30750050","USNG":"17R LM 54511 32160","OWNERSHIP":"COUNTY","PARCELID":"1825140000002000000","FACILITY_TYPE":"LOCAL CORRECTIONAL INSTITUTION"}},{"type":"Feature","id":288,"geometry":{"type":"Point","coordinates":[-82.27653062914348,28.325978647022854]},"properties":{"OBJECTID":288,"Name":"SAN ANTONIO BOYS VILLAGE","Address":"11609 BOYS VILLAGE DR","City":"SAN ANTONIO","Zip":"33576","COUNTY":"PASCO","X":-82.276530629999996,"Y":28.32597865,"LONGLAT":"-82.27653063,28.32597865","USNG":"17R LM 74862 33975","OWNERSHIP":"COUNTY","PARCELID":"2025110000011000000","FACILITY_TYPE":"JUVENILE CORRECTIONAL INSTITUTION"}},{"type":"Feature","id":289,"geometry":{"type":"Point","coordinates":[-82.199264475529347,28.198521296417727]},"properties":{"OBJECTID":289,"Name":"ZEPHYRHILLS CORRECTIONAL INSTITUTE","Address":"2739 GALL BLVD","City":"ZEPHYRHILLS","Zip":"33541","COUNTY":"PASCO","X":-82.199264479999997,"Y":28.198521299999999,"LONGLAT":"-82.19926448,28.19852130","USNG":"17R LM 82297 19776","OWNERSHIP":null,"PARCELID":"2126270000001000000","FACILITY_TYPE":"LOCAL CORRECTIONAL INSTITUTION"}},{"type":"Feature","id":290,"geometry":{"type":"Point","coordinates":[-82.705694969366533,27.902113154374472]},"properties":{"OBJECTID":290,"Name":"PINELLAS COUNTY JAIL","Address":"14400 49TH ST N","City":"CLEARWATER","Zip":"33760","COUNTY":"PINELLAS","X":-82.705694969999996,"Y":27.902113159999999,"LONGLAT":"-82.70569497,27.90211316","USNG":"17R LL 32126 87528","OWNERSHIP":"COUNTY","PARCELID":"16 30 04 00000 130 0000","FACILITY_TYPE":"LOCAL CORRECTIONAL INSTITUTION"}},{"type":"Feature","id":291,"geometry":{"type":"Point","coordinates":[-82.768667691261072,28.167804236260682]},"properties":{"OBJECTID":291,"Name":"TARPON SPRINGS WORK RELEASE CENTER (MALE)","Address":"566 BRADY RD","City":"TARPON SPRINGS","Zip":"34689","COUNTY":"PINELLAS","X":-82.768667690000001,"Y":28.167804239999999,"LONGLAT":"-82.76866769,28.16780424","USNG":"17R LM 26354 17056","OWNERSHIP":"STATE OF FLORIDA TIITF","PARCELID":"15 27 02 89154 000 0100","FACILITY_TYPE":"LOCAL CORRECTIONAL INSTITUTION"}},{"type":"Feature","id":292,"geometry":{"type":"Point","coordinates":[-82.704925442669506,27.8945702211265]},"properties":{"OBJECTID":292,"Name":"PINELLAS WORK RELEASE CENTER","Address":"5205 ULMERTON RD","City":"CLEARWATER","Zip":"33760","COUNTY":"PINELLAS","X":-82.704925439999997,"Y":27.894570219999999,"LONGLAT":"-82.70492544,27.89457022","USNG":"17R LL 32190 86691","OWNERSHIP":"STATE OF FLORIDA TIITF","PARCELID":"16 30 04 70902 300 1400","FACILITY_TYPE":"LOCAL CORRECTIONAL INSTITUTION"}},{"type":"Feature","id":293,"geometry":{"type":"Point","coordinates":[-82.731350119746779,27.921828181826822]},"properties":{"OBJECTID":293,"Name":"FLORIDA DEPARTMENT OF CORRECTIONS REGION 3 - LARGO RESIDENTIAL RE-ENTRY CENTER","Address":"16432 UNITED STATES HIGHWAY 19 NORTH","City":"CLEARWATER","Zip":"33764","COUNTY":"PINELLAS","X":-82.731350120000002,"Y":27.921828179999999,"LONGLAT":"-82.73135012,27.92182818","USNG":"17R LL 29631 89748","OWNERSHIP":"STATE","PARCELID":"16 29 31 70344 100 0105","FACILITY_TYPE":"STATE CORRECTIONAL INSTITUTION"}},{"type":"Feature","id":294,"geometry":{"type":"Point","coordinates":[-82.704704479873413,27.89973285401453]},"properties":{"OBJECTID":294,"Name":"PINELLAS REGIONAL JUVENILE DETENTION CENTER","Address":"5255 140TH AVE N","City":"CLEARWATER","Zip":"33760","COUNTY":"PINELLAS","X":-82.704704480000004,"Y":27.899732849999999,"LONGLAT":"-82.70470448,27.89973285","USNG":"17R LL 32220 87263","OWNERSHIP":"COUNTY","PARCELID":"16 30 04 00116 000 0100","FACILITY_TYPE":"JUVENILE CORRECTIONAL INSTITUTION"}},{"type":"Feature","id":295,"geometry":{"type":"Point","coordinates":[-82.690775986458391,27.762082967317085]},"properties":{"OBJECTID":295,"Name":"ST PETERSBURG WORK RELEASE CENTER (MALE)","Address":"4237 8TH AVE S","City":"SAINT PETERSBURG","Zip":"33711","COUNTY":"PINELLAS","X":-82.690775990000006,"Y":27.762082970000002,"LONGLAT":"-82.69077599,27.76208297","USNG":"17R LL 33381 71992","OWNERSHIP":"STATE OF FLORIDA TIITF","PARCELID":"16 31 27 17740 001 0010","FACILITY_TYPE":"LOCAL CORRECTIONAL INSTITUTION"}},{"type":"Feature","id":296,"geometry":{"type":"Point","coordinates":[-82.705420906711353,27.89562826804459]},"properties":{"OBJECTID":296,"Name":"LARGO ROAD PRISON","Address":"5201 ULMERTON RD","City":"CLEARWATER","Zip":"33760","COUNTY":"PINELLAS","X":-82.705420910000001,"Y":27.89562827,"LONGLAT":"-82.70542091,27.89562827","USNG":"17R LL 32143 86809","OWNERSHIP":"STATE OF FLORIDA TIITF","PARCELID":"16 30 04 70902 300 1400","FACILITY_TYPE":"LOCAL CORRECTIONAL INSTITUTION"}},{"type":"Feature","id":297,"geometry":{"type":"Point","coordinates":[-82.701050214232993,27.90386244935646]},"properties":{"OBJECTID":297,"Name":"PINELLAS COUNTY BOOT CAMP","Address":"14500 49TH ST N","City":"CLEARWATER","Zip":"33760","COUNTY":"PINELLAS","X":-82.701050210000005,"Y":27.903862449999998,"LONGLAT":"-82.70105021,27.90386245","USNG":"17R LL 32586 87716","OWNERSHIP":"COUNTY","PARCELID":"16 30 04 00000 130 0000","FACILITY_TYPE":"LOCAL CORRECTIONAL INSTITUTION"}},{"type":"Feature","id":298,"geometry":{"type":"Point","coordinates":[-82.624770380008016,27.865690425243876]},"properties":{"OBJECTID":298,"Name":"SUNCOAST WORK RELEASE CENTER\r\n","Address":"10596 GANDY BOULEVARD","City":"SAINT PETERSBURG","Zip":"33702","COUNTY":"PINELLAS","X":-82.624770380000001,"Y":27.865690430000001,"LONGLAT":"-82.62477038,27.86569043","USNG":"17R LL 40038 83384","OWNERSHIP":null,"PARCELID":"17 30 17 00000 340 0700","FACILITY_TYPE":"CORRECTIONAL FACILITY"}},{"type":"Feature","id":299,"geometry":{"type":"Point","coordinates":[-82.673902252274445,27.745263267838659]},"properties":{"OBJECTID":299,"Name":"CHARLES BRITT HALFWAY HOUSE","Address":"3001 26TH AVE S","City":"SAINT PETERSBURG","Zip":"33712","COUNTY":"PINELLAS","X":-82.673902249999998,"Y":27.745263269999999,"LONGLAT":"-82.67390225,27.74526327","USNG":"17R LL 35018 70106","OWNERSHIP":"STATE","PARCELID":"16 31 35 00000 210 0900","FACILITY_TYPE":"JUVENILE CORRECTIONAL INSTITUTION"}},{"type":"Feature","id":300,"geometry":{"type":"Point","coordinates":[-82.786693087986748,27.890215690748075]},"properties":{"OBJECTID":300,"Name":"FLORDIA YOUTH ACADEMY","Address":"12891 SEMINOLE BLVD","City":"LARGO","Zip":"33773","COUNTY":"PINELLAS","X":-82.78669309,"Y":27.890215690000002,"LONGLAT":"-82.78669309,27.89021569","USNG":"17R LL 24133 86324","OWNERSHIP":"STATE","PARCELID":"15 30 10 00000 130 0300","FACILITY_TYPE":"JUVENILE CORRECTIONAL INSTITUTION"}},{"type":"Feature","id":301,"geometry":{"type":"Point","coordinates":[-81.822512001693212,27.880037576637481]},"properties":{"OBJECTID":301,"Name":"POLK HALFWAY HOUSE","Address":"2145 BOB PHILLIPS RD","City":"BARTOW","Zip":"33830","COUNTY":"POLK","X":-81.822512000000003,"Y":27.88003758,"LONGLAT":"-81.82251200,27.88003758","USNG":"17R ML 19037 84185","OWNERSHIP":"STATE","PARCELID":"253009000000042020","FACILITY_TYPE":"JUVENILE CORRECTIONAL INSTITUTION"}},{"type":"Feature","id":302,"geometry":{"type":"Point","coordinates":[-81.369249038367997,27.665020515499137]},"properties":{"OBJECTID":302,"Name":"FLORIDA DEPARTMENT OF JUVENILE JUSTICE CENTRAL REGION - AVON PARK YOUTH ACADEMY-DOD","Address":"242 SOUTH BLVD","City":"FROSTPROOF","Zip":"33843","COUNTY":"POLK","X":-81.36924904,"Y":27.665020519999999,"LONGLAT":"-81.36924904,27.66502052","USNG":"17R ML 63582 60150","OWNERSHIP":"STATE","PARCELID":"293225000000021030","FACILITY_TYPE":"JUVENILE CORRECTIONAL INSTITUTION"}},{"type":"Feature","id":303,"geometry":{"type":"Point","coordinates":[-81.532292070521493,27.744307908912099]},"properties":{"OBJECTID":303,"Name":"POLK COUNTY SHERIFFS OFFICE - FROSTPROOF","Address":"111 WEST 1ST STREET","City":"FROSTPROOF","Zip":"33843","COUNTY":"POLK","X":-81.532292069999997,"Y":27.74430791,"LONGLAT":"-81.53229207,27.74430791","USNG":"17R ML 47540 68992","OWNERSHIP":null,"PARCELID":"283132968600002010","FACILITY_TYPE":"LOCAL CORRECTIONAL INSTITUTION"}},{"type":"Feature","id":304,"geometry":{"type":"Point","coordinates":[-81.360599181635763,27.661734663239461]},"properties":{"OBJECTID":304,"Name":"AVON PARK CORRECTIONAL INSTITUTION","Address":"COUNTY ROAD 64 E","City":"FROSTPROOF","Zip":"33843","COUNTY":"POLK","X":-81.360599179999994,"Y":27.66173466,"LONGLAT":"-81.36059918,27.66173466","USNG":"17R ML 64434 59783","OWNERSHIP":null,"PARCELID":"303230000000013010","FACILITY_TYPE":"LOCAL CORRECTIONAL INSTITUTION"}},{"type":"Feature","id":305,"geometry":{"type":"Point","coordinates":[-81.787826337309468,28.19823219842273]},"properties":{"OBJECTID":305,"Name":"POLK JUVENILE CORRECTIONAL FACILITY","Address":"10980 DEMILLEY RD","City":"POLK CITY","Zip":"33868","COUNTY":"POLK","X":-81.787826339999995,"Y":28.1982322,"LONGLAT":"-81.78782634,28.19823220","USNG":"17R MM 22679 19413","OWNERSHIP":"COUNTY","PARCELID":"252626000000033020","FACILITY_TYPE":"JUVENILE CORRECTIONAL INSTITUTION"}},{"type":"Feature","id":306,"geometry":{"type":"Point","coordinates":[-81.82149649194568,27.879942778859238]},"properties":{"OBJECTID":306,"Name":"POLK REGIONAL JUVENILE DETENTION CENTER","Address":"2155 BOB PHILLIPS RD","City":"BARTOW","Zip":"33830","COUNTY":"POLK","X":-81.821496490000001,"Y":27.87994278,"LONGLAT":"-81.82149649,27.87994278","USNG":"17R ML 19137 84174","OWNERSHIP":"COUNTY","PARCELID":"253009000000042010","FACILITY_TYPE":"JUVENILE CORRECTIONAL INSTITUTION"}},{"type":"Feature","id":307,"geometry":{"type":"Point","coordinates":[-81.788110301807222,28.195674862068412]},"properties":{"OBJECTID":307,"Name":"POLK WORK CAMP","Address":"10800 EVANS RD","City":"POLK CITY","Zip":"33868","COUNTY":"POLK","X":-81.7881103,"Y":28.19567486,"LONGLAT":"-81.78811030,28.19567486","USNG":"17R MM 22650 19129","OWNERSHIP":"STATE OF FLORIDA TIITF","PARCELID":"252626000000034010","FACILITY_TYPE":"LOCAL CORRECTIONAL INSTITUTION"}},{"type":"Feature","id":308,"geometry":{"type":"Point","coordinates":[-81.819626989515825,27.88303160818084]},"properties":{"OBJECTID":308,"Name":"POLK COUNTY JAIL/SHERIFF DEPT","Address":"2390 BOB PHILLIPS RD","City":"BARTOW","Zip":"33830","COUNTY":"POLK","X":-81.819626990000003,"Y":27.88303161,"LONGLAT":"-81.81962699,27.88303161","USNG":"17R ML 19323 84515","OWNERSHIP":"COUNTY","PARCELID":"253009000000024010","FACILITY_TYPE":"LOCAL CORRECTIONAL INSTITUTION"}},{"type":"Feature","id":309,"geometry":{"type":"Point","coordinates":[-81.358903553328332,27.659138801184508]},"properties":{"OBJECTID":309,"Name":"AVON PARK WORK CAMP","Address":"COUNTY ROAD 64 E","City":"FROSTPROOF","Zip":"33843","COUNTY":"POLK","X":-81.358903549999994,"Y":27.659138800000001,"LONGLAT":"-81.35890355,27.65913880","USNG":"17R ML 64601 59495","OWNERSHIP":null,"PARCELID":"303231000000011020","FACILITY_TYPE":"LOCAL CORRECTIONAL INSTITUTION"}},{"type":"Feature","id":310,"geometry":{"type":"Point","coordinates":[-81.82176670817357,27.902059990766542]},"properties":{"OBJECTID":310,"Name":"BARTOW WORK RELEASE CENTER","Address":"550 N RESTWOOD AVE","City":"BARTOW","Zip":"33830","COUNTY":"POLK","X":-81.821766710000006,"Y":27.902059990000001,"LONGLAT":"-81.82176671,27.90205999","USNG":"17R ML 19127 86624","OWNERSHIP":"STATE OF FLORIDA TIITF","PARCELID":"253004000000032010","FACILITY_TYPE":"LOCAL CORRECTIONAL INSTITUTION"}},{"type":"Feature","id":311,"geometry":{"type":"Point","coordinates":[-81.786685912755658,28.19219484187715]},"properties":{"OBJECTID":311,"Name":"POLK CORRECTIONAL INSTITUTE","Address":"10800 EVANS RD","City":"POLK CITY","Zip":"33868","COUNTY":"POLK","X":-81.786685910000003,"Y":28.192194839999999,"LONGLAT":"-81.78668591,28.19219484","USNG":"17R MM 22787 18743","OWNERSHIP":"STATE OF FLORIDA TIITF","PARCELID":"252626000000034010","FACILITY_TYPE":"LOCAL CORRECTIONAL INSTITUTION"}},{"type":"Feature","id":312,"geometry":{"type":"Point","coordinates":[-81.593234399186244,27.731311520754673]},"properties":{"OBJECTID":312,"Name":"POLK COUNTY SOUTH JAIL","Address":"1103 US HWY 98 W","City":"FROSTPROOF","Zip":"33843","COUNTY":"POLK","X":-81.5932344,"Y":27.731311519999998,"LONGLAT":"-81.59323440,27.73131152","USNG":"17R ML 41527 67579","OWNERSHIP":null,"PARCELID":"273202000000031010","FACILITY_TYPE":"LOCAL CORRECTIONAL INSTITUTION"}},{"type":"Feature","id":313,"geometry":{"type":"Point","coordinates":[-81.819809820099039,27.880341421772282]},"properties":{"OBJECTID":313,"Name":"POLK CO SHERIFF DEPT BOOT CAMP","Address":"2325 BOB PHILLIPS RD","City":"BARTOW","Zip":"33830","COUNTY":"POLK","X":-81.819809820000003,"Y":27.880341420000001,"LONGLAT":"-81.81980982,27.88034142","USNG":"17R ML 19303 84217","OWNERSHIP":"COUNTY","PARCELID":"253009000000024010","FACILITY_TYPE":"LOCAL CORRECTIONAL INSTITUTION"}},{"type":"Feature","id":314,"geometry":{"type":"Point","coordinates":[-81.661984295057295,29.669071262511562]},"properties":{"OBJECTID":314,"Name":"PUTNAM COUNTY JAIL","Address":"130 ORIE GRIFFIN BLVD","City":"PALATKA","Zip":"32177","COUNTY":"PUTNAM","X":-81.6619843,"Y":29.669071259999999,"LONGLAT":"-81.66198430,29.66907126","USNG":"17R MN 35941 82299","OWNERSHIP":"COUNTY","PARCELID":"37-09-26-0000-0070-0000","FACILITY_TYPE":"LOCAL CORRECTIONAL INSTITUTION"}},{"type":"Feature","id":315,"geometry":{"type":"Point","coordinates":[-81.587957481933827,29.646083845489187]},"properties":{"OBJECTID":315,"Name":"PUTNAM CORRECTIONAL INSTITUTION","Address":"126 YELVINGTON RD","City":"EAST PALATKA","Zip":"32131","COUNTY":"PUTNAM","X":-81.58795748,"Y":29.64608385,"LONGLAT":"-81.58795748,29.64608385","USNG":"17R MN 43092 79714","OWNERSHIP":"STATE","PARCELID":"39-10-27-0000-0640-0000","FACILITY_TYPE":"LOCAL CORRECTIONAL INSTITUTION"}},{"type":"Feature","id":316,"geometry":{"type":"Point","coordinates":[-81.489618829687856,29.722392866043897]},"properties":{"OBJECTID":316,"Name":"HASTINGS JUVENILE CENTER/YOUTH ACADEMY","Address":"765 E ST JOHNS AVE","City":"ELKTON","Zip":"32033","COUNTY":"ST. JOHNS","X":-81.489618829999998,"Y":29.72239287,"LONGLAT":"-81.48961883,29.72239287","USNG":"17R MN 52646 88125","OWNERSHIP":"COUNTY","PARCELID":"0384800050","FACILITY_TYPE":"JUVENILE CORRECTIONAL INSTITUTION"}},{"type":"Feature","id":317,"geometry":{"type":"Point","coordinates":[-81.337998201378909,29.940422366394195]},"properties":{"OBJECTID":317,"Name":"ST JOHN'S COUNTY DETENTION CENTER","Address":"4015 LEWIS SPEEDWAY","City":"SAINT AUGUSTINE","Zip":"32095","COUNTY":"ST. JOHNS","X":-81.337998200000001,"Y":29.94042237,"LONGLAT":"-81.33799820,29.94042237","USNG":"17R MP 67381 12231","OWNERSHIP":"COUNTY","PARCELID":"0734150000","FACILITY_TYPE":"LOCAL CORRECTIONAL INSTITUTION"}},{"type":"Feature","id":318,"geometry":{"type":"Point","coordinates":[-81.339424088687238,29.94208892935643]},"properties":{"OBJECTID":318,"Name":"ST JOHNS REGIONAL JUVENILE DETENTION CENTER","Address":"4500 AVENUE D","City":"SAINT AUGUSTINE","Zip":"32095","COUNTY":"ST. JOHNS","X":-81.339424089999994,"Y":29.942088930000001,"LONGLAT":"-81.33942409,29.94208893","USNG":"17R MP 67244 12416","OWNERSHIP":"STATE","PARCELID":"0734000000","FACILITY_TYPE":"JUVENILE CORRECTIONAL INSTITUTION"}},{"type":"Feature","id":319,"geometry":{"type":"Point","coordinates":[-80.337276784303683,27.394676496380026]},"properties":{"OBJECTID":319,"Name":"ST LUCIE REGIONAL JUVENILE DETENTION CENTER","Address":"1301 BELL AVE","City":"FORT PIERCE","Zip":"34982","COUNTY":"ST. LUCIE","X":-80.337276779999996,"Y":27.394676499999999,"LONGLAT":"-80.33727678,27.39467650","USNG":"17R NL 65521 30324","OWNERSHIP":"COUNTY","PARCELID":"2433-111-0001-000-4","FACILITY_TYPE":"JUVENILE CORRECTIONAL INSTITUTION"}},{"type":"Feature","id":320,"geometry":{"type":"Point","coordinates":[-80.343025524298795,27.275636537156643]},"properties":{"OBJECTID":320,"Name":"PORT ST LUCIE JAIL","Address":"121 SW PORT ST LUCIE BLVD","City":"PORT SAINT LUCIE","Zip":"34984","COUNTY":"ST. LUCIE","X":-80.343025519999998,"Y":27.275636540000001,"LONGLAT":"-80.34302552,27.27563654","USNG":"17R NL 65023 17135","OWNERSHIP":"MUNICIPAL","PARCELID":"3420-585-0005-000-2","FACILITY_TYPE":"LOCAL CORRECTIONAL INSTITUTION"}},{"type":"Feature","id":321,"geometry":{"type":"Point","coordinates":[-80.409794525738761,27.453366848695634]},"properties":{"OBJECTID":321,"Name":"ST LUCIE COUNTY JAIL","Address":"900 N ROCK RD","City":"FORT PIERCE","Zip":"34945","COUNTY":"ST. LUCIE","X":-80.409794529999999,"Y":27.453366849999998,"LONGLAT":"-80.40979453,27.45336685","USNG":"17R NL 58321 36789","OWNERSHIP":"COUNTY","PARCELID":"2311-210-0000-000-6","FACILITY_TYPE":"LOCAL CORRECTIONAL INSTITUTION"}},{"type":"Feature","id":322,"geometry":{"type":"Point","coordinates":[-80.337391511131756,27.395879087350693]},"properties":{"OBJECTID":322,"Name":"FT PIERCE WORK RELEASE CENTER","Address":"1203 BELL AVE","City":"FORT PIERCE","Zip":"34982","COUNTY":"ST. LUCIE","X":-80.337391510000003,"Y":27.395879090000001,"LONGLAT":"-80.33739151,27.39587909","USNG":"17R NL 65509 30458","OWNERSHIP":"STATE OF FLORIDA TIITF","PARCELID":"2433-111-0001-000-4","FACILITY_TYPE":"LOCAL CORRECTIONAL INSTITUTION"}},{"type":"Feature","id":323,"geometry":{"type":"Point","coordinates":[-86.952029446926389,30.645823338874042]},"properties":{"OBJECTID":323,"Name":"BLACKWATER RIVER CORRECTIONAL FACILITY","Address":"5914 JEFF ATES RD","City":"MILTON","Zip":"32583","COUNTY":"SANTA ROSA","X":-86.952029449999998,"Y":30.64582334,"LONGLAT":"-86.95202945,30.64582334","USNG":"16R EU 04596 90352","OWNERSHIP":null,"PARCELID":null,"FACILITY_TYPE":"STATE CORRECTIONAL INSTITUTION"}},{"type":"Feature","id":324,"geometry":{"type":"Point","coordinates":[-86.974268522390886,30.643460224595984]},"properties":{"OBJECTID":324,"Name":"SANTA ROSA COUNTY JAIL","Address":"5755 E MILTON RD","City":"MILTON","Zip":"32583","COUNTY":"SANTA ROSA","X":-86.974268519999995,"Y":30.643460229999999,"LONGLAT":"-86.97426852,30.64346023","USNG":"16R EU 02465 90089","OWNERSHIP":"COUNTY","PARCELID":"32-2N-27-0000-00100-0000","FACILITY_TYPE":"LOCAL CORRECTIONAL INSTITUTION"}},{"type":"Feature","id":325,"geometry":{"type":"Point","coordinates":[-86.801879387953306,30.773097651049582]},"properties":{"OBJECTID":325,"Name":"SANTA ROSA JUVENILE CORRECTIONAL FACILITY","Address":"12364 ENVIRONMENTAL CENTER RD","City":"HOLT","Zip":"32564","COUNTY":"SANTA ROSA","X":-86.801879389999996,"Y":30.77309765,"LONGLAT":"-86.80187939,30.77309765","USNG":"16R EV 18958 04472","OWNERSHIP":"COUNTY","PARCELID":"12-3N-26-0000-00100-0000","FACILITY_TYPE":"JUVENILE CORRECTIONAL INSTITUTION"}},{"type":"Feature","id":326,"geometry":{"type":"Point","coordinates":[-86.974750298363759,30.646242407597487]},"properties":{"OBJECTID":326,"Name":"MILTON GIRLS JUVENILE RESIDENTIAL FACILITY","Address":"5770 E MILTON RD","City":"MILTON","Zip":"32583","COUNTY":"SANTA ROSA","X":-86.974750299999997,"Y":30.646242409999999,"LONGLAT":"-86.97475030,30.64624241","USNG":"16R EU 02419 90398","OWNERSHIP":"COUNTY","PARCELID":"29-2N-27-0000-00101-0000","FACILITY_TYPE":"JUVENILE CORRECTIONAL INSTITUTION"}},{"type":"Feature","id":327,"geometry":{"type":"Point","coordinates":[-86.969556696747176,30.868917996594107]},"properties":{"OBJECTID":327,"Name":"CAMP E-MA-CHAMEE CENTER","Address":"3112 FRIENDSHIP RD","City":"MILTON","Zip":"32570","COUNTY":"SANTA ROSA","X":-86.969556699999998,"Y":30.868918000000001,"LONGLAT":"-86.96955670,30.86891800","USNG":"16R EV 02910 15075","OWNERSHIP":"STATE","PARCELID":"08-4N-27-0000-00100-0000","FACILITY_TYPE":"CORRECTIONAL FACILITY"}},{"type":"Feature","id":328,"geometry":{"type":"Point","coordinates":[-86.967384994577898,30.645575547768139]},"properties":{"OBJECTID":328,"Name":"SANTA ROSA CORRECTIONAL INSTITUTION","Address":"5850 E MILTON RD","City":"MILTON","Zip":"32583","COUNTY":"SANTA ROSA","X":-86.967384989999999,"Y":30.64557555,"LONGLAT":"-86.96738499,30.64557555","USNG":"16R EU 03125 90324","OWNERSHIP":null,"PARCELID":"29-2N-27-0000-00102-0000","FACILITY_TYPE":"CORRECTIONAL FACILITY"}},{"type":"Feature","id":329,"geometry":{"type":"Point","coordinates":[-87.026013015410513,30.901125335808974]},"properties":{"OBJECTID":329,"Name":"BERRYDALE FORESTRY CAMP","Address":"6920 STATE HWY 4","City":"JAY","Zip":"32565","COUNTY":"SANTA ROSA","X":-87.026013019999994,"Y":30.90112534,"LONGLAT":"-87.02601302,30.90112534","USNG":"16R DV 97514 18644","OWNERSHIP":null,"PARCELID":"34-5N-28-0000-00400-0000","FACILITY_TYPE":"CORRECTIONAL FACILITY"}},{"type":"Feature","id":330,"geometry":{"type":"Point","coordinates":[-86.880188787305116,30.839533486545786]},"properties":{"OBJECTID":330,"Name":"BLACKWATER STOP CAMP","Address":"2451 STOP CAMP RD","City":"MILTON","Zip":"32570","COUNTY":"SANTA ROSA","X":-86.880188790000005,"Y":30.839533490000001,"LONGLAT":"-86.88018879,30.83953349","USNG":"16R EV 11457 11824","OWNERSHIP":null,"PARCELID":"19-4N-26-0000-00200-0000","FACILITY_TYPE":"CORRECTIONAL FACILITY"}},{"type":"Feature","id":331,"geometry":{"type":"Point","coordinates":[-82.529154441716102,27.336034458851266]},"properties":{"OBJECTID":331,"Name":"SARASOTA COUNTY JAIL - NORTH","Address":"2050 RINGLING BLVD","City":"SARASOTA","Zip":"34237","COUNTY":"SARASOTA","X":-82.529154439999999,"Y":27.33603446,"LONGLAT":"-82.52915444,27.33603446","USNG":"17R LL 48727 24582","OWNERSHIP":"COUNTY","PARCELID":"2027-01-0080","FACILITY_TYPE":"LOCAL CORRECTIONAL INSTITUTION"}},{"type":"Feature","id":332,"geometry":{"type":"Point","coordinates":[-82.413645061214226,27.101757639207339]},"properties":{"OBJECTID":332,"Name":"SARASOTA COUNTY JAIL - SOUTH","Address":"1350 RIDGEWOOD AVE","City":"VENICE","Zip":"34285","COUNTY":"SARASOTA","X":-82.413645059999993,"Y":27.101757639999999,"LONGLAT":"-82.41364506,27.10175764","USNG":"17R LK 59863 98493","OWNERSHIP":"MUNICIPAL","PARCELID":"0411-04-0001","FACILITY_TYPE":"LOCAL CORRECTIONAL INSTITUTION"}},{"type":"Feature","id":333,"geometry":{"type":"Point","coordinates":[-82.529479980471123,27.33612060480127]},"properties":{"OBJECTID":333,"Name":"SARASOTA COUNTY JAIL - WEST","Address":"2020 MAIN ST","City":"SARASOTA","Zip":"34237","COUNTY":"SARASOTA","X":null,"Y":null,"LONGLAT":null,"USNG":null,"OWNERSHIP":null,"PARCELID":null,"FACILITY_TYPE":"LOCAL CORRECTIONAL INSTITUTION"}},{"type":"Feature","id":334,"geometry":{"type":"Point","coordinates":[-81.2995354802934,28.74476552621157]},"properties":{"OBJECTID":334,"Name":"SEMINOLE COUNTY SHERIFFS OFFICE - JUVENILE ASSESSMENT CENTER","Address":"181 BUSH LOOP","City":"SANFORD","Zip":"32773","COUNTY":"SEMINOLE","X":-81.299535480000003,"Y":28.744765529999999,"LONGLAT":"-81.29953548,28.74476553","USNG":"17R MM 70753 79745","OWNERSHIP":"COUNTY","PARCELID":"15203030004400000","FACILITY_TYPE":"LOCAL CORRECTIONAL INSTITUTION"}},{"type":"Feature","id":335,"geometry":{"type":"Point","coordinates":[-81.300819571580107,28.747156084828706]},"properties":{"OBJECTID":335,"Name":"SEMINOLE COUNTY JAIL","Address":"211 BUSH BLVD","City":"SANFORD","Zip":"32773","COUNTY":"SEMINOLE","X":-81.300819570000002,"Y":28.747156090000001,"LONGLAT":"-81.30081957,28.74715609","USNG":"17R MM 70629 80010","OWNERSHIP":"COUNTY","PARCELID":"15203030004400000","FACILITY_TYPE":"LOCAL CORRECTIONAL INSTITUTION"}},{"type":"Feature","id":336,"geometry":{"type":"Point","coordinates":[-81.298153530005436,28.74863164979844]},"properties":{"OBJECTID":336,"Name":"SEMINOLE REGIONAL JUVENILE DETENTION CENTER","Address":"200 BUSH BLVD","City":"SANFORD","Zip":"32773","COUNTY":"SEMINOLE","X":-81.298153529999993,"Y":28.74863165,"LONGLAT":"-81.29815353,28.74863165","USNG":"17R MM 70889 80173","OWNERSHIP":"COUNTY","PARCELID":"15203030004400000","FACILITY_TYPE":"JUVENILE CORRECTIONAL INSTITUTION"}},{"type":"Feature","id":337,"geometry":{"type":"Point","coordinates":[-81.298792436023405,28.74778771744344]},"properties":{"OBJECTID":337,"Name":"JOHN E POLK CORRECTIONAL FACILITY","Address":"211 N BUSH BLVD","City":"SANFORD","Zip":"32773","COUNTY":"SEMINOLE","X":-81.29879244,"Y":28.747787720000002,"LONGLAT":"-81.29879244,28.74778772","USNG":"17R MM 70827 80079","OWNERSHIP":"COUNTY","PARCELID":"15203030004400000","FACILITY_TYPE":"CORRECTIONAL FACILITY"}},{"type":"Feature","id":338,"geometry":{"type":"Point","coordinates":[-82.109783220556068,28.66376371730507]},"properties":{"OBJECTID":338,"Name":"New Jail Immediate Housing","Address":"225 E MCCOLLUM AVE","City":"BUSHNELL","Zip":"33513","COUNTY":"SUMTER","X":-82.109783219999997,"Y":28.663763719999999,"LONGLAT":"-82.10978322,28.66376372","USNG":"17R LM 91555 71238","OWNERSHIP":"COUNTY","PARCELID":"N16A243","FACILITY_TYPE":"CORRECTIONAL FACILITY"}},{"type":"Feature","id":339,"geometry":{"type":"Point","coordinates":[-82.00450683490287,28.773617620975536]},"properties":{"OBJECTID":339,"Name":"UNITED STATES PENITENTIARY - COLEMAN I","Address":"846 NE 54TH TER","City":"SUMTERVILLE","Zip":"34785","COUNTY":"SUMTER","X":-82.004506829999997,"Y":28.77361762,"LONGLAT":"-82.00450683,28.77361762","USNG":"17R MM 01945 83318","OWNERSHIP":"FEDERAL","PARCELID":"K04=004","FACILITY_TYPE":"FEDERAL CORRECTIONAL INSTITUTION"}},{"type":"Feature","id":340,"geometry":{"type":"Point","coordinates":[-81.999957334045149,28.764217029974997]},"properties":{"OBJECTID":340,"Name":"UNITED STATES PENITENTIARY - COLEMAN II","Address":"846 NE 54TH TER","City":"SUMTERVILLE","Zip":"34785","COUNTY":"SUMTER","X":-81.999957330000001,"Y":28.764217030000001,"LONGLAT":"-81.99995733,28.76421703","USNG":"17R MM 02381 82273","OWNERSHIP":"FEDERAL","PARCELID":"K10=004","FACILITY_TYPE":"FEDERAL CORRECTIONAL INSTITUTION"}},{"type":"Feature","id":341,"geometry":{"type":"Point","coordinates":[-82.206298167763478,28.615704410669032]},"properties":{"OBJECTID":341,"Name":"Sumter BTU Central Office","Address":"9544 CR 476B","City":"Bushnell","Zip":"33513","COUNTY":"SUMTER","X":-82.206298169999997,"Y":28.615704409999999,"LONGLAT":"-82.20629817,28.61570441","USNG":"17R LM 82069 66004","OWNERSHIP":null,"PARCELID":null,"FACILITY_TYPE":"CORRECTIONAL FACILITY"}},{"type":"Feature","id":342,"geometry":{"type":"Point","coordinates":[-82.007348972198116,28.766408361506031]},"properties":{"OBJECTID":342,"Name":"FEDERAL CORRECTIONAL INSTITUTION - COLEMAN MEDIUM","Address":"846 NE 54TH TER","City":"SUMTERVILLE","Zip":"33585","COUNTY":"SUMTER","X":-82.007348969999995,"Y":28.76640836,"LONGLAT":"-82.00734897,28.76640836","USNG":"17R MM 01661 82522","OWNERSHIP":"FEDERAL","PARCELID":"K09=100","FACILITY_TYPE":"FEDERAL CORRECTIONAL INSTITUTION"}},{"type":"Feature","id":343,"geometry":{"type":"Point","coordinates":[-82.011779326615311,28.770439440566221]},"properties":{"OBJECTID":343,"Name":"FEDERAL CORRECTIONAL INSTITUTION - COLEMAN LOW","Address":"846 NE 54TH TER","City":"SUMTERVILLE","Zip":"33585","COUNTY":"SUMTER","X":-82.011779329999996,"Y":28.770439440000001,"LONGLAT":"-82.01177933,28.77043944","USNG":"17R MM 01233 82972","OWNERSHIP":"FEDERAL","PARCELID":"K09=100","FACILITY_TYPE":"FEDERAL CORRECTIONAL INSTITUTION"}},{"type":"Feature","id":344,"geometry":{"type":"Point","coordinates":[-82.0150235148609,28.762468335171413]},"properties":{"OBJECTID":344,"Name":"FCC COLEMAN COMPLEX","Address":"846 NE 54TH TER","City":"SUMTERVILLE","Zip":"34785","COUNTY":"SUMTER","X":-82.015023510000006,"Y":28.762468340000002,"LONGLAT":"-82.01502351,28.76246834","USNG":"17R MM 00908 82091","OWNERSHIP":"FEDERAL","PARCELID":"K09=100","FACILITY_TYPE":"FEDERAL CORRECTIONAL INSTITUTION"}},{"type":"Feature","id":345,"geometry":{"type":"Point","coordinates":[-82.205127992923366,28.613782229890717]},"properties":{"OBJECTID":345,"Name":"SUMTER FORESTRY BOOT CAMP","Address":"9544 COUNTY ROAD 476B","City":"BUSHNELL","Zip":"33513","COUNTY":"SUMTER","X":-82.205127989999994,"Y":28.613782230000002,"LONGLAT":"-82.20512799,28.61378223","USNG":"17R LM 82182 65790","OWNERSHIP":"STATE","PARCELID":"M33=002","FACILITY_TYPE":"LOCAL CORRECTIONAL INSTITUTION"}},{"type":"Feature","id":346,"geometry":{"type":"Point","coordinates":[-82.204472961166317,28.617421031033278]},"properties":{"OBJECTID":346,"Name":"SUMTER CORRECTIONAL INSTITION","Address":"9544 COUNTY ROAD 476B","City":"BUSHNELL","Zip":"33513","COUNTY":"SUMTER","X":-82.204472960000004,"Y":28.617421029999999,"LONGLAT":"-82.20447296,28.61742103","USNG":"17R LM 82250 66193","OWNERSHIP":"STATE","PARCELID":"M33=001","FACILITY_TYPE":"LOCAL CORRECTIONAL INSTITUTION"}},{"type":"Feature","id":347,"geometry":{"type":"Point","coordinates":[-82.109421239359563,28.663015109412875]},"properties":{"OBJECTID":347,"Name":"SUMTER COUNTY DETENTION CENTER/SHERIFF DEPT","Address":"219 E ANDERSON AVE","City":"BUSHNELL","Zip":"33513","COUNTY":"SUMTER","X":-82.109421240000003,"Y":28.66301511,"LONGLAT":"-82.10942124,28.66301511","USNG":"17R LM 91590 71154","OWNERSHIP":null,"PARCELID":"N16A249","FACILITY_TYPE":"LOCAL CORRECTIONAL INSTITUTION"}},{"type":"Feature","id":348,"geometry":{"type":"Point","coordinates":[-82.869091640290193,30.237325116494375]},"properties":{"OBJECTID":348,"Name":"SUWANNEE COUNTY CORRECTIONAL INSTITUTION","Address":"63RD RD","City":"LIVE OAK","Zip":"32060","COUNTY":"SUWANNEE","X":-82.869091639999994,"Y":30.237325120000001,"LONGLAT":"-82.86909164,30.23732512","USNG":"17R LP 20145 46561","OWNERSHIP":null,"PARCELID":"1203S14E02714001010","FACILITY_TYPE":"LOCAL CORRECTIONAL INSTITUTION"}},{"type":"Feature","id":349,"geometry":{"type":"Point","coordinates":[-82.98587905160619,30.29516734204612]},"properties":{"OBJECTID":349,"Name":"SUWANNEE COUNTY DET CTR/SHERIFF DEPT","Address":"305 SW PINE AVE","City":"LIVE OAK","Zip":"32064","COUNTY":"SUWANNEE","X":-82.985879049999994,"Y":30.295167339999999,"LONGLAT":"-82.98587905,30.29516734","USNG":"17R LP 09016 53163","OWNERSHIP":"COUNTY","PARCELID":"2302S13E06409090040","FACILITY_TYPE":"LOCAL CORRECTIONAL INSTITUTION"}},{"type":"Feature","id":350,"geometry":{"type":"Point","coordinates":[-83.713949177828539,30.03890365725907]},"properties":{"OBJECTID":350,"Name":"TAYLOR CORRECTIONAL INSTITUTION","Address":"8501 HAMPTON SPRINGS RD","City":"PERRY","Zip":"32347","COUNTY":"TAYLOR","X":-83.71394918,"Y":30.038903659999999,"LONGLAT":"-83.71394918,30.03890366","USNG":"17R KP 38298 26200","OWNERSHIP":null,"PARCELID":"15050601622000","FACILITY_TYPE":"LOCAL CORRECTIONAL INSTITUTION"}},{"type":"Feature","id":351,"geometry":{"type":"Point","coordinates":[-83.714829986923391,30.036502188812239]},"properties":{"OBJECTID":351,"Name":"FLORIDA DEPARTMENT OF CORRECTIONS REGION 2 - TAYLOR ANNEX","Address":"8629 HAMPTON SPRINGS RD","City":"PERRY","Zip":"32347","COUNTY":"TAYLOR","X":-83.714829989999998,"Y":30.03650219,"LONGLAT":"-83.71482999,30.03650219","USNG":"17R KP 38207 25936","OWNERSHIP":"STATE","PARCELID":"22050601646200","FACILITY_TYPE":"STATE CORRECTIONAL INSTITUTION"}},{"type":"Feature","id":352,"geometry":{"type":"Point","coordinates":[-83.71100996963996,30.041477775776535]},"properties":{"OBJECTID":352,"Name":"FLORIDA DEPARTMENT OF CORRECTIONS REGION 2 - TAYLOR WORK CAMP","Address":"8311 HAMPTON SPRINGS RD","City":"PERRY","Zip":"32347","COUNTY":"TAYLOR","X":-83.711009970000006,"Y":30.041477780000001,"LONGLAT":"-83.71100997,30.04147778","USNG":"17R KP 38589 26479","OWNERSHIP":"STATE","PARCELID":"15050601624600","FACILITY_TYPE":"STATE CORRECTIONAL INSTITUTION"}},{"type":"Feature","id":353,"geometry":{"type":"Point","coordinates":[-83.712650231088048,30.03757440279654]},"properties":{"OBJECTID":353,"Name":"FLORIDA DEPARTMENT OF CORRECTIONS REGION 2 - TAYLOR CORRECTIONAL INSTITUTE","Address":"8515 HAMPTON SPRINGS RD","City":"PERRY","Zip":"32347","COUNTY":"TAYLOR","X":-83.712650229999994,"Y":30.0375744,"LONGLAT":"-83.71265023,30.03757440","USNG":"17R KP 38420 26049","OWNERSHIP":"STATE","PARCELID":"22050601646200","FACILITY_TYPE":"STATE CORRECTIONAL INSTITUTION"}},{"type":"Feature","id":354,"geometry":{"type":"Point","coordinates":[-83.573721037329065,30.110234337858738]},"properties":{"OBJECTID":354,"Name":"TAYLOR COUNTY JAIL","Address":"591 E US HWY 27","City":"PERRY","Zip":"32348","COUNTY":"TAYLOR","X":-83.573721039999995,"Y":30.110234340000002,"LONGLAT":"-83.57372104,30.11023434","USNG":"17R KP 52003 33795","OWNERSHIP":"COUNTY","PARCELID":"25040704834000","FACILITY_TYPE":"CORRECTIONAL FACILITY"}},{"type":"Feature","id":355,"geometry":{"type":"Point","coordinates":[-82.354779438567547,29.993445178522563]},"properties":{"OBJECTID":355,"Name":"NORTH FLORIDA RMC WORK CAMP","Address":"COUNTY RD 231","City":"LAKE BUTLER","Zip":"32054","COUNTY":"UNION","X":-82.354779440000002,"Y":29.993445179999998,"LONGLAT":"-82.35477944,29.99344518","USNG":"17R LP 69319 18831","OWNERSHIP":null,"PARCELID":"06-06-20-00-000-0300-0","FACILITY_TYPE":"CORRECTIONAL FACILITY"}},{"type":"Feature","id":356,"geometry":{"type":"Point","coordinates":[-82.193770241053471,30.08567721557683]},"properties":{"OBJECTID":356,"Name":"UNION JUVENILE RESIDENTIAL FACILITY","Address":"14692 NE COUNTY ROAD 199","City":"RAIFORD","Zip":"32083","COUNTY":"UNION","X":-82.193770240000006,"Y":30.085677220000001,"LONGLAT":"-82.19377024,30.08567722","USNG":"17R LP 84958 28879","OWNERSHIP":"COUNTY","PARCELID":"03-05-21-00-000-0040-0","FACILITY_TYPE":"JUVENILE CORRECTIONAL INSTITUTION"}},{"type":"Feature","id":357,"geometry":{"type":"Point","coordinates":[-82.338554906084724,30.023680733105717]},"properties":{"OBJECTID":357,"Name":"UNION COUNTY JAIL/SHERIFF DEPT","Address":"55 W MAIN ST","City":"LAKE BUTLER","Zip":"32054","COUNTY":"UNION","X":-82.338554909999999,"Y":30.023680729999999,"LONGLAT":"-82.33855491,30.02368073","USNG":"17R LP 70924 22163","OWNERSHIP":"COUNTY","PARCELID":"30-05-20-13-000-0010-0","FACILITY_TYPE":"LOCAL CORRECTIONAL INSTITUTION"}},{"type":"Feature","id":358,"geometry":{"type":"Point","coordinates":[-82.367767301864816,29.991915502596093]},"properties":{"OBJECTID":358,"Name":"RECEPTION AND MEDICAL CENTER - WEST UNIT","Address":"8183 SW 152ND LOOP","City":"LAKE BUTLER","Zip":"32054","COUNTY":"UNION","X":-82.367767299999997,"Y":29.991915500000001,"LONGLAT":"-82.36776730,29.99191550","USNG":"17R LP 68065 18676","OWNERSHIP":"STATE","PARCELID":"01-06-19-00-000-0211-0","FACILITY_TYPE":"STATE CORRECTIONAL INSTITUTION"}},{"type":"Feature","id":359,"geometry":{"type":"Point","coordinates":[-82.358790283068188,29.989328472565383]},"properties":{"OBJECTID":359,"Name":"NORTH FLORIDA RECEPTION CENTER","Address":"COUNTY RD 231","City":"LAKE BUTLER","Zip":"32054","COUNTY":"UNION","X":-82.358790279999994,"Y":29.98932847,"LONGLAT":"-82.35879028,29.98932847","USNG":"17R LP 68927 18379","OWNERSHIP":"STATE","PARCELID":"12-06-19-00-000-0010-0","FACILITY_TYPE":"STATE CORRECTIONAL INSTITUTION"}},{"type":"Feature","id":360,"geometry":{"type":"Point","coordinates":[-82.192747892118433,30.06644483951855]},"properties":{"OBJECTID":360,"Name":"UNION CORRECTIONAL INSTITUTION","Address":"7819 NW 228TH ST","City":"RAIFORD","Zip":"32083","COUNTY":"UNION","X":-82.192747890000007,"Y":30.066444839999999,"LONGLAT":"-82.19274789,30.06644484","USNG":"17R LP 85034 26747","OWNERSHIP":null,"PARCELID":"15-05-21-00-000-0010-0","FACILITY_TYPE":"LOCAL CORRECTIONAL INSTITUTION"}},{"type":"Feature","id":361,"geometry":{"type":"Point","coordinates":[-81.126798444751742,29.139129915633905]},"properties":{"OBJECTID":361,"Name":"DAYTONA BEACH WORK RELEASE CTR","Address":"3601 US HIGHWAY 92","City":"DAYTONA BEACH","Zip":"32124","COUNTY":"VOLUSIA","X":-81.126798440000002,"Y":29.139129919999998,"LONGLAT":"-81.12679844,29.13912992","USNG":"17R MN 87666 23406","OWNERSHIP":"STATE","PARCELID":"32160500000067","FACILITY_TYPE":"LOCAL CORRECTIONAL INSTITUTION"}},{"type":"Feature","id":362,"geometry":{"type":"Point","coordinates":[-81.149380888404764,29.140543259538735]},"properties":{"OBJECTID":362,"Name":"VOLUSIA COUNTY BRANCH JAIL","Address":"1300 RED JOHN DR","City":"DAYTONA BEACH","Zip":"32124","COUNTY":"VOLUSIA","X":-81.149380890000003,"Y":29.140543260000001,"LONGLAT":"-81.14938089,29.14054326","USNG":"17R MN 85470 23565","OWNERSHIP":"COUNTY","PARCELID":"31160100000011","FACILITY_TYPE":"LOCAL CORRECTIONAL INSTITUTION"}},{"type":"Feature","id":363,"geometry":{"type":"Point","coordinates":[-81.151679294479891,29.145258091217173]},"properties":{"OBJECTID":363,"Name":"PINES HOUSE","Address":"3875 TIGER BAY RD","City":"DAYTONA BEACH","Zip":"32124","COUNTY":"VOLUSIA","X":-81.151679290000004,"Y":29.145258089999999,"LONGLAT":"-81.15167929,29.14525809","USNG":"17R MN 85247 24088","OWNERSHIP":null,"PARCELID":"31160100000012","FACILITY_TYPE":"LOCAL CORRECTIONAL INSTITUTION"}},{"type":"Feature","id":364,"geometry":{"type":"Point","coordinates":[-81.145951334185398,29.138673388918839]},"properties":{"OBJECTID":364,"Name":"VOLUSIA COUNTY CORRECTIONAL FACILITY","Address":"1354 INDIAN LAKE RD","City":"DAYTONA BEACH","Zip":"32124","COUNTY":"VOLUSIA","X":-81.145951330000003,"Y":29.138673390000001,"LONGLAT":"-81.14595133,29.13867339","USNG":"17R MN 85803 23358","OWNERSHIP":"COUNTY","PARCELID":"31160100000011","FACILITY_TYPE":"LOCAL CORRECTIONAL INSTITUTION"}},{"type":"Feature","id":365,"geometry":{"type":"Point","coordinates":[-81.150526068938063,29.134839203763157]},"properties":{"OBJECTID":365,"Name":"VOLUSIA COUNTY BRANCH JAIL","Address":"1300 RED JOHN DR","City":"DAYTONA BEACH","Zip":"32124","COUNTY":"VOLUSIA","X":-81.150526069999998,"Y":29.134839199999998,"LONGLAT":"-81.15052607,29.13483920","USNG":"17R MN 85357 22934","OWNERSHIP":"SPECIAL TAXING DISTRICT","PARCELID":"31160100000015","FACILITY_TYPE":"LOCAL CORRECTIONAL INSTITUTION"}},{"type":"Feature","id":366,"geometry":{"type":"Point","coordinates":[-81.159626679091801,29.156017929236484]},"properties":{"OBJECTID":366,"Name":"TOMOKA WORK CAMP","Address":"3950 TIGER BAY RD","City":"DAYTONA BEACH","Zip":"32124","COUNTY":"VOLUSIA","X":-81.159626680000002,"Y":29.156017930000001,"LONGLAT":"-81.15962668,29.15601793","USNG":"17R MN 84475 25281","OWNERSHIP":"STATE","PARCELID":"31153600000090","FACILITY_TYPE":"LOCAL CORRECTIONAL INSTITUTION"}},{"type":"Feature","id":367,"geometry":{"type":"Point","coordinates":[-81.152001734877729,29.144554228602697]},"properties":{"OBJECTID":367,"Name":"OAKS HALFWAY HOUSE","Address":"3875 TIGER BAY RD","City":"DAYTONA BEACH","Zip":"32124","COUNTY":"VOLUSIA","X":-81.152001729999995,"Y":29.144554230000001,"LONGLAT":"-81.15200173,29.14455423","USNG":"17R MN 85215 24010","OWNERSHIP":null,"PARCELID":"31160100000012","FACILITY_TYPE":"LOCAL CORRECTIONAL INSTITUTION"}},{"type":"Feature","id":368,"geometry":{"type":"Point","coordinates":[-81.048776386311388,29.215495098910633]},"properties":{"OBJECTID":368,"Name":"VOLUSIA HALFWAY HOUSE","Address":"1047 MADISON AVE","City":"DAYTONA BEACH","Zip":"32114","COUNTY":"VOLUSIA","X":-81.04877639,"Y":29.215495099999998,"LONGLAT":"-81.04877639,29.21549510","USNG":"17R MN 95259 31861","OWNERSHIP":"STATE","PARCELID":"33153801180065","FACILITY_TYPE":"LOCAL CORRECTIONAL INSTITUTION"}},{"type":"Feature","id":369,"geometry":{"type":"Point","coordinates":[-81.15734390136906,29.151004401484325]},"properties":{"OBJECTID":369,"Name":"TOMOKA CORRECTIONAL INSTITUTION (MALE)","Address":"3950 TIGER BAY RD","City":"DAYTONA BEACH","Zip":"32124","COUNTY":"VOLUSIA","X":-81.157343900000001,"Y":29.151004400000001,"LONGLAT":"-81.15734390,29.15100440","USNG":"17R MN 84697 24726","OWNERSHIP":"STATE","PARCELID":"31153600000090","FACILITY_TYPE":"LOCAL CORRECTIONAL INSTITUTION"}},{"type":"Feature","id":370,"geometry":{"type":"Point","coordinates":[-81.145082535305576,29.136396591234522]},"properties":{"OBJECTID":370,"Name":"VOLUSIA REG JUVENILE DETENTION CENTER","Address":"3840 OLD DELAND RD","City":"DAYTONA BEACH","Zip":"32124","COUNTY":"VOLUSIA","X":-81.145082540000004,"Y":29.13639659,"LONGLAT":"-81.14508254,29.13639659","USNG":"17R MN 85887 23106","OWNERSHIP":"COUNTY","PARCELID":"31160100000041","FACILITY_TYPE":"JUVENILE CORRECTIONAL INSTITUTION"}},{"type":"Feature","id":371,"geometry":{"type":"Point","coordinates":[-81.145951334185398,29.138673388918839]},"properties":{"OBJECTID":371,"Name":"VOLUSIA COUNTY CORRECTIONAL FACILITY","Address":"1354 INDIAN LAKE RD","City":"DAYTONA BEACH","Zip":"32124","COUNTY":"VOLUSIA","X":-81.145951330000003,"Y":29.138673390000001,"LONGLAT":"-81.14595133,29.13867339","USNG":"17R MN 85803 23358","OWNERSHIP":"COUNTY","PARCELID":"31160100000011","FACILITY_TYPE":"JUVENILE CORRECTIONAL INSTITUTION"}},{"type":"Feature","id":372,"geometry":{"type":"Point","coordinates":[-81.14340191962394,29.141182728126303]},"properties":{"OBJECTID":372,"Name":"REALITY HOUSE","Address":"1341 INDIAN LAKE RD","City":"DAYTONA BEACH","Zip":"32124","COUNTY":"VOLUSIA","X":-81.143401920000002,"Y":29.141182730000001,"LONGLAT":"-81.14340192,29.14118273","USNG":"17R MN 86051 23636","OWNERSHIP":null,"PARCELID":"31160100000013","FACILITY_TYPE":"CORRECTIONAL FACILITY"}},{"type":"Feature","id":373,"geometry":{"type":"Point","coordinates":[-81.142764412327026,29.136742716367056]},"properties":{"OBJECTID":373,"Name":"THREE SPRINGS JUVENILE DETENTION CENTER","Address":"1386 INDIAN LAKE RD","City":"DAYTONA BEACH","Zip":"32124","COUNTY":"VOLUSIA","X":-81.142764409999998,"Y":29.136742720000001,"LONGLAT":"-81.14276441,29.13674272","USNG":"17R MN 86113 23144","OWNERSHIP":"STATE","PARCELID":"32160600000030","FACILITY_TYPE":"CORRECTIONAL FACILITY"}},{"type":"Feature","id":374,"geometry":{"type":"Point","coordinates":[-84.377258266519036,30.196609350347341]},"properties":{"OBJECTID":374,"Name":"WAKULLA COUNTY JAIL","Address":"15 OAK ST","City":"CRAWFORDVILLE","Zip":"32327","COUNTY":"WAKULLA","X":-84.377258269999999,"Y":30.196609349999999,"LONGLAT":"-84.37725827,30.19660935","USNG":"16R GU 52501 43479","OWNERSHIP":"COUNTY","PARCELID":"00-00-075-000-10242-000","FACILITY_TYPE":"CORRECTIONAL FACILITY"}},{"type":"Feature","id":375,"geometry":{"type":"Point","coordinates":[-84.176840911766817,30.263282884006195]},"properties":{"OBJECTID":375,"Name":"WAKULLA WORK CAMP","Address":"110 MELALEUCA DR","City":"CRAWFORDVILLE","Zip":"32327","COUNTY":"WAKULLA","X":-84.176840909999996,"Y":30.263282879999998,"LONGLAT":"-84.17684091,30.26328288","USNG":"16R GU 71620 51334","OWNERSHIP":null,"PARCELID":"31-2S-02E-000-05864-002","FACILITY_TYPE":"LOCAL CORRECTIONAL INSTITUTION"}},{"type":"Feature","id":376,"geometry":{"type":"Point","coordinates":[-84.178305230394528,30.260739770442843]},"properties":{"OBJECTID":376,"Name":"WAKULLA CORRECTIONAL INSTITUTION","Address":"110 MELALEUCA DR","City":"CRAWFORDVILLE","Zip":"32327","COUNTY":"WAKULLA","X":-84.178305230000007,"Y":30.260739770000001,"LONGLAT":"-84.17830523,30.26073977","USNG":"16R GU 71486 51048","OWNERSHIP":null,"PARCELID":"31-2S-02E-000-05864-002","FACILITY_TYPE":"LOCAL CORRECTIONAL INSTITUTION"}},{"type":"Feature","id":377,"geometry":{"type":"Point","coordinates":[-84.175223944539042,30.25749957162132]},"properties":{"OBJECTID":377,"Name":"FLORIDA DEPARTMENT OF CORRECTIONS REGION 1 - WAKULLA ANNEX","Address":"110 MELALEUCA DR","City":"CRAWFORDVILLE","Zip":"32327","COUNTY":"WAKULLA","X":-84.175223939999995,"Y":30.25749957,"LONGLAT":"-84.17522394,30.25749957","USNG":"16R GU 71791 50696","OWNERSHIP":"STATE","PARCELID":"31-2S-02E-000-05864-002","FACILITY_TYPE":"STATE CORRECTIONAL INSTITUTION"}},{"type":"Feature","id":378,"geometry":{"type":"Point","coordinates":[-86.164091004829956,30.734260046905138]},"properties":{"OBJECTID":378,"Name":"FLORIDA DOJJ NORTH REGION - NORTH AMERICA FAMILY INSTITUTE SHOP","Address":"286 GENE HURLEY RD","City":"DEFUNIAK SPRINGS","Zip":"32435","COUNTY":"WALTON","X":-86.164090999999999,"Y":30.73426005,"LONGLAT":"-86.16409100,30.73426005","USNG":"16R EV 80022 00450","OWNERSHIP":"STATE","PARCELID":"29-3N-19-19000-008-0020","FACILITY_TYPE":"STATE CORRECTIONAL INSTITUTION"}},{"type":"Feature","id":379,"geometry":{"type":"Point","coordinates":[-86.185210805752646,30.374432528336619]},"properties":{"OBJECTID":379,"Name":"WALTON COUNTY ROAD OFFICE DISTRICT 5, ZONE 3","Address":"142 COMMUNITY WAY","City":"SANTA ROSA BEACH","Zip":"32459","COUNTY":"WALTON","X":-86.185210810000001,"Y":30.37443253,"LONGLAT":"-86.18521081,30.37443253","USNG":"16R EU 78289 60558","OWNERSHIP":null,"PARCELID":null,"FACILITY_TYPE":"LOCAL CORRECTIONAL INSTITUTION"}},{"type":"Feature","id":380,"geometry":{"type":"Point","coordinates":[-86.108763916060383,30.783785903065702]},"properties":{"OBJECTID":380,"Name":"WALTON COUNTY DEPARTMENT OF CORRECTIONS","Address":"796 TRIPLE G RD","City":"DEFUNIAK SPRINGS","Zip":"32433","COUNTY":"WALTON","X":-86.108763920000001,"Y":30.783785900000002,"LONGLAT":"-86.10876392,30.78378590","USNG":"16R EV 85275 05979","OWNERSHIP":"STATE","PARCELID":"01-3N-19-19000-006-0020","FACILITY_TYPE":"LOCAL CORRECTIONAL INSTITUTION"}},{"type":"Feature","id":381,"geometry":{"type":"Point","coordinates":[-86.164091004829956,30.734260046905138]},"properties":{"OBJECTID":381,"Name":"NAFI HALFWAY HOUSE","Address":"286 GENE HURLEY RD","City":"DEFUNIAK SPRINGS","Zip":"32435","COUNTY":"WALTON","X":-86.164090999999999,"Y":30.73426005,"LONGLAT":"-86.16409100,30.73426005","USNG":"16R EV 80022 00450","OWNERSHIP":"STATE","PARCELID":"29-3N-19-19000-008-0020","FACILITY_TYPE":"CORRECTIONAL FACILITY"}},{"type":"Feature","id":382,"geometry":{"type":"Point","coordinates":[-86.164091004829956,30.734260046905138]},"properties":{"OBJECTID":382,"Name":"NAFI HALFWAY HOUSE","Address":"286 GENE HURLEY RD","City":"DEFUNIAK SPRINGS","Zip":"32435","COUNTY":"WALTON","X":-86.164090999999999,"Y":30.73426005,"LONGLAT":"-86.16409100,30.73426005","USNG":"16R EV 80022 00450","OWNERSHIP":"STATE","PARCELID":"29-3N-19-19000-008-0020","FACILITY_TYPE":"CORRECTIONAL FACILITY"}},{"type":"Feature","id":383,"geometry":{"type":"Point","coordinates":[-86.107375423360637,30.77893364254162]},"properties":{"OBJECTID":383,"Name":"WALTON WORK CAMP","Address":"301 WORLD WAR II VETERANS LN","City":"DEFUNIAK SPRINGS","Zip":"32433","COUNTY":"WALTON","X":-86.107375419999997,"Y":30.778933640000002,"LONGLAT":"-86.10737542,30.77893364","USNG":"16R EV 85412 05443","OWNERSHIP":"STATE","PARCELID":"01-3N-19-19000-006-0020","FACILITY_TYPE":"LOCAL CORRECTIONAL INSTITUTION"}},{"type":"Feature","id":384,"geometry":{"type":"Point","coordinates":[-86.103203449651218,30.778976488531153]},"properties":{"OBJECTID":384,"Name":"WALTON CORRECTIONAL INSTITUTION","Address":"691 WORLD WAR II VETERANS LN","City":"DEFUNIAK SPRINGS","Zip":"32433","COUNTY":"WALTON","X":-86.103203449999995,"Y":30.778976490000002,"LONGLAT":"-86.10320345,30.77897649","USNG":"16R EV 85812 05451","OWNERSHIP":"STATE","PARCELID":"01-3N-19-19000-006-0020","FACILITY_TYPE":"LOCAL CORRECTIONAL INSTITUTION"}},{"type":"Feature","id":385,"geometry":{"type":"Point","coordinates":[-85.522315596902217,30.765139610962517]},"properties":{"OBJECTID":385,"Name":"WASHINGTON COUNTY JAIL","Address":"1100 BRICKYARD RD","City":"CHIPLEY","Zip":"32428","COUNTY":"WASHINGTON","X":-85.522315599999999,"Y":30.765139609999999,"LONGLAT":"-85.52231560,30.76513961","USNG":"16R FV 41420 04506","OWNERSHIP":null,"PARCELID":"00000000-00-2259-0015","FACILITY_TYPE":"LOCAL CORRECTIONAL INSTITUTION"}},{"type":"Feature","id":386,"geometry":{"type":"Point","coordinates":[-85.65939316172927,30.5193336355381]},"properties":{"OBJECTID":386,"Name":"WASHINGTON COUNTY CORRECTIONAL INSTITUTION","Address":"4455 SAM MITCHELL RD","City":"CHIPLEY","Zip":"32428","COUNTY":"WASHINGTON","X":-85.659393159999993,"Y":30.519333639999999,"LONGLAT":"-85.65939316,30.51933364","USNG":"16R FU 28625 77098","OWNERSHIP":"STATE","PARCELID":"00000000-00-3032-0002","FACILITY_TYPE":"LOCAL CORRECTIONAL INSTITUTION"}},{"type":"Feature","id":387,"geometry":{"type":"Point","coordinates":[-85.690512178168731,30.603417312233837]},"properties":{"OBJECTID":387,"Name":"ECKERD YOUTH ALTERNATIVE - VERNON PLACE","Address":"3242 MOSS HILL RD","City":"VERNON","Zip":"32462","COUNTY":"WASHINGTON","X":-85.690512179999999,"Y":30.603417310000001,"LONGLAT":"-85.69051218,30.60341731","USNG":"16R FU 25531 86382","OWNERSHIP":"STATE","PARCELID":"00000000-00-4182-0002","FACILITY_TYPE":"CORRECTIONAL FACILITY"}},{"type":"Feature","id":388,"geometry":{"type":"Point","coordinates":[-85.810342749879595,30.762819363219684]},"properties":{"OBJECTID":388,"Name":"CARYVILLE WORK CAMP","Address":"1005 WAITS AVE","City":"CARYVILLE","Zip":"32427","COUNTY":"WASHINGTON","X":-85.810342750000004,"Y":30.762819360000002,"LONGLAT":"-85.81034275,30.76281936","USNG":"16R FV 13855 03921","OWNERSHIP":"STATE","PARCELID":"00000000-00-5903-0001","FACILITY_TYPE":"LOCAL CORRECTIONAL INSTITUTION"}},{"type":"Feature","id":389,"geometry":{"type":"Point","coordinates":[-85.65939316172927,30.5193336355381]},"properties":{"OBJECTID":389,"Name":"FLORIDA DEPARTMENT OF CORRECTIONS REGION 1 - WASHINGTON CORRECTIONAL INSTITUTION - ANNEX","Address":"4455 SAM MITCHELL RD","City":"CHIPLEY","Zip":"32428","COUNTY":"WASHINGTON","X":-85.659393159999993,"Y":30.519333639999999,"LONGLAT":"-85.65939316,30.51933364","USNG":"16R FU 28625 77098","OWNERSHIP":"STATE","PARCELID":"00000000-00-3032-0002","FACILITY_TYPE":"STATE CORRECTIONAL INSTITUTION"}}]}