{"type":"FeatureCollection","features":[{"type":"Feature","id":1,"geometry":{"type":"Point","coordinates":[-82.280272231996008,29.68244133804339]},"properties":{"OBJECTID":1,"Name":"ALACHUA COUNTY FAIRGROUNDS","Address":"2900 NE 39TH AVE","City":"GAINESVILLE","Zip":"32609","COUNTY":"ALACHUA","X":-82.280272229999994,"Y":29.68244134,"LONGLAT":"-82.28027223,29.68244134","USNG":"17R LN 76124 84283","OWNERSHIP":null,"PARCELID":"08192 010 000","FACILITY_TYPE":"DISASTER RECOVERY CENTER","ADDRESSCITYZIP":"2900 NE 39TH AVE GAINESVILLE , FL 32609"}},{"type":"Feature","id":2,"geometry":{"type":"Point","coordinates":[-82.607874599963267,29.778145498938535]},"properties":{"OBJECTID":2,"Name":"ALACHUA-HIGH SPRINGS LIBRARY","Address":"23779 W US HWY 27","City":"HIGH SPRINGS","Zip":"32643","COUNTY":"ALACHUA","X":-82.607874600000002,"Y":29.778145500000001,"LONGLAT":"-82.60787460,29.77814550","USNG":"17R LN 44570 95285","OWNERSHIP":null,"PARCELID":null,"FACILITY_TYPE":"DISASTER RECOVERY CENTER","ADDRESSCITYZIP":"23779 W US HWY 27 HIGH SPRINGS , FL 32643"}},{"type":"Feature","id":3,"geometry":{"type":"Point","coordinates":[-82.610785099705808,29.645132598867047]},"properties":{"OBJECTID":3,"Name":"ALACHUA-NEWBERRY LIBRARY","Address":"110 S SEABOARD DR","City":"NEWBERRY ","Zip":"32669","COUNTY":"ALACHUA","X":-82.610785100000001,"Y":29.6451326,"LONGLAT":"-82.61078510,29.64513260","USNG":"17R LN 44083 80548","OWNERSHIP":null,"PARCELID":null,"FACILITY_TYPE":"DISASTER RECOVERY CENTER","ADDRESSCITYZIP":"110 S SEABOARD DR NEWBERRY  , FL 32669"}},{"type":"Feature","id":4,"geometry":{"type":"Point","coordinates":[-82.171236299878075,29.790414099065107]},"properties":{"OBJECTID":4,"Name":"ALACHUA-WALDO LIBRARY","Address":"14257 COLE ST","City":"WALDO","Zip":"32694","COUNTY":"ALACHUA","X":-82.171236300000004,"Y":29.7904141,"LONGLAT":"-82.17123630,29.79041410","USNG":"17R LN 86796 96136","OWNERSHIP":null,"PARCELID":null,"FACILITY_TYPE":"DISASTER RECOVERY CENTER","ADDRESSCITYZIP":"14257 COLE ST WALDO , FL 32694"}},{"type":"Feature","id":5,"geometry":{"type":"Point","coordinates":[-82.288273500103287,29.651533098997124]},"properties":{"OBJECTID":5,"Name":"CONE PARK BRANCH LIBRARY (FIXED)","Address":"2801 E UNIVERSITY BLVD","City":"GAINESVILLE","Zip":"32641","COUNTY":"ALACHUA","X":-82.288273500000003,"Y":29.651533100000002,"LONGLAT":"-82.28827350,29.65153310","USNG":"17R LN 75311 80866","OWNERSHIP":null,"PARCELID":null,"FACILITY_TYPE":"DISASTER RECOVERY CENTER","ADDRESSCITYZIP":"2801 E UNIVERSITY BLVD GAINESVILLE , FL 32641"}},{"type":"Feature","id":6,"geometry":{"type":"Point","coordinates":[-82.310969300162242,29.66781399900966]},"properties":{"OBJECTID":6,"Name":"ALACHUA-LIBRARY PARTNERSHIP","Address":"1130 NE 16TH AVE","City":"GAINESVILLE","Zip":"32601","COUNTY":"ALACHUA","X":-82.310969299999996,"Y":29.667814,"LONGLAT":"-82.31096930,29.66781400","USNG":"17R LN 73135 82695","OWNERSHIP":null,"PARCELID":null,"FACILITY_TYPE":"DISASTER RECOVERY CENTER","ADDRESSCITYZIP":"1130 NE 16TH AVE GAINESVILLE , FL 32601"}},{"type":"Feature","id":7,"geometry":{"type":"Point","coordinates":[-82.086826099868475,29.59275219905777]},"properties":{"OBJECTID":7,"Name":"ALACHUA-HAWTHORNE LIBRARY","Address":"6640 SE 221ST ST","City":"HAWTHORNE","Zip":" ","COUNTY":"ALACHUA","X":-82.086826099999996,"Y":29.5927522,"LONGLAT":"-82.08682610,29.59275220","USNG":"17R LN 94749 74153","OWNERSHIP":null,"PARCELID":null,"FACILITY_TYPE":"DISASTER RECOVERY CENTER","ADDRESSCITYZIP":"6640 SE 221ST ST HAWTHORNE , FL  "}},{"type":"Feature","id":8,"geometry":{"type":"Point","coordinates":[-82.387908500186768,29.681953699061605]},"properties":{"OBJECTID":8,"Name":"ALACHUA-MILLHOPPER LIBRARY","Address":"3145 NW 43RD ST","City":"GAINESVILLE","Zip":"32606","COUNTY":"ALACHUA","X":-82.387908499999995,"Y":29.681953700000001,"LONGLAT":"-82.38790850,29.68195370","USNG":"17R LN 65707 84349","OWNERSHIP":null,"PARCELID":null,"FACILITY_TYPE":"DISASTER RECOVERY CENTER","ADDRESSCITYZIP":"3145 NW 43RD ST GAINESVILLE , FL 32606"}},{"type":"Feature","id":9,"geometry":{"type":"Point","coordinates":[-82.371347000080135,29.66151299972417]},"properties":{"OBJECTID":9,"Name":"CITY OF GAINESVILLE WESTSIDE RECREATION CENTER","Address":"1001 NW 34TH ST","City":"GAINESVILLE","Zip":"32605","COUNTY":"ALACHUA","X":-82.371347,"Y":29.661512999999999,"LONGLAT":"-82.37134700,29.66151300","USNG":"17R LN 67283 82065","OWNERSHIP":null,"PARCELID":"06436 001 000","FACILITY_TYPE":"DISASTER RECOVERY CENTER","ADDRESSCITYZIP":"1001 NW 34TH ST GAINESVILLE , FL 32605"}},{"type":"Feature","id":10,"geometry":{"type":"Point","coordinates":[-82.519696600235534,29.532064399057045]},"properties":{"OBJECTID":10,"Name":"ALACHUA-ARCHER LIBRARY","Address":"13266 SW SR 45","City":"ARCHER","Zip":" ","COUNTY":"ALACHUA","X":-82.519696600000003,"Y":29.532064399999999,"LONGLAT":"-82.51969660,29.53206440","USNG":"17R LN 52737 67898","OWNERSHIP":null,"PARCELID":null,"FACILITY_TYPE":"DISASTER RECOVERY CENTER","ADDRESSCITYZIP":"13266 SW SR 45 ARCHER , FL  "}},{"type":"Feature","id":11,"geometry":{"type":"Point","coordinates":[-82.352907563222018,29.709795668687246]},"properties":{"OBJECTID":11,"Name":"ALACHUA CO FIRE RESCUE ST 6","Address":"5901 NW 34TH ST","City":"GAINESVILLE","Zip":"32653","COUNTY":"ALACHUA","X":-82.352907560000006,"Y":29.709795669999998,"LONGLAT":"-82.35290756,29.70979567","USNG":"17R LN 69130 87394","OWNERSHIP":"COUNTY","PARCELID":"07879 003 002","FACILITY_TYPE":"DISASTER RECOVERY CENTER","ADDRESSCITYZIP":"5901 NW 34TH ST GAINESVILLE , FL 32653"}},{"type":"Feature","id":12,"geometry":{"type":"Point","coordinates":[-82.154598856448374,30.282175082415943]},"properties":{"OBJECTID":12,"Name":"BAKER COUNTY SENIOR HIGH SCHOOL","Address":"1 WILDCAT DR","City":"GLEN SAINT MARY","Zip":"32040","COUNTY":"BAKER","X":-82.154598859999993,"Y":30.282175079999998,"LONGLAT":"-82.15459886,30.28217508","USNG":"17R LP 88954 50617","OWNERSHIP":null,"PARCELID":"362S21000000000050","FACILITY_TYPE":"DISASTER RECOVERY CENTER","ADDRESSCITYZIP":"1 WILDCAT DR GLEN SAINT MARY , FL 32040"}},{"type":"Feature","id":13,"geometry":{"type":"Point","coordinates":[-82.276985510295006,30.247375726951638]},"properties":{"OBJECTID":13,"Name":"PRIVATE OWNED PROPERTY OF BILL WATSON","Address":"14512 US 90","City":"GLEN SAINT MARY","Zip":"32040","COUNTY":"BAKER","X":-82.276985510000003,"Y":30.247375730000002,"LONGLAT":"-82.27698551,30.24737573","USNG":"17R LP 77139 46886","OWNERSHIP":null,"PARCELID":null,"FACILITY_TYPE":"DISASTER RECOVERY CENTER","ADDRESSCITYZIP":"14512 US 90 GLEN SAINT MARY , FL 32040"}},{"type":"Feature","id":14,"geometry":{"type":"Point","coordinates":[-82.126819933025331,30.2865899200348]},"properties":{"OBJECTID":14,"Name":"CHRISTIAN FELLOWSHIP TEMPLE","Address":"337 N 7TH ST","City":"MACCLENNY","Zip":"32063","COUNTY":"BAKER","X":-82.126819929999996,"Y":30.286589920000001,"LONGLAT":"-82.12681993,30.28658992","USNG":"17R LP 91630 51079","OWNERSHIP":null,"PARCELID":"322S22004900080010","FACILITY_TYPE":"DISASTER RECOVERY CENTER","ADDRESSCITYZIP":"337 N 7TH ST MACCLENNY , FL 32063"}},{"type":"Feature","id":15,"geometry":{"type":"Point","coordinates":[-82.132657349423752,30.305434712862755]},"properties":{"OBJECTID":15,"Name":"BAKER COUNTY FAIRGROUNDS","Address":"5611 LAURAMORE RD","City":"MACCLENNY","Zip":"32063","COUNTY":"BAKER","X":-82.132657350000002,"Y":30.30543471,"LONGLAT":"-82.13265735,30.30543471","USNG":"17R LP 91090 53174","OWNERSHIP":"COUNTY","PARCELID":"202S22000000000330","FACILITY_TYPE":"DISASTER RECOVERY CENTER","ADDRESSCITYZIP":"5611 LAURAMORE RD MACCLENNY , FL 32063"}},{"type":"Feature","id":16,"geometry":{"type":"Point","coordinates":[-82.137848999356692,30.280302999023938]},"properties":{"OBJECTID":16,"Name":"BAKER COUNTY AGRICULTURAL CENTER","Address":"1025 WEST MACCLENNY AVE","City":"MACCLENNY","Zip":"32063","COUNTY":"BAKER","X":-82.137849000000003,"Y":30.280303,"LONGLAT":"-82.13784900,30.28030300","USNG":"17R LP 90563 50393","OWNERSHIP":"COUNTY","PARCELID":"312S22000000000571","FACILITY_TYPE":"DISASTER RECOVERY CENTER","ADDRESSCITYZIP":"1025 WEST MACCLENNY AVE MACCLENNY , FL 32063"}},{"type":"Feature","id":17,"geometry":{"type":"Point","coordinates":[-85.749079863828285,30.153740250033568]},"properties":{"OBJECTID":17,"Name":"THOMAS DRIVE FIRE ST 1","Address":"2913 THOMAS DR","City":"PANAMA CITY","Zip":"32408","COUNTY":"BAY","X":-85.749079859999995,"Y":30.153740249999998,"LONGLAT":"-85.74907986,30.15374025","USNG":"16R FU 20466 36481","OWNERSHIP":"COUNTY","PARCELID":"31142-040-000","FACILITY_TYPE":"DISASTER RECOVERY CENTER","ADDRESSCITYZIP":"2913 THOMAS DR PANAMA CITY , FL 32408"}},{"type":"Feature","id":18,"geometry":{"type":"Point","coordinates":[-85.684396573469414,30.386573280683635]},"properties":{"OBJECTID":18,"Name":"SANDHILLS FD","Address":"13010 STATE HIGHWAY 77","City":"PANAMA CITY","Zip":"32409","COUNTY":"BAY","X":-85.684396570000004,"Y":30.38657328,"LONGLAT":"-85.68439657,30.38657328","USNG":"16R FU 26397 62356","OWNERSHIP":"COUNTY","PARCELID":"07504-005-000","FACILITY_TYPE":"DISASTER RECOVERY CENTER","ADDRESSCITYZIP":"13010 STATE HIGHWAY 77 PANAMA CITY , FL 32409"}},{"type":"Feature","id":19,"geometry":{"type":"Point","coordinates":[-82.106104297910179,29.964007879017796]},"properties":{"OBJECTID":19,"Name":"BRADFORD COUNTY SENIOR CENTER","Address":"1805 N TEMPLE AVE","City":"STARKE","Zip":"32091","COUNTY":"BRADFORD","X":-82.106104299999998,"Y":29.96400788,"LONGLAT":"-82.10610430,29.96400788","USNG":"17R LP 93276 15311","OWNERSHIP":"COUNTY","PARCELID":"02423-0-00000","FACILITY_TYPE":"DISASTER RECOVERY CENTER","ADDRESSCITYZIP":"1805 N TEMPLE AVE STARKE , FL 32091"}},{"type":"Feature","id":20,"geometry":{"type":"Point","coordinates":[-82.335474020181266,29.890247134428606]},"properties":{"OBJECTID":20,"Name":"BROOKER COMMUNITY CENTER","Address":"17435 TESTONE AVE","City":"BROOKER","Zip":"32622","COUNTY":"BRADFORD","X":-82.335474020000007,"Y":29.89024714,"LONGLAT":"-82.33547402,29.89024714","USNG":"17R LP 71049 07372","OWNERSHIP":null,"PARCELID":"00809-0-00000","FACILITY_TYPE":"DISASTER RECOVERY CENTER","ADDRESSCITYZIP":"17435 TESTONE AVE BROOKER , FL 32622"}},{"type":"Feature","id":21,"geometry":{"type":"Point","coordinates":[-82.073396336155767,30.045314181177023]},"properties":{"OBJECTID":21,"Name":"LAWTEY COMMUNITY CENTER","Address":"2783 LAKE ST","City":"LAWTEY","Zip":"32058","COUNTY":"BRADFORD","X":-82.073396340000002,"Y":30.045314179999998,"LONGLAT":"-82.07339634,30.04531418","USNG":"17R LP 96517 24291","OWNERSHIP":"MUNICIPAL","PARCELID":"01452-0-00100","FACILITY_TYPE":"DISASTER RECOVERY CENTER","ADDRESSCITYZIP":"2783 LAKE ST LAWTEY , FL 32058"}},{"type":"Feature","id":22,"geometry":{"type":"Point","coordinates":[-80.627830862393537,28.132342161370612]},"properties":{"OBJECTID":22,"Name":"EAU GALLIE CIVIC CENTER","Address":"1551 HIGHLAND AVE","City":"MELBOURNE","Zip":"32935","COUNTY":"BREVARD","X":-80.627830860000003,"Y":28.13234216,"LONGLAT":"-80.62783086,28.13234216","USNG":"17R NM 36547 11918","OWNERSHIP":"MUNICIPAL","PARCELID":"27 371625    3    1","FACILITY_TYPE":"DISASTER RECOVERY CENTER","ADDRESSCITYZIP":"1551 HIGHLAND AVE MELBOURNE , FL 32935"}},{"type":"Feature","id":23,"geometry":{"type":"Point","coordinates":[-80.608225999796687,28.069685999335952]},"properties":{"OBJECTID":23,"Name":"GRANT STREET COMMUNITY CENTER","Address":"2547 GRANT STREET","City":"MELBOURNE","Zip":"32901","COUNTY":"BREVARD","X":-80.608226000000002,"Y":28.069686000000001,"LONGLAT":"-80.60822600,28.06968600","USNG":"17R NM 38495 04983","OWNERSHIP":"MUNICIPAL","PARCELID":"28 3710FJ   16    3","FACILITY_TYPE":"DISASTER RECOVERY CENTER","ADDRESSCITYZIP":"2547 GRANT STREET MELBOURNE , FL 32901"}},{"type":"Feature","id":24,"geometry":{"type":"Point","coordinates":[-80.726474304512962,28.344330061869716]},"properties":{"OBJECTID":24,"Name":"MARTIN ANDERSON SENIOR CENTER","Address":"1025 FLORIDA AVE S","City":"ROCKLEDGE","Zip":"32955","COUNTY":"BREVARD","X":-80.726474300000007,"Y":28.344330060000001,"LONGLAT":"-80.72647430,28.34433006","USNG":"17R NM 26807 35376","OWNERSHIP":null,"PARCELID":null,"FACILITY_TYPE":"DISASTER RECOVERY CENTER","ADDRESSCITYZIP":"1025 FLORIDA AVE S ROCKLEDGE , FL 32955"}},{"type":"Feature","id":25,"geometry":{"type":"Point","coordinates":[-80.781423399773672,28.359491899328543]},"properties":{"OBJECTID":25,"Name":"BREVARD-CO AGRICULTURAL CENTER","Address":"3695 LAKE DR","City":"COCOA","Zip":"32926","COUNTY":"BREVARD","X":-80.781423399999994,"Y":28.359491899999998,"LONGLAT":"-80.78142340,28.35949190","USNG":"17R NM 21419 37045","OWNERSHIP":null,"PARCELID":null,"FACILITY_TYPE":"DISASTER RECOVERY CENTER","ADDRESSCITYZIP":"3695 LAKE DR COCOA , FL 32926"}},{"type":"Feature","id":26,"geometry":{"type":"Point","coordinates":[-80.702942683502044,28.110350425554415]},"properties":{"OBJECTID":26,"Name":"LAMPLIGHTER VILLAGE COMMUNITY CENTER","Address":"276 LAMPLIGHTER DR","City":"MELBOURNE","Zip":"32934","COUNTY":"BREVARD","X":-80.702942680000007,"Y":28.11035043,"LONGLAT":"-80.70294268,28.11035043","USNG":"17R NM 29177 09462","OWNERSHIP":null,"PARCELID":null,"FACILITY_TYPE":"DISASTER RECOVERY CENTER","ADDRESSCITYZIP":"276 LAMPLIGHTER DR MELBOURNE , FL 32934"}},{"type":"Feature","id":27,"geometry":{"type":"Point","coordinates":[-80.813984838012118,28.606970481378227]},"properties":{"OBJECTID":27,"Name":"HARRY T. MOORE SOCIAL SERVICES CENTER","Address":"725 S. DELEON AVE","City":"TITUSVILLE","Zip":"32780","COUNTY":"BREVARD","X":-80.813984840000003,"Y":28.606970480000001,"LONGLAT":"-80.81398484,28.60697048","USNG":"17R NM 18185 64456","OWNERSHIP":null,"PARCELID":null,"FACILITY_TYPE":"DISASTER RECOVERY CENTER","ADDRESSCITYZIP":"725 S. DELEON AVE TITUSVILLE , FL 32780"}},{"type":"Feature","id":28,"geometry":{"type":"Point","coordinates":[-80.523548326772385,27.88613480143383]},"properties":{"OBJECTID":28,"Name":"BAREFOOT BAY COMMUNITY CENTER","Address":"937 BAREFOOT BLVD","City":"SEBASTIAN","Zip":"32976","COUNTY":"BREVARD","X":-80.523548329999997,"Y":27.886134800000001,"LONGLAT":"-80.52354833,27.88613480","USNG":"17R NL 46895 84680","OWNERSHIP":null,"PARCELID":null,"FACILITY_TYPE":"DISASTER RECOVERY CENTER","ADDRESSCITYZIP":"937 BAREFOOT BLVD SEBASTIAN , FL 32976"}},{"type":"Feature","id":29,"geometry":{"type":"Point","coordinates":[-80.595670500020248,28.144043299079922]},"properties":{"OBJECTID":29,"Name":"BREVARD-INDIAN HARBOUR BEACH REC CENTER","Address":"1233 YACHT CLUB BLVD","City":"INDIAN HARBOUR BEACH","Zip":"32937","COUNTY":"BREVARD","X":-80.595670499999997,"Y":28.1440433,"LONGLAT":"-80.59567050,28.14404330","USNG":"17R NM 39701 13225","OWNERSHIP":null,"PARCELID":null,"FACILITY_TYPE":"DISASTER RECOVERY CENTER","ADDRESSCITYZIP":"1233 YACHT CLUB BLVD INDIAN HARBOUR BEACH , FL 32937"}},{"type":"Feature","id":30,"geometry":{"type":"Point","coordinates":[-80.840259299849151,28.660264399409883]},"properties":{"OBJECTID":30,"Name":"BREVARD-CUYLER PARK CENTER","Address":"2329 HARRY T MOORE AVE","City":"MIMS","Zip":"32754","COUNTY":"BREVARD","X":-80.8402593,"Y":28.660264399999999,"LONGLAT":"-80.84025930,28.66026440","USNG":"17R NM 15609 70357","OWNERSHIP":null,"PARCELID":null,"FACILITY_TYPE":"DISASTER RECOVERY CENTER","ADDRESSCITYZIP":"2329 HARRY T MOORE AVE MIMS , FL 32754"}},{"type":"Feature","id":31,"geometry":{"type":"Point","coordinates":[-80.822224969678771,28.605706542014538]},"properties":{"OBJECTID":31,"Name":"NORTH BREVARD SENIOR CENTER","Address":"909 LANE AVE","City":"TITUSVILLE","Zip":"32780","COUNTY":"BREVARD","X":-80.822224969999994,"Y":28.60570654,"LONGLAT":"-80.82222497,28.60570654","USNG":"17R NM 17380 64315","OWNERSHIP":"COUNTY","PARCELID":"22 350400  502","FACILITY_TYPE":"DISASTER RECOVERY CENTER","ADDRESSCITYZIP":"909 LANE AVE TITUSVILLE , FL 32780"}},{"type":"Feature","id":32,"geometry":{"type":"Point","coordinates":[-80.781274002943164,28.359491617324927]},"properties":{"OBJECTID":32,"Name":"BREVARD COUNTY AGRICULTURE CENTER (FIXED)","Address":"3695 LAKE DR","City":"COCOA","Zip":"32926","COUNTY":"BREVARD","X":-80.781273999999996,"Y":28.35949162,"LONGLAT":"-80.78127400,28.35949162","USNG":"17R NM 21433 37045","OWNERSHIP":"COUNTY","PARCELID":"24 353600  2501","FACILITY_TYPE":"DISASTER RECOVERY CENTER","ADDRESSCITYZIP":"3695 LAKE DR COCOA , FL 32926"}},{"type":"Feature","id":33,"geometry":{"type":"Point","coordinates":[-80.659571390601826,28.030273648958442]},"properties":{"OBJECTID":33,"Name":"GREATER PALM BAY SENIOR CENTER","Address":"1275 CULVER DRIVE NE","City":"PALM BAY","Zip":"32907","COUNTY":"BREVARD","X":-80.659571389999996,"Y":28.030273650000002,"LONGLAT":"-80.65957139,28.03027365","USNG":"17R NM 33462 00602","OWNERSHIP":"COUNTY","PARCELID":"28 371975    A","FACILITY_TYPE":"DISASTER RECOVERY CENTER","ADDRESSCITYZIP":"1275 CULVER DRIVE NE PALM BAY , FL 32907"}},{"type":"Feature","id":34,"geometry":{"type":"Point","coordinates":[-80.501099778673435,27.859333012872654]},"properties":{"OBJECTID":34,"Name":"SOUTH MAINLAND COMMUNITY CENTER","Address":"3700 ALLEN AVE","City":"SEBASTIAN","Zip":"32976","COUNTY":"BREVARD","X":-80.501099780000004,"Y":27.85933301,"LONGLAT":"-80.50109978,27.85933301","USNG":"17R NL 49117 81720","OWNERSHIP":"COUNTY","PARCELID":"30 382300  259","FACILITY_TYPE":"DISASTER RECOVERY CENTER","ADDRESSCITYZIP":"3700 ALLEN AVE SEBASTIAN , FL 32976"}},{"type":"Feature","id":35,"geometry":{"type":"Point","coordinates":[-80.823410999475911,28.61225399936685]},"properties":{"OBJECTID":35,"Name":"NORTH BREVARD SENIOR CENTER","Address":"909 LANE AVENUE","City":"TITUSVILLE","Zip":"32796","COUNTY":"BREVARD","X":-80.823410999999993,"Y":28.612254,"LONGLAT":"-80.82341100,28.61225400","USNG":"17R NM 17263 65040","OWNERSHIP":null,"PARCELID":"22 350407    E   15","FACILITY_TYPE":"DISASTER RECOVERY CENTER","ADDRESSCITYZIP":"909 LANE AVENUE TITUSVILLE , FL 32796"}},{"type":"Feature","id":36,"geometry":{"type":"Point","coordinates":[-80.605278200044893,28.01796099913366]},"properties":{"OBJECTID":36,"Name":"BREVARD-TONY ROSA COMM CENTER","Address":"1502 PORT MALABAR BLVD","City":"NE PALM BAY","Zip":"32905","COUNTY":"BREVARD","X":-80.605278200000001,"Y":28.017961,"LONGLAT":"-80.60527820,28.01796100","USNG":"17R NL 38803 99254","OWNERSHIP":null,"PARCELID":null,"FACILITY_TYPE":"DISASTER RECOVERY CENTER","ADDRESSCITYZIP":"1502 PORT MALABAR BLVD NE PALM BAY , FL 32905"}},{"type":"Feature","id":37,"geometry":{"type":"Point","coordinates":[-80.250140329464585,26.077780942665335]},"properties":{"OBJECTID":37,"Name":"UNIVERSITY PARK PLAZA","Address":"3452 S. UNIVERSITY DR.","City":"FORT LAUDERDALE","Zip":"33328","COUNTY":"BROWARD","X":-80.250140329999994,"Y":26.07778094,"LONGLAT":"-80.25014033,26.07778094","USNG":"17R NJ 74996 84513","OWNERSHIP":null,"PARCELID":"504121130000","FACILITY_TYPE":"DISASTER RECOVERY CENTER","ADDRESSCITYZIP":"3452 S. UNIVERSITY DR. FORT LAUDERDALE , FL 33328"}},{"type":"Feature","id":38,"geometry":{"type":"Point","coordinates":[-80.14794932176936,26.013062731138167]},"properties":{"OBJECTID":38,"Name":"CITY OF HOLLYWOOD: FRED LIPPMAN MULTI-PURPOSE CENTER","Address":"2030 POLK ST","City":"HOLLYWOOD","Zip":"33020","COUNTY":"BROWARD","X":-80.147949319999995,"Y":26.013062730000001,"LONGLAT":"-80.14794932,26.01306273","USNG":"17R NJ 85263 77408","OWNERSHIP":null,"PARCELID":"514215011860","FACILITY_TYPE":"DISASTER RECOVERY CENTER","ADDRESSCITYZIP":"2030 POLK ST HOLLYWOOD , FL 33020"}},{"type":"Feature","id":39,"geometry":{"type":"Point","coordinates":[-80.244086481994017,26.077957418801262]},"properties":{"OBJECTID":39,"Name":"NOVA SOUTHEASTERN UNIVERSITY, MORRIS AUDITORIUM","Address":"3301 COLLEGE AVE","City":"FORT LAUDERDALE","Zip":"33314","COUNTY":"BROWARD","X":-80.244086480000007,"Y":26.077957420000001,"LONGLAT":"-80.24408648,26.07795742","USNG":"17R NJ 75601 84536","OWNERSHIP":null,"PARCELID":"504122060010","FACILITY_TYPE":"DISASTER RECOVERY CENTER","ADDRESSCITYZIP":"3301 COLLEGE AVE FORT LAUDERDALE , FL 33314"}},{"type":"Feature","id":40,"geometry":{"type":"Point","coordinates":[-80.145801999459138,26.120134999376692]},"properties":{"OBJECTID":40,"Name":"OLD CITY HALL ANNEX","Address":"2ND STREET & ANDREWS AVE.","City":"FORT LAUDERDALE","Zip":"33301","COUNTY":"BROWARD","X":-80.145802000000003,"Y":26.120135000000001,"LONGLAT":"-80.14580200,26.12013500","USNG":"17R NJ 85400 89268","OWNERSHIP":null,"PARCELID":"504210010190","FACILITY_TYPE":"DISASTER RECOVERY CENTER","ADDRESSCITYZIP":"2ND STREET & ANDREWS AVE. FORT LAUDERDALE , FL 33301"}},{"type":"Feature","id":41,"geometry":{"type":"Point","coordinates":[-80.236011400352439,26.006845199330428]},"properties":{"OBJECTID":41,"Name":"BROWARD-SOUTH REG LIBRARY","Address":"7300 PINES BLVD","City":"PEMBROKE PINES","Zip":"33024","COUNTY":"BROWARD","X":-80.236011399999995,"Y":26.006845200000001,"LONGLAT":"-80.23601140,26.00684520","USNG":"17R NJ 76455 76665","OWNERSHIP":null,"PARCELID":null,"FACILITY_TYPE":"DISASTER RECOVERY CENTER","ADDRESSCITYZIP":"7300 PINES BLVD PEMBROKE PINES , FL 33024"}},{"type":"Feature","id":42,"geometry":{"type":"Point","coordinates":[-80.19075000014692,25.994890999455095]},"properties":{"OBJECTID":42,"Name":"BROWARD-SOUTH REG FAMILY CENTER","Address":"4733 SW 18TH ST","City":"HOLLYWOOD","Zip":"33023","COUNTY":"BROWARD","X":-80.190749999999994,"Y":25.994890999999999,"LONGLAT":"-80.19075000,25.99489100","USNG":"17R NJ 80993 75368","OWNERSHIP":null,"PARCELID":null,"FACILITY_TYPE":"DISASTER RECOVERY CENTER","ADDRESSCITYZIP":"4733 SW 18TH ST HOLLYWOOD , FL 33023"}},{"type":"Feature","id":43,"geometry":{"type":"Point","coordinates":[-80.09246529995994,26.318752099008584]},"properties":{"OBJECTID":43,"Name":"BROWARD-DEERFIELD LIBRARY","Address":"837 HILLSBOROUGH BLVD","City":"HILLSBOROUGH","Zip":"33441","COUNTY":"BROWARD","X":-80.092465300000001,"Y":26.318752100000001,"LONGLAT":"-80.09246530,26.31875210","USNG":"17R NK 90579 11302","OWNERSHIP":null,"PARCELID":null,"FACILITY_TYPE":"DISASTER RECOVERY CENTER","ADDRESSCITYZIP":"837 HILLSBOROUGH BLVD HILLSBOROUGH , FL 33441"}},{"type":"Feature","id":44,"geometry":{"type":"Point","coordinates":[-80.185986799897861,26.134789599104337]},"properties":{"OBJECTID":44,"Name":"BROWARD-CENTRAL FAMILY CENTER","Address":"900 NW 31ST AVE","City":"FT LAUDERDALE ","Zip":"33311","COUNTY":"BROWARD","X":-80.185986799999995,"Y":26.134789600000001,"LONGLAT":"-80.18598680,26.13478960","USNG":"17R NJ 81373 90865","OWNERSHIP":null,"PARCELID":null,"FACILITY_TYPE":"DISASTER RECOVERY CENTER","ADDRESSCITYZIP":"900 NW 31ST AVE FT LAUDERDALE  , FL 33311"}},{"type":"Feature","id":45,"geometry":{"type":"Point","coordinates":[-80.260860299864703,26.267697699295017]},"properties":{"OBJECTID":45,"Name":"BROWARD-NORTHWEST FAMILY CENTER","Address":"10077 NW 29TH ST","City":"CORAL SPRINGS","Zip":"33065","COUNTY":"BROWARD","X":-80.260860300000004,"Y":26.267697699999999,"LONGLAT":"-80.26086030,26.26769770","USNG":"17R NK 73804 05540","OWNERSHIP":null,"PARCELID":null,"FACILITY_TYPE":"DISASTER RECOVERY CENTER","ADDRESSCITYZIP":"10077 NW 29TH ST CORAL SPRINGS , FL 33065"}},{"type":"Feature","id":46,"geometry":{"type":"Point","coordinates":[-85.130791388275142,30.572164402958304]},"properties":{"OBJECTID":46,"Name":"ALTHA COMMUNITY CENTER","Address":"15552 NW SMITH ST","City":"ALTHA","Zip":"32421","COUNTY":"CALHOUN","X":-85.130791389999999,"Y":30.572164399999998,"LONGLAT":"-85.13079139,30.57216440","USNG":"16R FU 79253 83676","OWNERSHIP":null,"PARCELID":null,"FACILITY_TYPE":"DISASTER RECOVERY CENTER","ADDRESSCITYZIP":"15552 NW SMITH ST ALTHA , FL 32421"}},{"type":"Feature","id":47,"geometry":{"type":"Point","coordinates":[-85.043114121717593,30.45749178990577]},"properties":{"OBJECTID":47,"Name":"W.T. NEAL CIVIC CENTER","Address":"17773 NE PEAR ST","City":"BLOUNTSTOWN","Zip":"32424","COUNTY":"CALHOUN","X":-85.043114119999998,"Y":30.457491789999999,"LONGLAT":"-85.04311412,30.45749179","USNG":"16R FU 87883 71107","OWNERSHIP":"COUNTY","PARCELID":"16-1N-08-0000-0008-0204","FACILITY_TYPE":"DISASTER RECOVERY CENTER","ADDRESSCITYZIP":"17773 NE PEAR ST BLOUNTSTOWN , FL 32424"}},{"type":"Feature","id":48,"geometry":{"type":"Point","coordinates":[-82.293172502398136,26.935217711093717]},"properties":{"OBJECTID":48,"Name":"TRINGALI RECREATION CENTER","Address":"3460 NORTH ACCESS ROAD","City":"ENGLEWOOD","Zip":"34224","COUNTY":"CHARLOTTE","X":-82.293172499999997,"Y":26.93521771,"LONGLAT":"-82.29317250,26.93521771","USNG":"17R LK 71617 79916","OWNERSHIP":"COUNTY","PARCELID":"412003433001","FACILITY_TYPE":"DISASTER RECOVERY CENTER","ADDRESSCITYZIP":"3460 NORTH ACCESS ROAD ENGLEWOOD , FL 34224"}},{"type":"Feature","id":49,"geometry":{"type":"Point","coordinates":[-82.099063250713982,26.992924707241418]},"properties":{"OBJECTID":49,"Name":"CHARLOTTE COUNTY CULTURAL CENTER","Address":"2280 AARON ST","City":"PORT CHARLOTTE","Zip":"33952","COUNTY":"CHARLOTTE","X":-82.09906325,"Y":26.99292471,"LONGLAT":"-82.09906325,26.99292471","USNG":"17R LK 90945 86126","OWNERSHIP":"COUNTY","PARCELID":"402215334001","FACILITY_TYPE":"DISASTER RECOVERY CENTER","ADDRESSCITYZIP":"2280 AARON ST PORT CHARLOTTE , FL 33952"}},{"type":"Feature","id":50,"geometry":{"type":"Point","coordinates":[-82.036872542382653,26.93307533654659]},"properties":{"OBJECTID":50,"Name":"SOUTH COUNTY REGIONAL PARK","Address":"670 COOPER ST","City":"PUNTA GORDA","Zip":"33950","COUNTY":"CHARLOTTE","X":-82.036872540000005,"Y":26.933075339999998,"LONGLAT":"-82.03687254,26.93307534","USNG":"17R LK 97062 79444","OWNERSHIP":"OTHER PUBLIC","PARCELID":"412305376001","FACILITY_TYPE":"DISASTER RECOVERY CENTER","ADDRESSCITYZIP":"670 COOPER ST PUNTA GORDA , FL 33950"}},{"type":"Feature","id":51,"geometry":{"type":"Point","coordinates":[-82.314004849098765,28.807907154432108]},"properties":{"OBJECTID":51,"Name":"CITRUS COUNTY AUDITORIUM","Address":"3610 S FLORIDA AVE","City":"INVERNESS","Zip":"34450","COUNTY":"CITRUS","X":-82.314004850000003,"Y":28.807907159999999,"LONGLAT":"-82.31400485,28.80790716","USNG":"17R LM 71774 87412","OWNERSHIP":"COUNTY","PARCELID":"20E19S28      42300","FACILITY_TYPE":"DISASTER RECOVERY CENTER","ADDRESSCITYZIP":"3610 S FLORIDA AVE INVERNESS , FL 34450"}},{"type":"Feature","id":52,"geometry":{"type":"Point","coordinates":[-82.460266038719539,28.97095654646818]},"properties":{"OBJECTID":52,"Name":"CITRUS SPRINGS COMMUNITY CENTER","Address":"1570 W CITRUS SPRINGS BLVD","City":"DUNNELLON","Zip":"34434","COUNTY":"CITRUS","X":-82.460266039999993,"Y":28.97095655,"LONGLAT":"-82.46026604,28.97095655","USNG":"17R LN 57722 05646","OWNERSHIP":"COUNTY","PARCELID":"18E17S26      70000","FACILITY_TYPE":"DISASTER RECOVERY CENTER","ADDRESSCITYZIP":"1570 W CITRUS SPRINGS BLVD DUNNELLON , FL 34434"}},{"type":"Feature","id":53,"geometry":{"type":"Point","coordinates":[-82.604723640330491,28.910941118093806]},"properties":{"OBJECTID":53,"Name":"CRYSTAL RIVER MALL PARKING LOT","Address":"1801 NW US HWY 19","City":"CRYSTAL RIVER","Zip":"34428","COUNTY":"CITRUS","X":-82.604723640000003,"Y":28.91094112,"LONGLAT":"-82.60472364,28.91094112","USNG":"17R LM 43555 99178","OWNERSHIP":null,"PARCELID":"17E18S170300        001A","FACILITY_TYPE":"DISASTER RECOVERY CENTER","ADDRESSCITYZIP":"1801 NW US HWY 19 CRYSTAL RIVER , FL 34428"}},{"type":"Feature","id":54,"geometry":{"type":"Point","coordinates":[-82.539706688908581,28.883828064226996]},"properties":{"OBJECTID":54,"Name":"WEST CITRUS GOVERNMENT CENTER","Address":"1540 N MEADOW CREST BLVD","City":"CRYSTAL RIVER","Zip":"32628","COUNTY":"CITRUS","X":-82.539706690000003,"Y":28.88382807,"LONGLAT":"-82.53970669,28.88382807","USNG":"17R LM 49855 96089","OWNERSHIP":null,"PARCELID":null,"FACILITY_TYPE":"DISASTER RECOVERY CENTER","ADDRESSCITYZIP":"1540 N MEADOW CREST BLVD CRYSTAL RIVER , FL 32628"}},{"type":"Feature","id":55,"geometry":{"type":"Point","coordinates":[-82.029969594918683,29.781508959317669]},"properties":{"OBJECTID":55,"Name":"KEYSTONE HEIGHTS LIBRARY","Address":"175 ORIOLE ST","City":"KEYSTONE HEIGHTS","Zip":"32656","COUNTY":"CLAY","X":-82.029969589999993,"Y":29.78150896,"LONGLAT":"-82.02996959,29.78150896","USNG":"17R MN 00442 95019","OWNERSHIP":null,"PARCELID":null,"FACILITY_TYPE":"DISASTER RECOVERY CENTER","ADDRESSCITYZIP":"175 ORIOLE ST KEYSTONE HEIGHTS , FL 32656"}},{"type":"Feature","id":56,"geometry":{"type":"Point","coordinates":[-81.679405667599866,29.991411421965179]},"properties":{"OBJECTID":56,"Name":"GREEN COVE SPRINGS LIBRARY","Address":"403 FERRIS ST","City":"GREEN COVE SPRINGS","Zip":"32043","COUNTY":"CLAY","X":-81.679405669999994,"Y":29.991411419999999,"LONGLAT":"-81.67940567,29.99141142","USNG":"17R MP 34466 18027","OWNERSHIP":null,"PARCELID":null,"FACILITY_TYPE":"DISASTER RECOVERY CENTER","ADDRESSCITYZIP":"403 FERRIS ST GREEN COVE SPRINGS , FL 32043"}},{"type":"Feature","id":57,"geometry":{"type":"Point","coordinates":[-82.029969594918683,29.781508959317669]},"properties":{"OBJECTID":57,"Name":"KEYSTONE HEIGHTS LIBRARY","Address":"175 ORIOLE ST","City":"KEYSTONE HEIGHTS","Zip":"32656","COUNTY":"CLAY","X":-82.029969589999993,"Y":29.78150896,"LONGLAT":"-82.02996959,29.78150896","USNG":"17R MN 00442 95019","OWNERSHIP":null,"PARCELID":null,"FACILITY_TYPE":"DISASTER RECOVERY CENTER","ADDRESSCITYZIP":"175 ORIOLE ST KEYSTONE HEIGHTS , FL 32656"}},{"type":"Feature","id":58,"geometry":{"type":"Point","coordinates":[-81.679405667599866,29.991411421965179]},"properties":{"OBJECTID":58,"Name":"GREEN COVE SPRINGS LIBRARY","Address":"403 FERRIS ST","City":"GREEN COVE SPRINGS","Zip":"32043","COUNTY":"CLAY","X":-81.679405669999994,"Y":29.991411419999999,"LONGLAT":"-81.67940567,29.99141142","USNG":"17R MP 34466 18027","OWNERSHIP":null,"PARCELID":null,"FACILITY_TYPE":"DISASTER RECOVERY CENTER","ADDRESSCITYZIP":"403 FERRIS ST GREEN COVE SPRINGS , FL 32043"}},{"type":"Feature","id":59,"geometry":{"type":"Point","coordinates":[-81.7069080749541,30.164435764420542]},"properties":{"OBJECTID":59,"Name":"ORANGE PARK LIBRARY","Address":"2054 PLAINFIELD AVE","City":"ORANGE PARK","Zip":"32073","COUNTY":"CLAY","X":-81.706908069999997,"Y":30.164435770000001,"LONGLAT":"-81.70690807,30.16443577","USNG":"17R MP 31932 37217","OWNERSHIP":null,"PARCELID":null,"FACILITY_TYPE":"DISASTER RECOVERY CENTER","ADDRESSCITYZIP":"2054 PLAINFIELD AVE ORANGE PARK , FL 32073"}},{"type":"Feature","id":60,"geometry":{"type":"Point","coordinates":[-81.7069080749541,30.164435764420542]},"properties":{"OBJECTID":60,"Name":"ORANGE PARK LIBRARY","Address":"2054 PLAINFIELD AVE","City":"ORANGE PARK","Zip":"32073","COUNTY":"CLAY","X":-81.706908069999997,"Y":30.164435770000001,"LONGLAT":"-81.70690807,30.16443577","USNG":"17R MP 31932 37217","OWNERSHIP":null,"PARCELID":null,"FACILITY_TYPE":"DISASTER RECOVERY CENTER","ADDRESSCITYZIP":"2054 PLAINFIELD AVE ORANGE PARK , FL 32073"}},{"type":"Feature","id":61,"geometry":{"type":"Point","coordinates":[-81.679405667599866,29.991411421965179]},"properties":{"OBJECTID":61,"Name":"GREEN COVE SPRINGS LIBRARY","Address":"403 FERRIS ST","City":"GREEN COVE SPRINGS","Zip":"32043","COUNTY":"CLAY","X":-81.679405669999994,"Y":29.991411419999999,"LONGLAT":"-81.67940567,29.99141142","USNG":"17R MP 34466 18027","OWNERSHIP":null,"PARCELID":null,"FACILITY_TYPE":"DISASTER RECOVERY CENTER","ADDRESSCITYZIP":"403 FERRIS ST GREEN COVE SPRINGS , FL 32043"}},{"type":"Feature","id":62,"geometry":{"type":"Point","coordinates":[-81.7069080749541,30.164435764420542]},"properties":{"OBJECTID":62,"Name":"ORANGE PARK LIBRARY","Address":"2054 PLAINFIELD AVE","City":"ORANGE PARK","Zip":"32073","COUNTY":"CLAY","X":-81.706908069999997,"Y":30.164435770000001,"LONGLAT":"-81.70690807,30.16443577","USNG":"17R MP 31932 37217","OWNERSHIP":null,"PARCELID":null,"FACILITY_TYPE":"DISASTER RECOVERY CENTER","ADDRESSCITYZIP":"2054 PLAINFIELD AVE ORANGE PARK , FL 32073"}},{"type":"Feature","id":63,"geometry":{"type":"Point","coordinates":[-81.862420507058474,30.071002942336413]},"properties":{"OBJECTID":63,"Name":"MIDDLEBURG CIVIC ASSOCIATION","Address":"2012 PALMETTO ST","City":"MIDDLEBURG","Zip":"32068","COUNTY":"CLAY","X":-81.862420510000007,"Y":30.07100294,"LONGLAT":"-81.86242051,30.07100294","USNG":"17R MP 16879 26966","OWNERSHIP":null,"PARCELID":null,"FACILITY_TYPE":"DISASTER RECOVERY CENTER","ADDRESSCITYZIP":"2012 PALMETTO ST MIDDLEBURG , FL 32068"}},{"type":"Feature","id":64,"geometry":{"type":"Point","coordinates":[-82.029969594918683,29.781508959317669]},"properties":{"OBJECTID":64,"Name":"KEYSTONE HEIGHTS LIBRARY","Address":"175 ORIOLE ST","City":"KEYSTONE HEIGHTS","Zip":"32656","COUNTY":"CLAY","X":-82.029969589999993,"Y":29.78150896,"LONGLAT":"-82.02996959,29.78150896","USNG":"17R MN 00442 95019","OWNERSHIP":null,"PARCELID":null,"FACILITY_TYPE":"DISASTER RECOVERY CENTER","ADDRESSCITYZIP":"175 ORIOLE ST KEYSTONE HEIGHTS , FL 32656"}},{"type":"Feature","id":65,"geometry":{"type":"Point","coordinates":[-82.028744097157997,29.786000929144297]},"properties":{"OBJECTID":65,"Name":"WILLIAM BEAM SENIOR CENTER","Address":"100 COMMERCIAL CIR","City":"KEYSTONE HEIGHTS","Zip":"32656","COUNTY":"CLAY","X":-82.028744099999997,"Y":29.78600093,"LONGLAT":"-82.02874410,29.78600093","USNG":"17R MN 00565 95516","OWNERSHIP":null,"PARCELID":"20-08-23-002170-001-14","FACILITY_TYPE":"DISASTER RECOVERY CENTER","ADDRESSCITYZIP":"100 COMMERCIAL CIR KEYSTONE HEIGHTS , FL 32656"}},{"type":"Feature","id":66,"geometry":{"type":"Point","coordinates":[-81.881259829191961,30.062508190481299]},"properties":{"OBJECTID":66,"Name":"MIDDLEBURG CLAY-HILL LIBRARY","Address":"2245 ASTER AVE","City":"MIDDLEBURG","Zip":"32068","COUNTY":"CLAY","X":-81.881259830000005,"Y":30.062508189999999,"LONGLAT":"-81.88125983,30.06250819","USNG":"17R MP 15056 26039","OWNERSHIP":"COUNTY","PARCELID":"09-05-24-005953-840-00","FACILITY_TYPE":"DISASTER RECOVERY CENTER","ADDRESSCITYZIP":"2245 ASTER AVE MIDDLEBURG , FL 32068"}},{"type":"Feature","id":67,"geometry":{"type":"Point","coordinates":[-81.703609829576706,30.163861391915855]},"properties":{"OBJECTID":67,"Name":"ORANGE PARK SENIOR CENTER","Address":"414 STOWE AVE","City":"ORANGE PARK","Zip":"32073","COUNTY":"CLAY","X":-81.703609830000005,"Y":30.163861390000001,"LONGLAT":"-81.70360983,30.16386139","USNG":"17R MP 32249 37151","OWNERSHIP":"COUNTY","PARCELID":"41-04-26-018923-000-00","FACILITY_TYPE":"DISASTER RECOVERY CENTER","ADDRESSCITYZIP":"414 STOWE AVE ORANGE PARK , FL 32073"}},{"type":"Feature","id":68,"geometry":{"type":"Point","coordinates":[-81.710564928004047,30.092729281859242]},"properties":{"OBJECTID":68,"Name":"FLEMING ISLAND LIBRARY","Address":"1895 TOWN CENTER BLVD","City":"ORANGE PARK","Zip":"32003","COUNTY":"CLAY","X":-81.710564930000004,"Y":30.09272928,"LONGLAT":"-81.71056493,30.09272928","USNG":"17R MP 31530 29273","OWNERSHIP":"COUNTY","PARCELID":"05-05-26-014190-000-01","FACILITY_TYPE":"DISASTER RECOVERY CENTER","ADDRESSCITYZIP":"1895 TOWN CENTER BLVD ORANGE PARK , FL 32003"}},{"type":"Feature","id":69,"geometry":{"type":"Point","coordinates":[-81.881259829191961,30.062508190481299]},"properties":{"OBJECTID":69,"Name":"MIDDLEBURG CLAY-HILL LIBRARY","Address":"2245 ASTER AVE","City":"MIDDLEBURG","Zip":"32068","COUNTY":"CLAY","X":-81.881259830000005,"Y":30.062508189999999,"LONGLAT":"-81.88125983,30.06250819","USNG":"17R MP 15056 26039","OWNERSHIP":"COUNTY","PARCELID":"09-05-24-005953-840-00","FACILITY_TYPE":"DISASTER RECOVERY CENTER","ADDRESSCITYZIP":"2245 ASTER AVE MIDDLEBURG , FL 32068"}},{"type":"Feature","id":70,"geometry":{"type":"Point","coordinates":[-81.68164921038202,29.993194607342566]},"properties":{"OBJECTID":70,"Name":"CLAY COUNTY SENIOR CENTER","Address":"604 WALNUT ST","City":"GREEN COVE SPRINGS","Zip":"32043","COUNTY":"CLAY","X":-81.681649210000003,"Y":29.99319461,"LONGLAT":"-81.68164921,29.99319461","USNG":"17R MP 34251 18226","OWNERSHIP":"COUNTY","PARCELID":"38-06-26-017342-000-00","FACILITY_TYPE":"DISASTER RECOVERY CENTER","ADDRESSCITYZIP":"604 WALNUT ST GREEN COVE SPRINGS , FL 32043"}},{"type":"Feature","id":71,"geometry":{"type":"Point","coordinates":[-81.863021957205163,30.070912272964382]},"properties":{"OBJECTID":71,"Name":"WEIGEL SENIOR CENTER","Address":"3916 SECTION ST","City":"MIDDLEBURG","Zip":"32068","COUNTY":"CLAY","X":-81.863021959999998,"Y":30.070912270000001,"LONGLAT":"-81.86302196,30.07091227","USNG":"17R MP 16821 26956","OWNERSHIP":"COUNTY","PARCELID":"11-05-24-006102-000-00","FACILITY_TYPE":"DISASTER RECOVERY CENTER","ADDRESSCITYZIP":"3916 SECTION ST MIDDLEBURG , FL 32068"}},{"type":"Feature","id":72,"geometry":{"type":"Point","coordinates":[-81.881259829191961,30.062508190481299]},"properties":{"OBJECTID":72,"Name":"MIDDLEBURG CLAY-HILL LIBRARY","Address":"2245 ASTER AVE","City":"MIDDLEBURG","Zip":"32068","COUNTY":"CLAY","X":-81.881259830000005,"Y":30.062508189999999,"LONGLAT":"-81.88125983,30.06250819","USNG":"17R MP 15056 26039","OWNERSHIP":"COUNTY","PARCELID":"09-05-24-005953-840-00","FACILITY_TYPE":"DISASTER RECOVERY CENTER","ADDRESSCITYZIP":"2245 ASTER AVE MIDDLEBURG , FL 32068"}},{"type":"Feature","id":73,"geometry":{"type":"Point","coordinates":[-81.420657114604097,26.406883432701299]},"properties":{"OBJECTID":73,"Name":"IMMOKALEE CAREER & SERVICE CENTER OF COLLIER COUNTY","Address":"750 5TH ST","City":"IMMOKALEE","Zip":"34142","COUNTY":"COLLIER","X":-81.420657109999993,"Y":26.406883430000001,"LONGLAT":"-81.42065711,26.40688343","USNG":"17R MK 58047 20813","OWNERSHIP":"COUNTY","PARCELID":" ","FACILITY_TYPE":"DISASTER RECOVERY CENTER","ADDRESSCITYZIP":"750 5TH ST IMMOKALEE , FL 34142"}},{"type":"Feature","id":74,"geometry":{"type":"Point","coordinates":[-81.799026999876034,26.148232998985772]},"properties":{"OBJECTID":74,"Name":"NAPLES LIBRARY","Address":"650 CENTRAL AVENUE","City":"NAPLES","Zip":"34102","COUNTY":"COLLIER","X":-81.799026999999995,"Y":26.148233000000001,"LONGLAT":"-81.79902700,26.14823300","USNG":"17R MJ 20134 92345","OWNERSHIP":null,"PARCELID":"14038560003","FACILITY_TYPE":"DISASTER RECOVERY CENTER","ADDRESSCITYZIP":"650 CENTRAL AVENUE NAPLES , FL 34102"}},{"type":"Feature","id":75,"geometry":{"type":"Point","coordinates":[-81.384202036857886,25.858981994554433]},"properties":{"OBJECTID":75,"Name":"EVERGLADES CITY COMMUNITY CENTER","Address":"201 BUCKNER AVENUE N","City":"OCHOPEE","Zip":"34141","COUNTY":"COLLIER","X":-81.384202040000005,"Y":25.858982000000001,"LONGLAT":"-81.38420204,25.85898200","USNG":"17R MJ 61503 60123","OWNERSHIP":"COUNTY","PARCELID":" ","FACILITY_TYPE":"DISASTER RECOVERY CENTER","ADDRESSCITYZIP":"201 BUCKNER AVENUE N OCHOPEE , FL 34141"}},{"type":"Feature","id":76,"geometry":{"type":"Point","coordinates":[-81.64490699990678,25.925198999433302]},"properties":{"OBJECTID":76,"Name":"COLLIER-GOODLAND/MARGOOD","Address":" ","City":" ","Zip":" ","COUNTY":"COLLIER","X":-81.644907000000003,"Y":25.925198999999999,"LONGLAT":"-81.64490700,25.92519900","USNG":"17R MJ 35417 67559","OWNERSHIP":null,"PARCELID":null,"FACILITY_TYPE":"DISASTER RECOVERY CENTER","ADDRESSCITYZIP":"    , FL  "}},{"type":"Feature","id":77,"geometry":{"type":"Point","coordinates":[-81.420540999910131,26.418969099313156]},"properties":{"OBJECTID":77,"Name":"COLLIER-CIVIC CENTER","Address":" ","City":" ","Zip":" ","COUNTY":"COLLIER","X":-81.420541,"Y":26.418969100000002,"LONGLAT":"-81.42054100,26.41896910","USNG":"17R MK 58063 22151","OWNERSHIP":null,"PARCELID":null,"FACILITY_TYPE":"DISASTER RECOVERY CENTER","ADDRESSCITYZIP":"    , FL  "}},{"type":"Feature","id":78,"geometry":{"type":"Point","coordinates":[-81.384219899972422,25.858575199503253]},"properties":{"OBJECTID":78,"Name":"COLLIER-EVERGLADES CITY FS#60","Address":" ","City":" ","Zip":" ","COUNTY":"COLLIER","X":-81.384219900000005,"Y":25.858575200000001,"LONGLAT":"-81.38421990,25.85857520","USNG":"17R MJ 61502 60078","OWNERSHIP":null,"PARCELID":null,"FACILITY_TYPE":"DISASTER RECOVERY CENTER","ADDRESSCITYZIP":"    , FL  "}},{"type":"Feature","id":79,"geometry":{"type":"Point","coordinates":[-82.672069102428338,30.176242510239916]},"properties":{"OBJECTID":79,"Name":"COLUMBIA COUNTY FAIRGROUNDS","Address":"438 SW STATE ROAD 247","City":"LAKE CITY","Zip":"32025","COUNTY":"COLUMBIA","X":-82.672069100000002,"Y":30.176242510000002,"LONGLAT":"-82.67206910,30.17624251","USNG":"17R LP 39007 39495","OWNERSHIP":null,"PARCELID":"30-4S-16-03238-002","FACILITY_TYPE":"DISASTER RECOVERY CENTER","ADDRESSCITYZIP":"438 SW STATE ROAD 247 LAKE CITY , FL 32025"}},{"type":"Feature","id":80,"geometry":{"type":"Point","coordinates":[-82.668231930269044,30.180325922834257]},"properties":{"OBJECTID":80,"Name":"K-MART/FOOD LION PLAZA","Address":"2205 W. US HWY. 90","City":"LAKE CITY","Zip":"32055","COUNTY":"COLUMBIA","X":-82.668231930000005,"Y":30.180325920000001,"LONGLAT":"-82.66823193,30.18032592","USNG":"17R LP 39383 39942","OWNERSHIP":null,"PARCELID":null,"FACILITY_TYPE":"DISASTER RECOVERY CENTER","ADDRESSCITYZIP":"2205 W. US HWY. 90 LAKE CITY , FL 32055"}},{"type":"Feature","id":81,"geometry":{"type":"Point","coordinates":[-82.684648139881006,30.174902525158139]},"properties":{"OBJECTID":81,"Name":"WEST FIELD SHOPPING CENTER","Address":"484 SW COMMERCE DR","City":"LAKE CITY","Zip":"32025","COUNTY":"COLUMBIA","X":-82.684648139999993,"Y":30.174902530000001,"LONGLAT":"-82.68464814,30.17490253","USNG":"17R LP 37793 39365","OWNERSHIP":null,"PARCELID":"02-4S-16-02714-011","FACILITY_TYPE":"DISASTER RECOVERY CENTER","ADDRESSCITYZIP":"484 SW COMMERCE DR LAKE CITY , FL 32025"}},{"type":"Feature","id":82,"geometry":{"type":"Point","coordinates":[-82.713127972641516,29.933890468718186]},"properties":{"OBJECTID":82,"Name":"FORT WHITE COMMUNITY CENTER","Address":"17575 SW STATE ROAD 47","City":"LAKE CITY","Zip":"32024","COUNTY":"COLUMBIA","X":-82.713127970000002,"Y":29.933890470000001,"LONGLAT":"-82.71312797,29.93389047","USNG":"17R LP 34650 12693","OWNERSHIP":"COUNTY","PARCELID":"34-6S-16-04063-001","FACILITY_TYPE":"DISASTER RECOVERY CENTER","ADDRESSCITYZIP":"17575 SW STATE ROAD 47 LAKE CITY , FL 32024"}},{"type":"Feature","id":83,"geometry":{"type":"Point","coordinates":[-81.862768186742386,27.220429838795056]},"properties":{"OBJECTID":83,"Name":"DESOTO COUNTY FAMILY SERVICE CENTER","Address":"310 W WHIDDEN ST","City":"ARCADIA","Zip":"34266","COUNTY":"DESOTO","X":-81.862768189999997,"Y":27.220429840000001,"LONGLAT":"-81.86276819,27.22042984","USNG":"17R ML 14565 11144","OWNERSHIP":"COUNTY","PARCELID":"25-37-24-0106-0000-0010","FACILITY_TYPE":"DISASTER RECOVERY CENTER","ADDRESSCITYZIP":"310 W WHIDDEN ST ARCADIA , FL 34266"}},{"type":"Feature","id":84,"geometry":{"type":"Point","coordinates":[-81.861023862555783,27.206928550532758]},"properties":{"OBJECTID":84,"Name":"DESOTO CO.FAIRGROUNDS WAREHOUSE","Address":"120 HEARD ST.","City":"ARCADIA","Zip":"34266","COUNTY":"DESOTO","X":-81.861023860000003,"Y":27.206928550000001,"LONGLAT":"-81.86102386,27.20692855","USNG":"17R ML 14728 09647","OWNERSHIP":null,"PARCELID":"36-37-24-0014-00C0-0170","FACILITY_TYPE":"DISASTER RECOVERY CENTER","ADDRESSCITYZIP":"120 HEARD ST. ARCADIA , FL 34266"}},{"type":"Feature","id":85,"geometry":{"type":"Point","coordinates":[-81.473277899941394,30.289038999312787]},"properties":{"OBJECTID":85,"Name":"DUVAL-PABLO CREEK LIBRARY","Address":"13295 BEACH BLVD","City":"JACKSONVILLE","Zip":"32246","COUNTY":"DUVAL","X":-81.473277899999999,"Y":30.289038999999999,"LONGLAT":"-81.47327790,30.28903900","USNG":"17R MP 54486 50908","OWNERSHIP":null,"PARCELID":null,"FACILITY_TYPE":"DISASTER RECOVERY CENTER","ADDRESSCITYZIP":"13295 BEACH BLVD JACKSONVILLE , FL 32246"}},{"type":"Feature","id":86,"geometry":{"type":"Point","coordinates":[-81.65841450014365,30.328963199004793]},"properties":{"OBJECTID":86,"Name":"DUVAL-BIBLIOTECA","Address":"303 N LAURA ST","City":"JACKSONVILLE ","Zip":"32202","COUNTY":"DUVAL","X":-81.658414500000006,"Y":30.3289632,"LONGLAT":"-81.65841450,30.32896320","USNG":"17R MP 36707 55421","OWNERSHIP":null,"PARCELID":null,"FACILITY_TYPE":"DISASTER RECOVERY CENTER","ADDRESSCITYZIP":"303 N LAURA ST JACKSONVILLE  , FL 32202"}},{"type":"Feature","id":87,"geometry":{"type":"Point","coordinates":[-81.672555587371576,30.327692000107316]},"properties":{"OBJECTID":87,"Name":"PRIME F. OSBORN III CONVENTION CENTER","Address":"1000 WATER ST","City":"JACKSONVILLE","Zip":"32204","COUNTY":"DUVAL","X":-81.672555590000002,"Y":30.327691999999999,"LONGLAT":"-81.67255559,30.32769200","USNG":"17R MP 35347 55288","OWNERSHIP":null,"PARCELID":null,"FACILITY_TYPE":"DISASTER RECOVERY CENTER","ADDRESSCITYZIP":"1000 WATER ST JACKSONVILLE , FL 32204"}},{"type":"Feature","id":88,"geometry":{"type":"Point","coordinates":[-81.654100799828853,30.30914459929885]},"properties":{"OBJECTID":88,"Name":"DUVAL-SAN MARCO LIBRARY","Address":"1513 LASALLE ST","City":"JACKSONVILLE","Zip":"32207","COUNTY":"DUVAL","X":-81.654100799999995,"Y":30.3091446,"LONGLAT":"-81.65410080,30.30914460","USNG":"17R MP 37109 53223","OWNERSHIP":null,"PARCELID":null,"FACILITY_TYPE":"DISASTER RECOVERY CENTER","ADDRESSCITYZIP":"1513 LASALLE ST JACKSONVILLE , FL 32207"}},{"type":"Feature","id":89,"geometry":{"type":"Point","coordinates":[-81.676020199835946,30.434268299076507]},"properties":{"OBJECTID":89,"Name":"DUVAL-HIGHLANDS REG LIBRARY","Address":"1826 DUNN AVE","City":"JACKSONVILLE","Zip":"32218","COUNTY":"DUVAL","X":-81.676020199999996,"Y":30.434268299999999,"LONGLAT":"-81.67602020,30.43426830","USNG":"17R MP 35084 67101","OWNERSHIP":null,"PARCELID":null,"FACILITY_TYPE":"DISASTER RECOVERY CENTER","ADDRESSCITYZIP":"1826 DUNN AVE JACKSONVILLE , FL 32218"}},{"type":"Feature","id":90,"geometry":{"type":"Point","coordinates":[-81.759422912251466,30.269242362037048]},"properties":{"OBJECTID":90,"Name":"MARY LENA GIBBS GYMNASIUM AND CENTER (PRIMARY)","Address":"6974 WILSON BLVD","City":"JACKSONVILLE","Zip":"32210","COUNTY":"DUVAL","X":-81.759422909999998,"Y":30.26924236,"LONGLAT":"-81.75942291,30.26924236","USNG":"17R MP 26952 48864","OWNERSHIP":"COUNTY","PARCELID":"0122230000R","FACILITY_TYPE":"DISASTER RECOVERY CENTER","ADDRESSCITYZIP":"6974 WILSON BLVD JACKSONVILLE , FL 32210"}},{"type":"Feature","id":91,"geometry":{"type":"Point","coordinates":[-81.646836441188626,30.33660345079743]},"properties":{"OBJECTID":91,"Name":"ROBERT F. KENNEDY COMMUNITY CENTER","Address":"1133 IONIA ST","City":"JACKSONVILLE","Zip":"32206","COUNTY":"DUVAL","X":-81.646836440000001,"Y":30.336603449999998,"LONGLAT":"-81.64683644,30.33660345","USNG":"17R MP 37825 56261","OWNERSHIP":"COUNTY","PARCELID":"0726790000R","FACILITY_TYPE":"DISASTER RECOVERY CENTER","ADDRESSCITYZIP":"1133 IONIA ST JACKSONVILLE , FL 32206"}},{"type":"Feature","id":92,"geometry":{"type":"Point","coordinates":[-81.616338849757511,30.176774806669794]},"properties":{"OBJECTID":92,"Name":"BURNETT CENTER AND PLAYGROUND (PRIMARY)","Address":"3740 BURNETT PARK RD","City":"JACKSONVILLE","Zip":"32257","COUNTY":"DUVAL","X":-81.616338850000005,"Y":30.176774810000001,"LONGLAT":"-81.61633885,30.17677481","USNG":"17R MP 40660 38534","OWNERSHIP":"COUNTY","PARCELID":"1557410000R","FACILITY_TYPE":"DISASTER RECOVERY CENTER","ADDRESSCITYZIP":"3740 BURNETT PARK RD JACKSONVILLE , FL 32257"}},{"type":"Feature","id":93,"geometry":{"type":"Point","coordinates":[-81.67086845499027,30.344849975491702]},"properties":{"OBJECTID":93,"Name":"EMMETT REED GYMNASIUM AND RECREATION COMPLEX (PRIMARY)","Address":"1093 W 6TH ST","City":"JACKSONVILLE","Zip":"32209","COUNTY":"DUVAL","X":-81.67086845,"Y":30.344849979999999,"LONGLAT":"-81.67086845,30.34484998","USNG":"17R MP 35520 57189","OWNERSHIP":"COUNTY","PARCELID":"0528840000R","FACILITY_TYPE":"DISASTER RECOVERY CENTER","ADDRESSCITYZIP":"1093 W 6TH ST JACKSONVILLE , FL 32209"}},{"type":"Feature","id":94,"geometry":{"type":"Point","coordinates":[-81.702148922400397,30.355641576597488]},"properties":{"OBJECTID":94,"Name":"JOHNNY WALKER COMMUNITY CENTER","Address":"2500 W  20TH ST","City":"JACKSONVILLE","Zip":"32209","COUNTY":"DUVAL","X":-81.702148919999999,"Y":30.35564158,"LONGLAT":"-81.70214892,30.35564158","USNG":"17R MP 32521 58403","OWNERSHIP":"COUNTY","PARCELID":"0479650005R","FACILITY_TYPE":"DISASTER RECOVERY CENTER","ADDRESSCITYZIP":"2500 W  20TH ST JACKSONVILLE , FL 32209"}},{"type":"Feature","id":95,"geometry":{"type":"Point","coordinates":[-81.398128488189656,30.319674315428919]},"properties":{"OBJECTID":95,"Name":"BEACHES BRANCH LIBRARY (PRIMARY)","Address":"600 3RD ST S","City":"NEPTUNE BEACH","Zip":"32266","COUNTY":"DUVAL","X":-81.398128490000005,"Y":30.319674320000001,"LONGLAT":"-81.39812849,30.31967432","USNG":"17R MP 61724 54275","OWNERSHIP":"COUNTY","PARCELID":"1729120200R","FACILITY_TYPE":"DISASTER RECOVERY CENTER","ADDRESSCITYZIP":"600 3RD ST S NEPTUNE BEACH , FL 32266"}},{"type":"Feature","id":96,"geometry":{"type":"Point","coordinates":[-81.686306699862328,30.387237898882177]},"properties":{"OBJECTID":96,"Name":"DUVAL-BRADHAM BROOKS LIBRARY","Address":"1755 EDGEWOOD AVE W ","City":"JACKSONVILLE","Zip":"32208","COUNTY":"DUVAL","X":-81.686306700000003,"Y":30.387237899999999,"LONGLAT":"-81.68630670,30.38723790","USNG":"17R MP 34065 61895","OWNERSHIP":null,"PARCELID":null,"FACILITY_TYPE":"DISASTER RECOVERY CENTER","ADDRESSCITYZIP":"1755 EDGEWOOD AVE W  JACKSONVILLE , FL 32208"}},{"type":"Feature","id":97,"geometry":{"type":"Point","coordinates":[-81.632102696794476,30.461066289750967]},"properties":{"OBJECTID":97,"Name":"OCEANWAY CENTER AND PLAYGROUND (SECONDARY)","Address":"12215 SAGO AVE","City":"JACKSONVILLE","Zip":"32218","COUNTY":"DUVAL","X":-81.632102700000004,"Y":30.461066290000002,"LONGLAT":"-81.63210270,30.46106629","USNG":"17R MP 39318 70046","OWNERSHIP":null,"PARCELID":"1068600010R","FACILITY_TYPE":"DISASTER RECOVERY CENTER","ADDRESSCITYZIP":"12215 SAGO AVE JACKSONVILLE , FL 32218"}},{"type":"Feature","id":98,"geometry":{"type":"Point","coordinates":[-87.274931512053413,30.418714364276681]},"properties":{"OBJECTID":98,"Name":"BUSINESS PROPERTY","Address":"604 NORTH WARRINGTON ROAD","City":"PENSACOLA","Zip":"32506","COUNTY":"ESCAMBIA","X":-87.274931510000002,"Y":30.41871437,"LONGLAT":"-87.27493151,30.41871437","USNG":"16R DU 73595 65215","OWNERSHIP":null,"PARCELID":"342S300181001005","FACILITY_TYPE":"DISASTER RECOVERY CENTER","ADDRESSCITYZIP":"604 NORTH WARRINGTON ROAD PENSACOLA , FL 32506"}},{"type":"Feature","id":99,"geometry":{"type":"Point","coordinates":[-87.262790150294165,30.974439728702546]},"properties":{"OBJECTID":99,"Name":"BUSINESS PROPERTY","Address":"7850 NORTH CENTURY BOULEVARD","City":"CENTURY","Zip":"32535","COUNTY":"ESCAMBIA","X":-87.262790150000001,"Y":30.97443973,"LONGLAT":"-87.26279015,30.97443973","USNG":"16R DV 74905 26798","OWNERSHIP":null,"PARCELID":"055N303139002011","FACILITY_TYPE":"DISASTER RECOVERY CENTER","ADDRESSCITYZIP":"7850 NORTH CENTURY BOULEVARD CENTURY , FL 32535"}},{"type":"Feature","id":100,"geometry":{"type":"Point","coordinates":[-87.23850321302524,30.44750815167945]},"properties":{"OBJECTID":100,"Name":"TOWN & COUNTRY SHOPPING CENTER","Address":"3300 NORTH PACE BOULEVARD","City":"PENSACOLA","Zip":"32505","COUNTY":"ESCAMBIA","X":-87.238503210000005,"Y":30.447508150000001,"LONGLAT":"-87.23850321,30.44750815","USNG":"16R DU 77100 68398","OWNERSHIP":null,"PARCELID":"092S301100000211","FACILITY_TYPE":"DISASTER RECOVERY CENTER","ADDRESSCITYZIP":"3300 NORTH PACE BOULEVARD PENSACOLA , FL 32505"}},{"type":"Feature","id":101,"geometry":{"type":"Point","coordinates":[-87.306958899872555,30.461602476611002]},"properties":{"OBJECTID":101,"Name":"BUSINESS PROPERTY","Address":"4618 SAUFLEY FIELD ROAD","City":"PENSACOLA","Zip":"32526","COUNTY":"ESCAMBIA","X":-87.306958899999998,"Y":30.46160248,"LONGLAT":"-87.30695890,30.46160248","USNG":"16R DU 70532 69976","OWNERSHIP":null,"PARCELID":"391S314309000000","FACILITY_TYPE":"DISASTER RECOVERY CENTER","ADDRESSCITYZIP":"4618 SAUFLEY FIELD ROAD PENSACOLA , FL 32526"}},{"type":"Feature","id":102,"geometry":{"type":"Point","coordinates":[-87.336727086637467,30.715886870439359]},"properties":{"OBJECTID":102,"Name":"OLD MOLINO ELEMENTARY SCHOOL (COUNTY)","Address":"6450 HIGHWAY 95A N","City":"MOLINO","Zip":"32577","COUNTY":"ESCAMBIA","X":-87.336727089999997,"Y":30.715886869999999,"LONGLAT":"-87.33672709,30.71588687","USNG":"16R DU 67758 98164","OWNERSHIP":"COUNTY","PARCELID":"032N313000002001","FACILITY_TYPE":"DISASTER RECOVERY CENTER","ADDRESSCITYZIP":"6450 HIGHWAY 95A N MOLINO , FL 32577"}},{"type":"Feature","id":103,"geometry":{"type":"Point","coordinates":[-87.479600584765805,30.90166381693399]},"properties":{"OBJECTID":103,"Name":"WALNUT HILL COMMUNITY CENTER","Address":"7850 HIGHWAY 97","City":"MC DAVID","Zip":"32568","COUNTY":"ESCAMBIA","X":-87.479600579999996,"Y":30.90166382,"LONGLAT":"-87.47960058,30.90166382","USNG":"16R DV 54167 18802","OWNERSHIP":"COUNTY","PARCELID":"384N321000000000","FACILITY_TYPE":"DISASTER RECOVERY CENTER","ADDRESSCITYZIP":"7850 HIGHWAY 97 MC DAVID , FL 32568"}},{"type":"Feature","id":104,"geometry":{"type":"Point","coordinates":[-87.405382350109818,30.711690475869986]},"properties":{"OBJECTID":104,"Name":"BARRINEAU PARK COMMUNITY CENTER","Address":"6055 BARRINEAU PARK SCHOOL RD","City":"MOLINO","Zip":"32577","COUNTY":"ESCAMBIA","X":-87.405527039999996,"Y":30.71221482,"LONGLAT":"-87.40552704,30.71221482","USNG":"16R DU 61170 97779","OWNERSHIP":null,"PARCELID":null,"FACILITY_TYPE":"DISASTER RECOVERY CENTER","ADDRESSCITYZIP":"6055 BARRINEAU PARK SCHOOL RD MOLINO , FL 32577"}},{"type":"Feature","id":105,"geometry":{"type":"Point","coordinates":[-87.253809897867924,30.42361070281072]},"properties":{"OBJECTID":105,"Name":"BROWNVILLE COMMUNITY CENTER","Address":"3200 W DESOTO ST","City":"PENSACOLA","Zip":"32505","COUNTY":"ESCAMBIA","X":-87.253809899999993,"Y":30.423610700000001,"LONGLAT":"-87.25380990,30.42361070","USNG":"16R DU 75625 65753","OWNERSHIP":null,"PARCELID":null,"FACILITY_TYPE":"DISASTER RECOVERY CENTER","ADDRESSCITYZIP":"3200 W DESOTO ST PENSACOLA , FL 32505"}},{"type":"Feature","id":106,"geometry":{"type":"Point","coordinates":[-87.265113747247455,30.967452480240826]},"properties":{"OBJECTID":106,"Name":"OLD CARVER MIDDLE SCHOOL","Address":"400 POND ST","City":"CENTURY","Zip":"32535","COUNTY":"ESCAMBIA","X":-87.265113749999998,"Y":30.967452479999999,"LONGLAT":"-87.26511375,30.96745248","USNG":"16R DV 74682 26025","OWNERSHIP":null,"PARCELID":null,"FACILITY_TYPE":"DISASTER RECOVERY CENTER","ADDRESSCITYZIP":"400 POND ST CENTURY , FL 32535"}},{"type":"Feature","id":107,"geometry":{"type":"Point","coordinates":[-87.232769546979213,30.440336621155797]},"properties":{"OBJECTID":107,"Name":"ENGELWOOD COMMUNITY CENTER","Address":"2751 N H ST","City":"PENSACOLA","Zip":"32501","COUNTY":"ESCAMBIA","X":-87.232723930000006,"Y":30.440157509999999,"LONGLAT":"-87.23272393,30.44015751","USNG":"16R DU 77654 67583","OWNERSHIP":null,"PARCELID":null,"FACILITY_TYPE":"DISASTER RECOVERY CENTER","ADDRESSCITYZIP":"2751 N H ST PENSACOLA , FL 32501"}},{"type":"Feature","id":108,"geometry":{"type":"Point","coordinates":[-87.263360382070701,30.963529481407463]},"properties":{"OBJECTID":108,"Name":"CARVER COMMUNITY CENTER (COUNTY)","Address":"7040 JEFFERSON AVENUE","City":"CENTURY","Zip":"32535","COUNTY":"ESCAMBIA","X":-87.263360379999995,"Y":30.963529479999998,"LONGLAT":"-87.26336038,30.96352948","USNG":"16R DV 74848 25589","OWNERSHIP":null,"PARCELID":"085N302302001001","FACILITY_TYPE":"DISASTER RECOVERY CENTER","ADDRESSCITYZIP":"7040 JEFFERSON AVENUE CENTURY , FL 32535"}},{"type":"Feature","id":109,"geometry":{"type":"Point","coordinates":[-87.299450391026568,30.542433411436207]},"properties":{"OBJECTID":109,"Name":"ESCAMBIA COUNTY EXTENSION","Address":"3740 STEFANI RD","City":"CANTONMENT","Zip":"32533","COUNTY":"ESCAMBIA","X":-87.299450390000004,"Y":30.542433410000001,"LONGLAT":"-87.29945039,30.54243341","USNG":"16R DU 71277 78932","OWNERSHIP":null,"PARCELID":null,"FACILITY_TYPE":"DISASTER RECOVERY CENTER","ADDRESSCITYZIP":"3740 STEFANI RD CANTONMENT , FL 32533"}},{"type":"Feature","id":110,"geometry":{"type":"Point","coordinates":[-87.31281633046305,30.454681077018414]},"properties":{"OBJECTID":110,"Name":"AVONDALE PARK","Address":"5809 VESTAVIA LN","City":"PENSACOLA","Zip":"32526","COUNTY":"ESCAMBIA","X":-87.312816330000004,"Y":30.45468108,"LONGLAT":"-87.31281633,30.45468108","USNG":"16R DU 69968 69211","OWNERSHIP":null,"PARCELID":null,"FACILITY_TYPE":"DISASTER RECOVERY CENTER","ADDRESSCITYZIP":"5809 VESTAVIA LN PENSACOLA , FL 32526"}},{"type":"Feature","id":111,"geometry":{"type":"Point","coordinates":[-87.191133927247535,30.51926937885964]},"properties":{"OBJECTID":111,"Name":"JFO (DR4177)","Address":"3351-B MCLEMORE DR","City":"PENSACOLA","Zip":"32514","COUNTY":"ESCAMBIA","X":-87.191133930000007,"Y":30.519269380000001,"LONGLAT":"-87.19113393,30.51926938","USNG":"16R DU 81662 76342","OWNERSHIP":null,"PARCELID":null,"FACILITY_TYPE":"DISASTER RECOVERY CENTER","ADDRESSCITYZIP":"3351-B MCLEMORE DR PENSACOLA , FL 32514"}},{"type":"Feature","id":112,"geometry":{"type":"Point","coordinates":[-81.277130594105898,29.488491971477742]},"properties":{"OBJECTID":112,"Name":"FLAGLER COUNTY FAIRGORUNDS","Address":"150 SAWGRASS RD","City":"PALM COAST","Zip":"32137","COUNTY":"FLAGLER","X":-81.277130589999999,"Y":29.488491969999998,"LONGLAT":"-81.27713059,29.48849197","USNG":"17R MN 73135 62140","OWNERSHIP":null,"PARCELID":null,"FACILITY_TYPE":"DISASTER RECOVERY CENTER","ADDRESSCITYZIP":"150 SAWGRASS RD PALM COAST , FL 32137"}},{"type":"Feature","id":113,"geometry":{"type":"Point","coordinates":[-84.665916207681391,29.857395183587041]},"properties":{"OBJECTID":113,"Name":"FRANKLIN COUNTY SENIOR CENTER","Address":"201 NW AVE F","City":"CARRABELLE","Zip":"32322","COUNTY":"FRANKLIN","X":-84.665916210000006,"Y":29.857395180000001,"LONGLAT":"-84.66591621,29.85739518","USNG":"16R GU 25469 05270","OWNERSHIP":null,"PARCELID":"20-07S-04W-4230-0F07-0030","FACILITY_TYPE":"DISASTER RECOVERY CENTER","ADDRESSCITYZIP":"201 NW AVE F CARRABELLE , FL 32322"}},{"type":"Feature","id":114,"geometry":{"type":"Point","coordinates":[-84.998564297520176,29.724437307762642]},"properties":{"OBJECTID":114,"Name":"FRANKLIN'S COMMUNITY SERVICE CENTER","Address":"192 14TH ST","City":"APALACHICOLA","Zip":"32320","COUNTY":"FRANKLIN","X":-84.998564299999998,"Y":29.724437309999999,"LONGLAT":"-84.99856430,29.72443731","USNG":"16R FT 93585 89928","OWNERSHIP":null,"PARCELID":"01-09S-08W-8330-0137-0010","FACILITY_TYPE":"DISASTER RECOVERY CENTER","ADDRESSCITYZIP":"192 14TH ST APALACHICOLA , FL 32320"}},{"type":"Feature","id":115,"geometry":{"type":"Point","coordinates":[-84.655135253055875,29.85437545993398]},"properties":{"OBJECTID":115,"Name":"CARRABELLE CITY HALL","Address":"1001 GRAY AVE","City":"CARRABELLE","Zip":"32322","COUNTY":"FRANKLIN","X":-84.655135250000001,"Y":29.85437546,"LONGLAT":"-84.65513525,29.85437546","USNG":"16R GU 26518 04957","OWNERSHIP":"MUNICIPAL","PARCELID":null,"FACILITY_TYPE":"DISASTER RECOVERY CENTER","ADDRESSCITYZIP":"1001 GRAY AVE CARRABELLE , FL 32322"}},{"type":"Feature","id":116,"geometry":{"type":"Point","coordinates":[-84.594804248215567,29.884677427170789]},"properties":{"OBJECTID":116,"Name":"CHILLIS HALL, LANARK VILLAGE","Address":"156-A HEFFERNAN DR","City":"CARRABELLE","Zip":"32322","COUNTY":"FRANKLIN","X":-84.594804249999996,"Y":29.88467743,"LONGLAT":"-84.59480425,29.88467743","USNG":"16R GU 32277 08436","OWNERSHIP":"MUNICIPAL","PARCELID":"12-07S-04W-3141-0006-0150","FACILITY_TYPE":"DISASTER RECOVERY CENTER","ADDRESSCITYZIP":"156-A HEFFERNAN DR CARRABELLE , FL 32322"}},{"type":"Feature","id":117,"geometry":{"type":"Point","coordinates":[-84.865093548874782,29.746048876692065]},"properties":{"OBJECTID":117,"Name":"EASTPOINT VFD","Address":"24 6TH ST","City":"EASTPOINT","Zip":"32328","COUNTY":"FRANKLIN","X":-84.865093549999997,"Y":29.74604888,"LONGLAT":"-84.86509355,29.74604888","USNG":"16R GT 06453 92555","OWNERSHIP":"MUNICIPAL","PARCELID":"29-08S-06W-0000-0380-0010","FACILITY_TYPE":"DISASTER RECOVERY CENTER","ADDRESSCITYZIP":"24 6TH ST EASTPOINT , FL 32328"}},{"type":"Feature","id":118,"geometry":{"type":"Point","coordinates":[-84.984798537628905,29.726377425809385]},"properties":{"OBJECTID":118,"Name":"NATIONAL GUARD ARMORY","Address":"66 E 4TH ST","City":"APALACHICOLA","Zip":"32320","COUNTY":"FRANKLIN","X":-84.98479854,"Y":29.726377429999999,"LONGLAT":"-84.98479854,29.72637743","USNG":"16R FT 94913 90166","OWNERSHIP":"STATE","PARCELID":"01-09S-08W-8330-0009-0010","FACILITY_TYPE":"DISASTER RECOVERY CENTER","ADDRESSCITYZIP":"66 E 4TH ST APALACHICOLA , FL 32320"}},{"type":"Feature","id":119,"geometry":{"type":"Point","coordinates":[-84.594529777472076,30.589671165818871]},"properties":{"OBJECTID":119,"Name":"JOE FEROLITO RECREATIONAL CENTER","Address":"122 N GRAVES ST","City":"QUINCY","Zip":"32351","COUNTY":"GADSDEN","X":-84.594529780000002,"Y":30.589671169999999,"LONGLAT":"-84.59452978,30.58967117","USNG":"16R GU 30651 86593","OWNERSHIP":null,"PARCELID":null,"FACILITY_TYPE":"DISASTER RECOVERY CENTER","ADDRESSCITYZIP":"122 N GRAVES ST QUINCY , FL 32351"}},{"type":"Feature","id":120,"geometry":{"type":"Point","coordinates":[-82.862539456337728,29.755789095617672]},"properties":{"OBJECTID":120,"Name":"BELL COMMUNITY CENTER","Address":"1180 N MAIN ST","City":"BELL","Zip":"32619","COUNTY":"GILCHRIST","X":-82.862539459999994,"Y":29.755789100000001,"LONGLAT":"-82.86253946,29.75578910","USNG":"17R LN 19907 93178","OWNERSHIP":null,"PARCELID":null,"FACILITY_TYPE":"DISASTER RECOVERY CENTER","ADDRESSCITYZIP":"1180 N MAIN ST BELL , FL 32619"}},{"type":"Feature","id":121,"geometry":{"type":"Point","coordinates":[-82.816822460473503,29.891488891040449]},"properties":{"OBJECTID":121,"Name":"GILCHRIST CO FIRE RESCUE STATION 2","Address":"460 NW COUNTY ROAD 138","City":"BRANFORD","Zip":"32008","COUNTY":"GILCHRIST","X":-82.816822459999997,"Y":29.891488890000002,"LONGLAT":"-82.81682246,29.89148889","USNG":"17R LP 24566 08148","OWNERSHIP":"COUNTY","PARCELID":"09-07-15-0000-0005-0000","FACILITY_TYPE":"DISASTER RECOVERY CENTER","ADDRESSCITYZIP":"460 NW COUNTY ROAD 138 BRANFORD , FL 32008"}},{"type":"Feature","id":122,"geometry":{"type":"Point","coordinates":[-82.816785457007612,29.611058192599518]},"properties":{"OBJECTID":122,"Name":"TRENTON COMMUNITY CENTER","Address":"110 SE 3RD AVE","City":"TRENTON","Zip":"32693","COUNTY":"GILCHRIST","X":-82.816785460000006,"Y":29.611058190000001,"LONGLAT":"-82.81678546,29.61105819","USNG":"17R LN 24080 77067","OWNERSHIP":"COUNTY","PARCELID":" ","FACILITY_TYPE":"DISASTER RECOVERY CENTER","ADDRESSCITYZIP":"110 SE 3RD AVE TRENTON , FL 32693"}},{"type":"Feature","id":123,"geometry":{"type":"Point","coordinates":[-81.12536491692812,26.840118718158134]},"properties":{"OBJECTID":123,"Name":"GLADES COUNTY SHERIFF'S OFFICE GUN RANGE","Address":"1097 HEALTH PARK DRive","City":"MOORE HAVEN","Zip":"33471","COUNTY":"GLADES","X":-81.125364919999996,"Y":26.84011872,"LONGLAT":"-81.12536492,26.84011872","USNG":"17R MK 87544 68733","OWNERSHIP":"COUNTY","PARCELID":"A21-41-32-A00-0020-0000","FACILITY_TYPE":"DISASTER RECOVERY CENTER","ADDRESSCITYZIP":"1097 HEALTH PARK DRive MOORE HAVEN , FL 33471"}},{"type":"Feature","id":124,"geometry":{"type":"Point","coordinates":[-81.102926836181382,26.833032601446085]},"properties":{"OBJECTID":124,"Name":"DOYLE CONNER AGRICULTURE CENTER","Address":"900 US HWY 27","City":"MOORE HAVEN","Zip":"33471","COUNTY":"GLADES","X":-81.102926839999995,"Y":26.833032599999999,"LONGLAT":"-81.10292684,26.83303260","USNG":"17R MK 89773 67946","OWNERSHIP":"COUNTY","PARCELID":"A27-42-32-A00-0020-0000","FACILITY_TYPE":"DISASTER RECOVERY CENTER","ADDRESSCITYZIP":"900 US HWY 27 MOORE HAVEN , FL 33471"}},{"type":"Feature","id":125,"geometry":{"type":"Point","coordinates":[-85.197549354036084,30.115912786363623]},"properties":{"OBJECTID":125,"Name":"WEWAHITCHKA COMMUNITY CENTER","Address":"314 N 3RD ST","City":"WEWAHITCHKA","Zip":"32465","COUNTY":"GULF","X":-85.197549350000003,"Y":30.115912789999999,"LONGLAT":"-85.19754935,30.11591279","USNG":"16R FU 73654 33000","OWNERSHIP":"MUNICIPAL","PARCELID":"02083-000R","FACILITY_TYPE":"DISASTER RECOVERY CENTER","ADDRESSCITYZIP":"314 N 3RD ST WEWAHITCHKA , FL 32465"}},{"type":"Feature","id":126,"geometry":{"type":"Point","coordinates":[-85.295170051755221,29.793575006790629]},"properties":{"OBJECTID":126,"Name":"PORT ST. JOE CENTENIAL BUILDING","Address":"300 ALLEN MEMORIAL WAY","City":"PORT SAINT JOE","Zip":"32456","COUNTY":"GULF","X":-85.295170049999996,"Y":29.793575010000001,"LONGLAT":"-85.29517005,29.79357501","USNG":"16R FT 64778 97130","OWNERSHIP":"MUNICIPAL","PARCELID":"06058-000R","FACILITY_TYPE":"DISASTER RECOVERY CENTER","ADDRESSCITYZIP":"300 ALLEN MEMORIAL WAY PORT SAINT JOE , FL 32456"}},{"type":"Feature","id":127,"geometry":{"type":"Point","coordinates":[-85.297644831335433,29.820852076581307]},"properties":{"OBJECTID":127,"Name":"WASHINGTON HIGH RECREATIONAL CENTER","Address":"401 PETERS ST","City":"PORT SAINT JOE","Zip":"32456","COUNTY":"GULF","X":-85.297644829999996,"Y":29.820852080000002,"LONGLAT":"-85.29764483,29.82085208","USNG":"16R FU 64494 00150","OWNERSHIP":"MUNICIPAL","PARCELID":"04583-011R","FACILITY_TYPE":"DISASTER RECOVERY CENTER","ADDRESSCITYZIP":"401 PETERS ST PORT SAINT JOE , FL 32456"}},{"type":"Feature","id":128,"geometry":{"type":"Point","coordinates":[-82.957904399695508,30.523800322499451]},"properties":{"OBJECTID":128,"Name":"HAMILTON COUNTY COURTHOUSE","Address":"1153 US HWY 41 NW","City":"JASPER","Zip":"32052","COUNTY":"HAMILTON","X":-82.957904400000004,"Y":30.523800319999999,"LONGLAT":"-82.95790440,30.52380032","USNG":"17R LP 12146 78459","OWNERSHIP":"COUNTY","PARCELID":"6176-010","FACILITY_TYPE":"DISASTER RECOVERY CENTER","ADDRESSCITYZIP":"1153 US HWY 41 NW JASPER , FL 32052"}},{"type":"Feature","id":129,"geometry":{"type":"Point","coordinates":[-82.959064037940237,30.527730591168758]},"properties":{"OBJECTID":129,"Name":"OLD HAMILTON HIGH SCHOOL","Address":"255 CHAN BRIDGE DR","City":"JASPER","Zip":"32052","COUNTY":"HAMILTON","X":-82.959064040000001,"Y":30.527730590000001,"LONGLAT":"-82.95906404,30.52773059","USNG":"17R LP 12042 78897","OWNERSHIP":"COUNTY","PARCELID":"6756-000","FACILITY_TYPE":"DISASTER RECOVERY CENTER","ADDRESSCITYZIP":"255 CHAN BRIDGE DR JASPER , FL 32052"}},{"type":"Feature","id":130,"geometry":{"type":"Point","coordinates":[-81.834699000224234,27.532998999463523]},"properties":{"OBJECTID":130,"Name":"HARDEE COUNTY AGRI-CIVIC CENTER","Address":"515 CIVIC CENTER DR","City":"WAUCHULA","Zip":"33873","COUNTY":"HARDEE","X":-81.834699000000001,"Y":27.532999,"LONGLAT":"-81.83469900,27.53299900","USNG":"17R ML 17577 45749","OWNERSHIP":"COUNTY","PARCELID":"08-34-25-0000-03760-0000","FACILITY_TYPE":"DISASTER RECOVERY CENTER","ADDRESSCITYZIP":"515 CIVIC CENTER DR WAUCHULA , FL 33873"}},{"type":"Feature","id":131,"geometry":{"type":"Point","coordinates":[-81.805992999377281,27.502359999264453]},"properties":{"OBJECTID":131,"Name":"PIONEER PARK RECREATIONAL HALL","Address":"INTERSECTION OF ANIMAL WAY & SEMINOLE RD","City":"WAUCHULA","Zip":"33873","COUNTY":"HARDEE","X":-81.805993000000001,"Y":27.502359999999999,"LONGLAT":"-81.80599300,27.50236000","USNG":"17R ML 20390 42336","OWNERSHIP":"COUNTY","PARCELID":"22-34-25-0000-08120-0000","FACILITY_TYPE":"DISASTER RECOVERY CENTER","ADDRESSCITYZIP":"INTERSECTION OF ANIMAL WAY & SEMINOLE RD WAUCHULA , FL 33873"}},{"type":"Feature","id":132,"geometry":{"type":"Point","coordinates":[-81.801212099909762,27.501683799396307]},"properties":{"OBJECTID":132,"Name":"HARDEE-RECREATION HALL","Address":"231 WILBUR C KING BLVD","City":"ZOLFO SPRINGS","Zip":" ","COUNTY":"HARDEE","X":-81.801212100000001,"Y":27.501683799999999,"LONGLAT":"-81.80121210,27.50168380","USNG":"17R ML 20861 42258","OWNERSHIP":null,"PARCELID":null,"FACILITY_TYPE":"DISASTER RECOVERY CENTER","ADDRESSCITYZIP":"231 WILBUR C KING BLVD ZOLFO SPRINGS , FL  "}},{"type":"Feature","id":133,"geometry":{"type":"Point","coordinates":[-81.110906891623799,26.641868680142984]},"properties":{"OBJECTID":133,"Name":"MONTURA CLUBHOUSE","Address":"255 N HACIENDA ST","City":"CLEWISTON","Zip":"33440","COUNTY":"HENDRY","X":-81.110906889999995,"Y":26.641868680000002,"LONGLAT":"-81.11090689,26.64186868","USNG":"17R MK 88961 46774","OWNERSHIP":null,"PARCELID":null,"FACILITY_TYPE":"DISASTER RECOVERY CENTER","ADDRESSCITYZIP":"255 N HACIENDA ST CLEWISTON , FL 33440"}},{"type":"Feature","id":134,"geometry":{"type":"Point","coordinates":[-81.213964400256231,26.706685999065876]},"properties":{"OBJECTID":134,"Name":"HENDRY-PIONEER COMM CENTER","Address":"910 PANAMA AVE","City":"CLEWISTON","Zip":"33440","COUNTY":"HENDRY","X":-81.213964399999995,"Y":26.706686000000001,"LONGLAT":"-81.21396440,26.70668600","USNG":"17R MK 78716 53966","OWNERSHIP":null,"PARCELID":null,"FACILITY_TYPE":"DISASTER RECOVERY CENTER","ADDRESSCITYZIP":"910 PANAMA AVE CLEWISTON , FL 33440"}},{"type":"Feature","id":135,"geometry":{"type":"Point","coordinates":[-81.417501999728159,26.544068999506351]},"properties":{"OBJECTID":135,"Name":"HENDRY-FELDA COMM CENTER","Address":"1100 COUNTY RD 830","City":"FELDA","Zip":" ","COUNTY":"HENDRY","X":-81.417501999999999,"Y":26.544069,"LONGLAT":"-81.41750200,26.54406900","USNG":"17R MK 58411 36006","OWNERSHIP":null,"PARCELID":null,"FACILITY_TYPE":"DISASTER RECOVERY CENTER","ADDRESSCITYZIP":"1100 COUNTY RD 830 FELDA , FL  "}},{"type":"Feature","id":136,"geometry":{"type":"Point","coordinates":[-80.943710497326236,26.736510492726438]},"properties":{"OBJECTID":136,"Name":"HARLEM COMMUNITY CENTER","Address":"2000 7TH ST","City":"CLEWISTON","Zip":"33440","COUNTY":"HENDRY","X":-80.943710499999995,"Y":26.736510490000001,"LONGLAT":"-80.94371050,26.73651049","USNG":"17R NK 05597 57253","OWNERSHIP":null,"PARCELID":null,"FACILITY_TYPE":"DISASTER RECOVERY CENTER","ADDRESSCITYZIP":"2000 7TH ST CLEWISTON , FL 33440"}},{"type":"Feature","id":137,"geometry":{"type":"Point","coordinates":[-81.428629499654051,26.744792499333251]},"properties":{"OBJECTID":137,"Name":"HENDRY-DALLAS TOWNSEND CENTER","Address":"1085 PRATT BLVD","City":"LABELLE","Zip":"33935","COUNTY":"HENDRY","X":-81.4286295,"Y":26.744792499999999,"LONGLAT":"-81.42862950,26.74479250","USNG":"17R MK 57377 58240","OWNERSHIP":null,"PARCELID":null,"FACILITY_TYPE":"DISASTER RECOVERY CENTER","ADDRESSCITYZIP":"1085 PRATT BLVD LABELLE , FL 33935"}},{"type":"Feature","id":138,"geometry":{"type":"Point","coordinates":[-81.436580739405954,26.742559058252809]},"properties":{"OBJECTID":138,"Name":"LABELLE RODEO GROUNDS","Address":"100 RODEO DR","City":"LABELLE","Zip":"33935","COUNTY":"HENDRY","X":-81.436580739999997,"Y":26.742559060000001,"LONGLAT":"-81.43658074,26.74255906","USNG":"17R MK 56586 57996","OWNERSHIP":null,"PARCELID":null,"FACILITY_TYPE":"DISASTER RECOVERY CENTER","ADDRESSCITYZIP":"100 RODEO DR LABELLE , FL 33935"}},{"type":"Feature","id":139,"geometry":{"type":"Point","coordinates":[-82.608724279048005,28.480082639294316]},"properties":{"OBJECTID":139,"Name":"NEW BEGINNINGS LIFE CENTER","Address":"3350 COMMERCIAL WAY","City":"SPRING HILL","Zip":"34606","COUNTY":"HERNANDO","X":-82.608724280000004,"Y":28.480082639999999,"LONGLAT":"-82.60872428,28.48008264","USNG":"17R LM 42521 51439","OWNERSHIP":null,"PARCELID":"R16 223 17 3810 0070 0080","FACILITY_TYPE":"DISASTER RECOVERY CENTER","ADDRESSCITYZIP":"3350 COMMERCIAL WAY SPRING HILL , FL 34606"}},{"type":"Feature","id":140,"geometry":{"type":"Point","coordinates":[-82.461000185972054,28.445713118863885]},"properties":{"OBJECTID":140,"Name":"MASARYKTOWN COMMUNITY CENTER","Address":"539 LINCOLN AVE","City":"BROOKSVILLE","Zip":"34604","COUNTY":"HERNANDO","X":-82.461000189999993,"Y":28.445713120000001,"LONGLAT":"-82.46100019,28.44571312","USNG":"17R LM 56937 47446","OWNERSHIP":null,"PARCELID":"R36 223 18 2690 0540 0010","FACILITY_TYPE":"DISASTER RECOVERY CENTER","ADDRESSCITYZIP":"539 LINCOLN AVE BROOKSVILLE , FL 34604"}},{"type":"Feature","id":141,"geometry":{"type":"Point","coordinates":[-82.388662099862529,28.537751399163778]},"properties":{"OBJECTID":141,"Name":"HERNANDO CO","Address":"21030 CORTEZ BLVD","City":"BROOKSVILLE","Zip":"34601","COUNTY":"HERNANDO","X":-82.388662100000005,"Y":28.537751400000001,"LONGLAT":"-82.38866210,28.53775140","USNG":"17R LM 64139 57560","OWNERSHIP":null,"PARCELID":null,"FACILITY_TYPE":"DISASTER RECOVERY CENTER","ADDRESSCITYZIP":"21030 CORTEZ BLVD BROOKSVILLE , FL 34601"}},{"type":"Feature","id":142,"geometry":{"type":"Point","coordinates":[-82.594320340193988,28.491024044718305]},"properties":{"OBJECTID":142,"Name":"WESTSIDE GOVERNMENT CENTER","Address":"7405 FORREST OAKS BLVD","City":"SPRING HILL","Zip":"34606","COUNTY":"HERNANDO","X":-82.594320339999996,"Y":28.49102405,"LONGLAT":"-82.59432034,28.49102405","USNG":"17R LM 43947 52633","OWNERSHIP":null,"PARCELID":null,"FACILITY_TYPE":"DISASTER RECOVERY CENTER","ADDRESSCITYZIP":"7405 FORREST OAKS BLVD SPRING HILL , FL 34606"}},{"type":"Feature","id":143,"geometry":{"type":"Point","coordinates":[-81.420555797648632,27.44139337408609]},"properties":{"OBJECTID":143,"Name":"BERT J. HARRIS AGRICULTURAL CENTER (FIXED)","Address":"4509 WEST GEORGE BLVD","City":"SEBRING","Zip":"33875","COUNTY":"HIGHLANDS","X":-81.420555800000002,"Y":27.44139337,"LONGLAT":"-81.42055580,27.44139337","USNG":"17R ML 58438 35395","OWNERSHIP":"COUNTY","PARCELID":"C09352905000000130","FACILITY_TYPE":"DISASTER RECOVERY CENTER","ADDRESSCITYZIP":"4509 WEST GEORGE BLVD SEBRING , FL 33875"}},{"type":"Feature","id":144,"geometry":{"type":"Point","coordinates":[-81.421700713839783,27.442455958128292]},"properties":{"OBJECTID":144,"Name":"FWB SENIOR COMMUNITY CENTER","Address":"4300 GEORGE BLVD","City":"SEBRING","Zip":"33875","COUNTY":"HIGHLANDS","X":-81.421700709999996,"Y":27.44245596,"LONGLAT":"-81.42170071,27.44245596","USNG":"17R ML 58325 35513","OWNERSHIP":"COUNTY","PARCELID":"C093529A0001610000","FACILITY_TYPE":"DISASTER RECOVERY CENTER","ADDRESSCITYZIP":"4300 GEORGE BLVD SEBRING , FL 33875"}},{"type":"Feature","id":145,"geometry":{"type":"Point","coordinates":[-82.069534076018655,27.870269035978247]},"properties":{"OBJECTID":145,"Name":"KEYSVILLE RECREATION CENTER","Address":"9390 EDISON RD","City":"LITHIA","Zip":"33547","COUNTY":"HILLSBOROUGH","X":-82.069534079999997,"Y":27.87026904,"LONGLAT":"-82.06953408,27.87026904","USNG":"17R LL 94711 83290","OWNERSHIP":"COUNTY","PARCELID":"223013ZZZ000005169200U","FACILITY_TYPE":"DISASTER RECOVERY CENTER","ADDRESSCITYZIP":"9390 EDISON RD LITHIA , FL 33547"}},{"type":"Feature","id":146,"geometry":{"type":"Point","coordinates":[-82.516839000211149,28.06647899948431]},"properties":{"OBJECTID":146,"Name":"CARROLLWOOD CULTURAL CENTER","Address":"13335 CASEY ROAD","City":"TAMPA","Zip":"33618","COUNTY":"HILLSBOROUGH","X":-82.516839000000004,"Y":28.066479000000001,"LONGLAT":"-82.51683900,28.06647900","USNG":"17R LM 50942 05495","OWNERSHIP":"COUNTY","PARCELID":"182809ZZZ000000835400U","FACILITY_TYPE":"DISASTER RECOVERY CENTER","ADDRESSCITYZIP":"13335 CASEY ROAD TAMPA , FL 33618"}},{"type":"Feature","id":147,"geometry":{"type":"Point","coordinates":[-82.433348650604586,28.075480486179142]},"properties":{"OBJECTID":147,"Name":"UNIVERSITY AREA COMMUNITY DEVELOPMENT CENTER","Address":"14013 N 22ND ST","City":"TAMPA","Zip":"33613","COUNTY":"HILLSBOROUGH","X":-82.433348649999999,"Y":28.07548049,"LONGLAT":"-82.43334865,28.07548049","USNG":"17R LM 59159 06392","OWNERSHIP":"COUNTY","PARCELID":"192805ZZZ000001261600U","FACILITY_TYPE":"DISASTER RECOVERY CENTER","ADDRESSCITYZIP":"14013 N 22ND ST TAMPA , FL 33613"}},{"type":"Feature","id":148,"geometry":{"type":"Point","coordinates":[-82.333667004108221,27.962580197304668]},"properties":{"OBJECTID":148,"Name":"HOUSING & COMMUNITY CODE ENFORCEMENT OFFICE","Address":"10119 WINDHORST RD","City":"TAMPA","Zip":"33619","COUNTY":"HILLSBOROUGH","X":-82.333667000000005,"Y":27.962580200000001,"LONGLAT":"-82.33366700,27.96258020","USNG":"17R LL 68818 93773","OWNERSHIP":null,"PARCELID":"202917ZZZ000002508600U","FACILITY_TYPE":"DISASTER RECOVERY CENTER","ADDRESSCITYZIP":"10119 WINDHORST RD TAMPA , FL 33619"}},{"type":"Feature","id":149,"geometry":{"type":"Point","coordinates":[-82.311227502009515,27.887021835969584]},"properties":{"OBJECTID":149,"Name":"HILLSBOROUGH COMMUNITY COLLEGE AT THE REGENT (FIXED)","Address":"6437 WATSON RD","City":"RIVERVIEW","Zip":"33569","COUNTY":"HILLSBOROUGH","X":-82.311227500000001,"Y":27.887021839999999,"LONGLAT":"-82.31122750,27.88702184","USNG":"17R LL 70936 85378","OWNERSHIP":"STATE","PARCELID":"203009ZZZ00000284090AU","FACILITY_TYPE":"DISASTER RECOVERY CENTER","ADDRESSCITYZIP":"6437 WATSON RD RIVERVIEW , FL 33569"}},{"type":"Feature","id":150,"geometry":{"type":"Point","coordinates":[-85.619719746248947,30.980632105140117]},"properties":{"OBJECTID":150,"Name":"NOMA TOWN HALL","Address":"3462 SKIPPER AVE","City":"BONIFAY","Zip":"32425","COUNTY":"HOLMES","X":-85.619719750000002,"Y":30.980632109999998,"LONGLAT":"-85.61971975,30.98063211","USNG":"16R FV 31802 28272","OWNERSHIP":"COUNTY","PARCELID":"0327.04-001-00L-005.000","FACILITY_TYPE":"DISASTER RECOVERY CENTER","ADDRESSCITYZIP":"3462 SKIPPER AVE BONIFAY , FL 32425"}},{"type":"Feature","id":151,"geometry":{"type":"Point","coordinates":[-85.933715000147629,30.726075998528412]},"properties":{"OBJECTID":151,"Name":"PONCE DE LEON CITY GYMNASIUM","Address":"1611 PIRATE COVE RD","City":"PONCE DE LEON","Zip":"32455","COUNTY":"HOLMES","X":-85.933715000000007,"Y":30.726075999999999,"LONGLAT":"-85.93371500,30.72607600","USNG":"16R FU 02086 99730","OWNERSHIP":null,"PARCELID":"1827.02-000-000-022.000","FACILITY_TYPE":"DISASTER RECOVERY CENTER","ADDRESSCITYZIP":"1611 PIRATE COVE RD PONCE DE LEON , FL 32455"}},{"type":"Feature","id":152,"geometry":{"type":"Point","coordinates":[-80.455933200083393,27.633809199202691]},"properties":{"OBJECTID":152,"Name":"INDIAN RIVER-CO BRACKETT LIBRARY","Address":"6155 COLLEGE LN","City":"VERO BEACH","Zip":"32966","COUNTY":"INDIAN RIVER","X":-80.455933200000004,"Y":27.633809200000002,"LONGLAT":"-80.45593320,27.63380920","USNG":"17R NL 53674 56756","OWNERSHIP":null,"PARCELID":null,"FACILITY_TYPE":"DISASTER RECOVERY CENTER","ADDRESSCITYZIP":"6155 COLLEGE LN VERO BEACH , FL 32966"}},{"type":"Feature","id":153,"geometry":{"type":"Point","coordinates":[-80.520591249970423,27.768884122595516]},"properties":{"OBJECTID":153,"Name":"NORTH COUNTY AQUATIC CENTER","Address":"9450 COUNTY ROAD 512","City":"SEBASTIAN","Zip":"32958","COUNTY":"INDIAN RIVER","X":-80.520591249999995,"Y":27.768884119999999,"LONGLAT":"-80.52059125,27.76888412","USNG":"17R NL 47237 71692","OWNERSHIP":null,"PARCELID":null,"FACILITY_TYPE":"DISASTER RECOVERY CENTER","ADDRESSCITYZIP":"9450 COUNTY ROAD 512 SEBASTIAN , FL 32958"}},{"type":"Feature","id":154,"geometry":{"type":"Point","coordinates":[-80.427848051248759,27.734313784217534]},"properties":{"OBJECTID":154,"Name":"ORCHID TOWN HALL","Address":"7707 US HWY 1","City":"VERO BEACH","Zip":"32967","COUNTY":"INDIAN RIVER","X":-80.427848049999994,"Y":27.734313780000001,"LONGLAT":"-80.42784805,27.73431378","USNG":"17R NL 56393 67902","OWNERSHIP":null,"PARCELID":null,"FACILITY_TYPE":"DISASTER RECOVERY CENTER","ADDRESSCITYZIP":"7707 US HWY 1 VERO BEACH , FL 32967"}},{"type":"Feature","id":155,"geometry":{"type":"Point","coordinates":[-80.476861801635962,27.804155834775422]},"properties":{"OBJECTID":155,"Name":"SEBASTIAN ELEMENTARY SCHOOL","Address":"400 SEBASTIAN BLVD","City":"SEBASTIAN","Zip":"32958","COUNTY":"INDIAN RIVER","X":-80.476861799999995,"Y":27.80415584,"LONGLAT":"-80.47686180,27.80415584","USNG":"17R NL 51529 75617","OWNERSHIP":"COUNTY","PARCELID":"31390700000300000001.1","FACILITY_TYPE":"DISASTER RECOVERY CENTER","ADDRESSCITYZIP":"400 SEBASTIAN BLVD SEBASTIAN , FL 32958"}},{"type":"Feature","id":156,"geometry":{"type":"Point","coordinates":[-80.442807225648863,27.734758930751685]},"properties":{"OBJECTID":156,"Name":"HOBART PARK","Address":"5350 77TH ST","City":"VERO BEACH","Zip":"32967","COUNTY":"INDIAN RIVER","X":-80.44280723,"Y":27.734758930000002,"LONGLAT":"-80.44280723,27.73475893","USNG":"17R NL 54918 67945","OWNERSHIP":"COUNTY","PARCELID":"31393300000500000003.0","FACILITY_TYPE":"DISASTER RECOVERY CENTER","ADDRESSCITYZIP":"5350 77TH ST VERO BEACH , FL 32967"}},{"type":"Feature","id":157,"geometry":{"type":"Point","coordinates":[-80.602896607961512,27.766852885656021]},"properties":{"OBJECTID":157,"Name":"FELLSMERE CITY HALL","Address":"22 S ORANGE ST.","City":"FELLSMERE","Zip":"32948","COUNTY":"INDIAN RIVER","X":-80.602896610000002,"Y":27.766852889999999,"LONGLAT":"-80.60289661,27.76685289","USNG":"17R NL 39128 71439","OWNERSHIP":"COUNTY","PARCELID":"31370000009103000001.0","FACILITY_TYPE":"DISASTER RECOVERY CENTER","ADDRESSCITYZIP":"22 S ORANGE ST. FELLSMERE , FL 32948"}},{"type":"Feature","id":158,"geometry":{"type":"Point","coordinates":[-80.45662625548573,27.69895130779274]},"properties":{"OBJECTID":158,"Name":"STORM GROVE MIDDLE SCHOOL","Address":"6400 57TH ST","City":"VERO BEACH","Zip":"32967","COUNTY":"INDIAN RIVER","X":-80.456626259999993,"Y":27.698951310000002,"LONGLAT":"-80.45662626,27.69895131","USNG":"17R NL 53574 63972","OWNERSHIP":"COUNTY","PARCELID":"32391700001003000001.0","FACILITY_TYPE":"DISASTER RECOVERY CENTER","ADDRESSCITYZIP":"6400 57TH ST VERO BEACH , FL 32967"}},{"type":"Feature","id":159,"geometry":{"type":"Point","coordinates":[-80.430184603156832,27.681990600103344]},"properties":{"OBJECTID":159,"Name":"GIFFORD YOUTH ACTIVITY CENTER","Address":"4855 43RD AVE","City":"VERO BEACH","Zip":"32967","COUNTY":"INDIAN RIVER","X":-80.430184600000004,"Y":27.681990599999999,"LONGLAT":"-80.43018460,27.68199060","USNG":"17R NL 56189 62105","OWNERSHIP":"COUNTY","PARCELID":"32392100001009000001.1","FACILITY_TYPE":"DISASTER RECOVERY CENTER","ADDRESSCITYZIP":"4855 43RD AVE VERO BEACH , FL 32967"}},{"type":"Feature","id":160,"geometry":{"type":"Point","coordinates":[-80.401877951257447,27.640559949303]},"properties":{"OBJECTID":160,"Name":"INDIAN RIVER COUNTY MAIN LIBRARY","Address":"1600 21ST ST.","City":"VERO BEACH","Zip":"32960","COUNTY":"INDIAN RIVER","X":-80.401877949999999,"Y":27.64055995,"LONGLAT":"-80.40187795,27.64055995","USNG":"17R NL 59003 57529","OWNERSHIP":"COUNTY","PARCELID":"33390200001037000001.0","FACILITY_TYPE":"DISASTER RECOVERY CENTER","ADDRESSCITYZIP":"1600 21ST ST. VERO BEACH , FL 32960"}},{"type":"Feature","id":161,"geometry":{"type":"Point","coordinates":[-80.497300587882606,27.777955542163706]},"properties":{"OBJECTID":161,"Name":"NORTH INDIAN RIVER COUNTY LIBRARY","Address":"1001 SEBASTIAN BLVD","City":"SEBASTIAN","Zip":"32958","COUNTY":"INDIAN RIVER","X":-80.497300589999995,"Y":27.777955540000001,"LONGLAT":"-80.49730059,27.77795554","USNG":"17R NL 49527 72707","OWNERSHIP":"COUNTY","PARCELID":"31381400004000000000.7","FACILITY_TYPE":"DISASTER RECOVERY CENTER","ADDRESSCITYZIP":"1001 SEBASTIAN BLVD SEBASTIAN , FL 32958"}},{"type":"Feature","id":162,"geometry":{"type":"Point","coordinates":[-80.403443760750406,27.646385132547469]},"properties":{"OBJECTID":162,"Name":"INDIAN RIVER COUNTY ADMIN. BLDG","Address":"1801 27TH ST","City":"VERO BEACH","Zip":"32960","COUNTY":"INDIAN RIVER","X":-80.403443760000002,"Y":27.646385129999999,"LONGLAT":"-80.40344376,27.64638513","USNG":"17R NL 58845 58173","OWNERSHIP":"COUNTY","PARCELID":"32393500004001000001.0","FACILITY_TYPE":"DISASTER RECOVERY CENTER","ADDRESSCITYZIP":"1801 27TH ST VERO BEACH , FL 32960"}},{"type":"Feature","id":163,"geometry":{"type":"Point","coordinates":[-80.591173344461325,27.768416112607333]},"properties":{"OBJECTID":163,"Name":"OUR LADY OF GUADALUPE CATHOLIC CHURCH","Address":"12896 COUNTY ROAD 512","City":"FELLSMERE","Zip":"32948","COUNTY":"INDIAN RIVER","X":-80.591173339999997,"Y":27.76841611,"LONGLAT":"-80.59117334,27.76841611","USNG":"17R NL 40282 71616","OWNERSHIP":null,"PARCELID":"31370000001155300001.0","FACILITY_TYPE":"DISASTER RECOVERY CENTER","ADDRESSCITYZIP":"12896 COUNTY ROAD 512 FELLSMERE , FL 32948"}},{"type":"Feature","id":164,"geometry":{"type":"Point","coordinates":[-80.461677863818508,27.641318618161137]},"properties":{"OBJECTID":164,"Name":"INDIAN RIVER MALL","Address":"6200 20TH STREET","City":"VERO BEACH","Zip":"32966","COUNTY":"INDIAN RIVER","X":-80.461677859999995,"Y":27.64131862,"LONGLAT":"-80.46167786,27.64131862","USNG":"17R NL 53103 57586","OWNERSHIP":null,"PARCELID":"33390500007000000001.0","FACILITY_TYPE":"DISASTER RECOVERY CENTER","ADDRESSCITYZIP":"6200 20TH STREET VERO BEACH , FL 32966"}},{"type":"Feature","id":165,"geometry":{"type":"Point","coordinates":[-80.447767266861433,27.738250129740567]},"properties":{"OBJECTID":165,"Name":"INDIAN RIVER FAIRGROUNDS","Address":"7900 58TH AVE","City":"VERO BEACH","Zip":"32967","COUNTY":"INDIAN RIVER","X":-80.44776727,"Y":27.738250130000001,"LONGLAT":"-80.44776727,27.73825013","USNG":"17R NL 54428 68329","OWNERSHIP":"COUNTY","PARCELID":"31393200000700000002.0","FACILITY_TYPE":"DISASTER RECOVERY CENTER","ADDRESSCITYZIP":"7900 58TH AVE VERO BEACH , FL 32967"}},{"type":"Feature","id":166,"geometry":{"type":"Point","coordinates":[-80.520979287336772,27.768462875254286]},"properties":{"OBJECTID":166,"Name":"NORTH COUNTY AQUATIC CENTER","Address":"9450 COUNTY ROAD 512","City":"SEBASTIAN","Zip":"32958","COUNTY":"INDIAN RIVER","X":-80.52097929,"Y":27.768462880000001,"LONGLAT":"-80.52097929,27.76846288","USNG":"17R NL 47199 71646","OWNERSHIP":"STATE","PARCELID":"31382200000100000001.0","FACILITY_TYPE":"DISASTER RECOVERY CENTER","ADDRESSCITYZIP":"9450 COUNTY ROAD 512 SEBASTIAN , FL 32958"}},{"type":"Feature","id":167,"geometry":{"type":"Point","coordinates":[-80.452470955639328,27.633751110493801]},"properties":{"OBJECTID":167,"Name":"INDIAN RIVER COUNTY BRACKETT LIBRARY","Address":"6155 COLLEGE LN","City":"VERO BEACH","Zip":"32966","COUNTY":"INDIAN RIVER","X":-80.452470959999999,"Y":27.633751109999999,"LONGLAT":"-80.45247096,27.63375111","USNG":"17R NL 54015 56751","OWNERSHIP":"SPECIAL TAXING DISTRICT","PARCELID":"33390500001015000001.0","FACILITY_TYPE":"DISASTER RECOVERY CENTER","ADDRESSCITYZIP":"6155 COLLEGE LN VERO BEACH , FL 32966"}},{"type":"Feature","id":168,"geometry":{"type":"Point","coordinates":[-80.394558500934579,27.638438459577102]},"properties":{"OBJECTID":168,"Name":"VERO BEACH POLICE DEPARTMENT","Address":"1055 20TH PL","City":"VERO BEACH","Zip":"32960","COUNTY":"INDIAN RIVER","X":-80.394558500000002,"Y":27.63843846,"LONGLAT":"-80.39455850,27.63843846","USNG":"17R NL 59726 57297","OWNERSHIP":"MUNICIPAL","PARCELID":"33390100023002000009.0","FACILITY_TYPE":"DISASTER RECOVERY CENTER","ADDRESSCITYZIP":"1055 20TH PL VERO BEACH , FL 32960"}},{"type":"Feature","id":169,"geometry":{"type":"Point","coordinates":[-80.372097541559029,27.692269564175781]},"properties":{"OBJECTID":169,"Name":"INDIAN RIVER SHORES TOWN HALL","Address":"6001 A1A","City":"VERO BEACH","Zip":"32963","COUNTY":"INDIAN RIVER","X":-80.372097539999999,"Y":27.69226956,"LONGLAT":"-80.37209754,27.69226956","USNG":"17R NL 61912 63271","OWNERSHIP":"MUNICIPAL","PARCELID":"32401800018001000000.0","FACILITY_TYPE":"DISASTER RECOVERY CENTER","ADDRESSCITYZIP":"6001 A1A VERO BEACH , FL 32963"}},{"type":"Feature","id":170,"geometry":{"type":"Point","coordinates":[-80.487536928012091,27.778921873957533]},"properties":{"OBJECTID":170,"Name":"BARBER STREET SPORTS COMPLEX","Address":"1115 BARBER ST","City":"SEBASTIAN","Zip":"32958","COUNTY":"INDIAN RIVER","X":-80.487536930000005,"Y":27.778921870000001,"LONGLAT":"-80.48753693,27.77892187","USNG":"17R NL 50489 72818","OWNERSHIP":"MUNICIPAL","PARCELID":"31382400001208000001.0","FACILITY_TYPE":"DISASTER RECOVERY CENTER","ADDRESSCITYZIP":"1115 BARBER ST SEBASTIAN , FL 32958"}},{"type":"Feature","id":171,"geometry":{"type":"Point","coordinates":[-80.474742076862086,27.817437520288003]},"properties":{"OBJECTID":171,"Name":"SEBASTIAN CITY HALL","Address":"1225 MAIN ST","City":"SEBASTIAN","Zip":"32958","COUNTY":"INDIAN RIVER","X":-80.474742079999999,"Y":27.817437519999999,"LONGLAT":"-80.47474208,27.81743752","USNG":"17R NL 51731 77089","OWNERSHIP":"MUNICIPAL","PARCELID":"31390600005000200001.0","FACILITY_TYPE":"DISASTER RECOVERY CENTER","ADDRESSCITYZIP":"1225 MAIN ST SEBASTIAN , FL 32958"}},{"type":"Feature","id":172,"geometry":{"type":"Point","coordinates":[-85.294173360745262,30.782578094578419]},"properties":{"OBJECTID":172,"Name":"JACKSON COUNTY AGRICULTURAL CENTER","Address":"3631 HWY 90","City":"MARIANNA","Zip":"32448","COUNTY":"JACKSON","X":-85.294173360000002,"Y":30.782578099999998,"LONGLAT":"-85.29417336,30.78257810","USNG":"16R FV 63228 06750","OWNERSHIP":"COUNTY","PARCELID":"36-5N-11-0000-0140-0000","FACILITY_TYPE":"DISASTER RECOVERY CENTER","ADDRESSCITYZIP":"3631 HWY 90 MARIANNA , FL 32448"}},{"type":"Feature","id":173,"geometry":{"type":"Point","coordinates":[-85.225415322879655,30.773457636219607]},"properties":{"OBJECTID":173,"Name":"JACKSON COUNTY BOARD OF COUNTY COMMISIONERS BLDG","Address":"2864 MADISON ST","City":"MARIANNA","Zip":"32448","COUNTY":"JACKSON","X":-85.225415319999996,"Y":30.77345764,"LONGLAT":"-85.22541532,30.77345764","USNG":"16R FV 69824 05841","OWNERSHIP":"COUNTY","PARCELID":"03-4N-10-0346-0000-0940","FACILITY_TYPE":"DISASTER RECOVERY CENTER","ADDRESSCITYZIP":"2864 MADISON ST MARIANNA , FL 32448"}},{"type":"Feature","id":174,"geometry":{"type":"Point","coordinates":[-83.184270254756498,30.055630980395787]},"properties":{"OBJECTID":174,"Name":"MAYO COMMUNITY CENTER","Address":"150 SW COMMUNITY CIR","City":"MAYO","Zip":"32066","COUNTY":"LAFAYETTE","X":-83.184270249999997,"Y":30.05563098,"LONGLAT":"-83.18427025,30.05563098","USNG":"17R KP 89424 26960","OWNERSHIP":"COUNTY","PARCELID":"1405110000000000200","FACILITY_TYPE":"DISASTER RECOVERY CENTER","ADDRESSCITYZIP":"150 SW COMMUNITY CIR MAYO , FL 32066"}},{"type":"Feature","id":175,"geometry":{"type":"Point","coordinates":[-83.174996314650372,30.054141770792185]},"properties":{"OBJECTID":175,"Name":"LAFAYETTE COUNTY LIBRARY","Address":"120 NE CRAWFORD ST","City":"MAYO","Zip":"32066","COUNTY":"LAFAYETTE","X":-83.174996309999997,"Y":30.054141770000001,"LONGLAT":"-83.17499631,30.05414177","USNG":"17R KP 90315 26778","OWNERSHIP":null,"PARCELID":null,"FACILITY_TYPE":"DISASTER RECOVERY CENTER","ADDRESSCITYZIP":"120 NE CRAWFORD ST MAYO , FL 32066"}},{"type":"Feature","id":176,"geometry":{"type":"Point","coordinates":[-83.292071893589195,30.195714268207961]},"properties":{"OBJECTID":176,"Name":"DAY COMMUNITY CENTER","Address":"4673 N COUNTY ROAD 53","City":"DAY","Zip":"32013","COUNTY":"LAFAYETTE","X":-83.292071890000003,"Y":30.19571427,"LONGLAT":"-83.29207189,30.19571427","USNG":"17R KP 79340 42693","OWNERSHIP":"COUNTY","PARCELID":"2603100005001000010","FACILITY_TYPE":"DISASTER RECOVERY CENTER","ADDRESSCITYZIP":"4673 N COUNTY ROAD 53 DAY , FL 32013"}},{"type":"Feature","id":177,"geometry":{"type":"Point","coordinates":[-81.87453670420976,28.806422532775287]},"properties":{"OBJECTID":177,"Name":"LEESBURG COMMUNITY CENTER","Address":"109 E DIXIE AVE","City":"LEESBURG","Zip":"34748","COUNTY":"LAKE","X":-81.874536699999993,"Y":28.806422529999999,"LONGLAT":"-81.87453670,28.80642253","USNG":"17R MM 14660 86853","OWNERSHIP":null,"PARCELID":null,"FACILITY_TYPE":"DISASTER RECOVERY CENTER","ADDRESSCITYZIP":"109 E DIXIE AVE LEESBURG , FL 34748"}},{"type":"Feature","id":178,"geometry":{"type":"Point","coordinates":[-81.856674716711439,28.559452154385333]},"properties":{"OBJECTID":178,"Name":"GROVELAND COMMUNITY CENTER","Address":"243 S LAKE AVE","City":"GROVELAND","Zip":"34736","COUNTY":"LAKE","X":-81.856674720000001,"Y":28.559452159999999,"LONGLAT":"-81.85667472,28.55945216","USNG":"17R MM 16206 59477","OWNERSHIP":null,"PARCELID":null,"FACILITY_TYPE":"DISASTER RECOVERY CENTER","ADDRESSCITYZIP":"243 S LAKE AVE GROVELAND , FL 34736"}},{"type":"Feature","id":179,"geometry":{"type":"Point","coordinates":[-81.786305299721093,28.825388499110066]},"properties":{"OBJECTID":179,"Name":"LAKE-VIA PORT MALL","Address":"10401 US HWY 441","City":"LEESBURG","Zip":"34788","COUNTY":"LAKE","X":-81.786305299999995,"Y":28.825388499999999,"LONGLAT":"-81.78630530,28.82538850","USNG":"17R MM 23284 88894","OWNERSHIP":null,"PARCELID":null,"FACILITY_TYPE":"DISASTER RECOVERY CENTER","ADDRESSCITYZIP":"10401 US HWY 441 LEESBURG , FL 34788"}},{"type":"Feature","id":180,"geometry":{"type":"Point","coordinates":[-81.653078999768439,28.815048999616671]},"properties":{"OBJECTID":180,"Name":"EUSTIS COMMUNITY CENTER","Address":"601 NORTHSIDE DRIVE","City":"MOUNT DORA","Zip":"32757","COUNTY":"LAKE","X":-81.653079000000005,"Y":28.815048999999998,"LONGLAT":"-81.65307900,28.81504900","USNG":"17R MM 36276 87669","OWNERSHIP":null,"PARCELID":"301927160000001400","FACILITY_TYPE":"DISASTER RECOVERY CENTER","ADDRESSCITYZIP":"601 NORTHSIDE DRIVE MOUNT DORA , FL 32757"}},{"type":"Feature","id":181,"geometry":{"type":"Point","coordinates":[-81.78653668075161,26.348573274475655]},"properties":{"OBJECTID":181,"Name":"BONITA SPRINGS RECREATIONAL CENTER (FIXED)","Address":"26740 PINE AVE","City":"BONITA SPRINGS","Zip":" ","COUNTY":"LEE","X":-81.786536679999998,"Y":26.34857328,"LONGLAT":"-81.78653668,26.34857328","USNG":"17R MK 21517 14526","OWNERSHIP":null,"PARCELID":null,"FACILITY_TYPE":"DISASTER RECOVERY CENTER","ADDRESSCITYZIP":"26740 PINE AVE BONITA SPRINGS , FL  "}},{"type":"Feature","id":182,"geometry":{"type":"Point","coordinates":[-81.814199120385268,26.471961651945467]},"properties":{"OBJECTID":182,"Name":"KARL DREWS COMMUNITY CENTER","Address":"18412 LEE RD.","City":"FORT MYERS","Zip":"33912","COUNTY":"LEE","X":-81.814199119999998,"Y":26.471961650000001,"LONGLAT":"-81.81419912,26.47196165","USNG":"17R MK 18843 28209","OWNERSHIP":null,"PARCELID":null,"FACILITY_TYPE":"DISASTER RECOVERY CENTER","ADDRESSCITYZIP":"18412 LEE RD. FORT MYERS , FL 33912"}},{"type":"Feature","id":183,"geometry":{"type":"Point","coordinates":[-81.815887123042231,26.676179931076977]},"properties":{"OBJECTID":183,"Name":"SCHANDLER HALL","Address":"419 FLORENCE AVE","City":"FORT MYERS","Zip":"33905","COUNTY":"LEE","X":null,"Y":null,"LONGLAT":null,"USNG":null,"OWNERSHIP":null,"PARCELID":null,"FACILITY_TYPE":"DISASTER RECOVERY CENTER","ADDRESSCITYZIP":"419 FLORENCE AVE FORT MYERS , FL 33905"}},{"type":"Feature","id":184,"geometry":{"type":"Point","coordinates":[-81.97584957168057,26.642056473802928]},"properties":{"OBJECTID":184,"Name":"LAKE KENNEDY CENTER","Address":"400 SANTA BARBARA BLVD.","City":"CAPE CORAL","Zip":"33991","COUNTY":"LEE","X":-81.975849569999994,"Y":26.64205647,"LONGLAT":"-81.97584957,26.64205647","USNG":"17R MK 02873 47161","OWNERSHIP":null,"PARCELID":null,"FACILITY_TYPE":"DISASTER RECOVERY CENTER","ADDRESSCITYZIP":"400 SANTA BARBARA BLVD. CAPE CORAL , FL 33991"}},{"type":"Feature","id":185,"geometry":{"type":"Point","coordinates":[-81.751004597247515,26.497228680923488]},"properties":{"OBJECTID":185,"Name":"EMERGENT TECH INSTITUTE (FIXED)","Address":"16301 INNOVATION LN","City":"FORT MYERS","Zip":"33913","COUNTY":"LEE","X":null,"Y":null,"LONGLAT":null,"USNG":null,"OWNERSHIP":null,"PARCELID":null,"FACILITY_TYPE":"DISASTER RECOVERY CENTER","ADDRESSCITYZIP":"16301 INNOVATION LN FORT MYERS , FL 33913"}},{"type":"Feature","id":186,"geometry":{"type":"Point","coordinates":[-81.940676394626365,26.450330181705421]},"properties":{"OBJECTID":186,"Name":"BAY OAKS RECREATION CENTER","Address":"2731 OAK ST","City":"FORT MYERS BEACH","Zip":"33931","COUNTY":"LEE","X":null,"Y":null,"LONGLAT":null,"USNG":null,"OWNERSHIP":null,"PARCELID":null,"FACILITY_TYPE":"DISASTER RECOVERY CENTER","ADDRESSCITYZIP":"2731 OAK ST FORT MYERS BEACH , FL 33931"}},{"type":"Feature","id":187,"geometry":{"type":"Point","coordinates":[-82.072374941377504,26.437243292753212]},"properties":{"OBJECTID":187,"Name":"SANIBEL COMMUNITY HOUSE","Address":"2173 PERIWINKLE RD","City":"SANIBEL-CAPTIVA","Zip":"22957","COUNTY":"LEE","X":null,"Y":null,"LONGLAT":null,"USNG":null,"OWNERSHIP":null,"PARCELID":null,"FACILITY_TYPE":"DISASTER RECOVERY CENTER","ADDRESSCITYZIP":"2173 PERIWINKLE RD SANIBEL-CAPTIVA , FL 22957"}},{"type":"Feature","id":188,"geometry":{"type":"Point","coordinates":[-81.852380641356618,26.633145676169427]},"properties":{"OBJECTID":188,"Name":"STARS COMPLEX","Address":"2980 EDISON AVE.","City":"FORT MYERS","Zip":"33916","COUNTY":"LEE","X":-81.852380640000007,"Y":26.633145679999998,"LONGLAT":"-81.85238064,26.63314568","USNG":"17R MK 15156 46086","OWNERSHIP":"MUNICIPAL","PARCELID":"194425P4004000010","FACILITY_TYPE":"DISASTER RECOVERY CENTER","ADDRESSCITYZIP":"2980 EDISON AVE. FORT MYERS , FL 33916"}},{"type":"Feature","id":189,"geometry":{"type":"Point","coordinates":[-84.292621047171039,30.4176962421719]},"properties":{"OBJECTID":189,"Name":"WALKER-FORD COMMUNITY CENTER","Address":"2281 PASCO ST","City":"TALLAHASSEE","Zip":"32310","COUNTY":"LEON","X":-84.292621049999994,"Y":30.417696240000001,"LONGLAT":"-84.29262105,30.41769624","USNG":"16R GU 60067 68183","OWNERSHIP":null,"PARCELID":null,"FACILITY_TYPE":"DISASTER RECOVERY CENTER","ADDRESSCITYZIP":"2281 PASCO ST TALLAHASSEE , FL 32310"}},{"type":"Feature","id":190,"geometry":{"type":"Point","coordinates":[-84.283731866378048,30.44263996488592]},"properties":{"OBJECTID":190,"Name":"LEROY COLLINS PUBLIC LIBRARY","Address":"200 W PARK AVE","City":"TALLAHASSEE","Zip":"32624","COUNTY":"LEON","X":-84.283731869999997,"Y":30.442639969999998,"LONGLAT":"-84.28373187,30.44263997","USNG":"16R GU 60855 70969","OWNERSHIP":null,"PARCELID":null,"FACILITY_TYPE":"DISASTER RECOVERY CENTER","ADDRESSCITYZIP":"200 W PARK AVE TALLAHASSEE , FL 32624"}},{"type":"Feature","id":191,"geometry":{"type":"Point","coordinates":[-84.274342747967509,30.453386239496574]},"properties":{"OBJECTID":191,"Name":"SUSAN HERNDON MCCOLLUM COMMUNITY CENTER","Address":"501 INGLESIDE DR","City":"TALLAHASSEE","Zip":"32303","COUNTY":"LEON","X":-84.274342750000002,"Y":30.45338624,"LONGLAT":"-84.27434275,30.45338624","USNG":"16R GU 61728 72182","OWNERSHIP":null,"PARCELID":null,"FACILITY_TYPE":"DISASTER RECOVERY CENTER","ADDRESSCITYZIP":"501 INGLESIDE DR TALLAHASSEE , FL 32303"}},{"type":"Feature","id":192,"geometry":{"type":"Point","coordinates":[-84.28499329312514,30.475555445320381]},"properties":{"OBJECTID":192,"Name":"TROUSDELL GYMNASTICS CENTER","Address":"326 JOHN KNOX RD","City":"TALLAHASSEE","Zip":"32303","COUNTY":"LEON","X":-84.284993290000003,"Y":30.475555450000002,"LONGLAT":"-84.28499329,30.47555545","USNG":"16R GU 60646 74616","OWNERSHIP":null,"PARCELID":"2124202080000","FACILITY_TYPE":"DISASTER RECOVERY CENTER","ADDRESSCITYZIP":"326 JOHN KNOX RD TALLAHASSEE , FL 32303"}},{"type":"Feature","id":193,"geometry":{"type":"Point","coordinates":[-82.879287434113152,29.506267957086681]},"properties":{"OBJECTID":193,"Name":"CHARLES STRICKLAND RECREATIONAL PARK","Address":"2340 NW OLD FANNING RD","City":"CHIEFLAND","Zip":"32626","COUNTY":"LEVY","X":-82.879287430000005,"Y":29.506267959999999,"LONGLAT":"-82.87928743,29.50626796","USNG":"17R LN 17839 65549","OWNERSHIP":null,"PARCELID":null,"FACILITY_TYPE":"DISASTER RECOVERY CENTER","ADDRESSCITYZIP":"2340 NW OLD FANNING RD CHIEFLAND , FL 32626"}},{"type":"Feature","id":194,"geometry":{"type":"Point","coordinates":[-82.649671989796047,29.451856421685076]},"properties":{"OBJECTID":194,"Name":"LEVY COUNTY AG EXTENSION","Address":"625 N HATHAWAY AVE","City":"BRONSON","Zip":"32621","COUNTY":"LEVY","X":-82.649671990000002,"Y":29.451856419999999,"LONGLAT":"-82.64967199,29.45185642","USNG":"17R LN 40014 59181","OWNERSHIP":null,"PARCELID":null,"FACILITY_TYPE":"DISASTER RECOVERY CENTER","ADDRESSCITYZIP":"625 N HATHAWAY AVE BRONSON , FL 32621"}},{"type":"Feature","id":195,"geometry":{"type":"Point","coordinates":[-82.864684699659136,29.475007599471123]},"properties":{"OBJECTID":195,"Name":"LEVY-TOMMY USHER CENTER","Address":"506 SW 4TH AVE","City":"CHIEFLAND","Zip":"32626","COUNTY":"LEVY","X":-82.864684699999998,"Y":29.475007600000001,"LONGLAT":"-82.86468470,29.47500760","USNG":"17R LN 19199 62062","OWNERSHIP":null,"PARCELID":null,"FACILITY_TYPE":"DISASTER RECOVERY CENTER","ADDRESSCITYZIP":"506 SW 4TH AVE CHIEFLAND , FL 32626"}},{"type":"Feature","id":196,"geometry":{"type":"Point","coordinates":[-81.608085258812693,26.721036937810673]},"properties":{"OBJECTID":196,"Name":"ALVA COMMUNITY CENTER","Address":"21471 N RIVER RD","City":"ALVA","Zip":"33920","COUNTY":"LEVY","X":null,"Y":null,"LONGLAT":null,"USNG":null,"OWNERSHIP":null,"PARCELID":null,"FACILITY_TYPE":"DISASTER RECOVERY CENTER","ADDRESSCITYZIP":"21471 N RIVER RD ALVA , FL 33920"}},{"type":"Feature","id":197,"geometry":{"type":"Point","coordinates":[-82.672736839922564,29.03287196204818]},"properties":{"OBJECTID":197,"Name":"CITY OF INGLIS TOWN HALL","Address":"129 HWY 40 W ","City":"INGLIS","Zip":" ","COUNTY":"LEVY","X":-82.672736839999999,"Y":29.032871960000001,"LONGLAT":"-82.67273684,29.03287196","USNG":"17R LN 37114 12781","OWNERSHIP":null,"PARCELID":null,"FACILITY_TYPE":"DISASTER RECOVERY CENTER","ADDRESSCITYZIP":"129 HWY 40 W  INGLIS , FL  "}},{"type":"Feature","id":198,"geometry":{"type":"Point","coordinates":[-84.777215456887944,30.39561634925429]},"properties":{"OBJECTID":198,"Name":"WOODMEN OF THE WORLD","Address":"22564 NE WOODMAN OF THE WORLD RD","City":"HOSFORD","Zip":"32334","COUNTY":"LIBERTY","X":-84.777215459999994,"Y":30.395616350000001,"LONGLAT":"-84.77721546,30.39561635","USNG":"16R GU 13553 64720","OWNERSHIP":null,"PARCELID":null,"FACILITY_TYPE":"DISASTER RECOVERY CENTER","ADDRESSCITYZIP":"22564 NE WOODMAN OF THE WORLD RD HOSFORD , FL 32334"}},{"type":"Feature","id":199,"geometry":{"type":"Point","coordinates":[-84.818532714550017,30.364236302484439]},"properties":{"OBJECTID":199,"Name":"HOSFORD TELOGIA FIRE DEPT.","Address":"20458 NE KEVER RD","City":"HOSFORD","Zip":"32334","COUNTY":"LIBERTY","X":-84.818532709999999,"Y":30.364236300000002,"LONGLAT":"-84.81853271,30.36423630","USNG":"16R GU 09649 61164","OWNERSHIP":null,"PARCELID":"027-1S-6W-00769 000","FACILITY_TYPE":"DISASTER RECOVERY CENTER","ADDRESSCITYZIP":"20458 NE KEVER RD HOSFORD , FL 32334"}},{"type":"Feature","id":200,"geometry":{"type":"Point","coordinates":[-84.981188714497776,30.422304255506567]},"properties":{"OBJECTID":200,"Name":"VETERANS MEMORIAL PARK","Address":"10405 NW THEO JACOBS WAY","City":"BRISTOL","Zip":"32321","COUNTY":"LIBERTY","X":-84.981188709999998,"Y":30.422304260000001,"LONGLAT":"-84.98118871,30.42230426","USNG":"16R FU 93899 67311","OWNERSHIP":"STATE","PARCELID":"006-1S-7W-01743 004","FACILITY_TYPE":"DISASTER RECOVERY CENTER","ADDRESSCITYZIP":"10405 NW THEO JACOBS WAY BRISTOL , FL 32321"}},{"type":"Feature","id":201,"geometry":{"type":"Point","coordinates":[-83.419222349037511,30.473364289457223]},"properties":{"OBJECTID":201,"Name":"NORTH FLORIDA COMMUNITY COLLEGE, VAN H. PRIEST AUDITORIUM","Address":"325 NW TURNER DAVIS DRIVE","City":"MADISON","Zip":"32340","COUNTY":"MADISON","X":-83.419222349999998,"Y":30.473364289999999,"LONGLAT":"-83.41922235,30.47336429","USNG":"17R KP 67753 73727","OWNERSHIP":"SPECIAL TAXING DISTRICT","PARCELID":"21-1N-09-3863-001-000","FACILITY_TYPE":"DISASTER RECOVERY CENTER","ADDRESSCITYZIP":"325 NW TURNER DAVIS DRIVE MADISON , FL 32340"}},{"type":"Feature","id":202,"geometry":{"type":"Point","coordinates":[-83.412429166959001,30.468348705710653]},"properties":{"OBJECTID":202,"Name":"MADISON COURTHOUSE ANNEX","Address":"229 SW PINCKNEY ST","City":"MADISON","Zip":"32340","COUNTY":"MADISON","X":-83.412429169999996,"Y":30.468348710000001,"LONGLAT":"-83.41242917,30.46834871","USNG":"17R KP 68393 73157","OWNERSHIP":"COUNTY","PARCELID":"00-00-00-3713-000-000","FACILITY_TYPE":"DISASTER RECOVERY CENTER","ADDRESSCITYZIP":"229 SW PINCKNEY ST MADISON , FL 32340"}},{"type":"Feature","id":203,"geometry":{"type":"Point","coordinates":[-83.412429166959001,30.468348705710653]},"properties":{"OBJECTID":203,"Name":"MADISON COURTHOUSE ANNEX","Address":"229 SW PINCKNEY ST","City":"MADISON","Zip":"32340","COUNTY":"MADISON","X":-83.412429169999996,"Y":30.468348710000001,"LONGLAT":"-83.41242917,30.46834871","USNG":"17R KP 68393 73157","OWNERSHIP":"COUNTY","PARCELID":"00-00-00-3713-000-000","FACILITY_TYPE":"DISASTER RECOVERY CENTER","ADDRESSCITYZIP":"229 SW PINCKNEY ST MADISON , FL 32340"}},{"type":"Feature","id":204,"geometry":{"type":"Point","coordinates":[-83.412429166959001,30.468348705710653]},"properties":{"OBJECTID":204,"Name":"MADISON COURTHOUSE ANNEX","Address":"229 SW PINCKNEY ST","City":"MADISON","Zip":"32340","COUNTY":"MADISON","X":-83.412429169999996,"Y":30.468348710000001,"LONGLAT":"-83.41242917,30.46834871","USNG":"17R KP 68393 73157","OWNERSHIP":"COUNTY","PARCELID":"00-00-00-3713-000-000","FACILITY_TYPE":"DISASTER RECOVERY CENTER","ADDRESSCITYZIP":"229 SW PINCKNEY ST MADISON , FL 32340"}},{"type":"Feature","id":205,"geometry":{"type":"Point","coordinates":[-82.561650356181815,27.514987294735558]},"properties":{"OBJECTID":205,"Name":"DRC 13 - MANATEE COUNTY CONVENTION CENTER","Address":"1 HABEN BLVD","City":"PALMETTO","Zip":"34221","COUNTY":"MANATEE","X":-82.561650360000002,"Y":27.514987300000001,"LONGLAT":"-82.56165036,27.51498730","USNG":"17R LL 45761 44448","OWNERSHIP":"COUNTY","PARCELID":"2604500005","FACILITY_TYPE":"DISASTER RECOVERY CENTER","ADDRESSCITYZIP":"1 HABEN BLVD PALMETTO , FL 34221"}},{"type":"Feature","id":206,"geometry":{"type":"Point","coordinates":[-82.619354511381502,27.467547197312342]},"properties":{"OBJECTID":206,"Name":"BRADENTON Y.M.C.A.","Address":"3805 59TH STREET WEST","City":"BRADENTON","Zip":"34209","COUNTY":"MANATEE","X":-82.619354509999994,"Y":27.467547199999998,"LONGLAT":"-82.61935451,27.46754720","USNG":"17R LL 39992 39265","OWNERSHIP":null,"PARCELID":"5111110002","FACILITY_TYPE":"DISASTER RECOVERY CENTER","ADDRESSCITYZIP":"3805 59TH STREET WEST BRADENTON , FL 34209"}},{"type":"Feature","id":207,"geometry":{"type":"Point","coordinates":[-80.223554649176677,27.194503410495436]},"properties":{"OBJECTID":207,"Name":"BLAKE LIBRARY","Address":"2351 SE MONTEREY RD","City":"STUART","Zip":"34996","COUNTY":"MARTIN","X":-80.223554649999997,"Y":27.194503409999999,"LONGLAT":"-80.22355465,27.19450341","USNG":"17R NL 76903 08216","OWNERSHIP":null,"PARCELID":null,"FACILITY_TYPE":"DISASTER RECOVERY CENTER","ADDRESSCITYZIP":"2351 SE MONTEREY RD STUART , FL 34996"}},{"type":"Feature","id":208,"geometry":{"type":"Point","coordinates":[-80.220626915469282,27.134187168220386]},"properties":{"OBJECTID":208,"Name":"ROBERT MORGADE LIBRARY","Address":"5851 SE COMMUNITY DR","City":"STUART","Zip":"34997","COUNTY":"MARTIN","X":-80.220626920000001,"Y":27.134187170000001,"LONGLAT":"-80.22062692,27.13418717","USNG":"17R NL 77235 01537","OWNERSHIP":null,"PARCELID":null,"FACILITY_TYPE":"DISASTER RECOVERY CENTER","ADDRESSCITYZIP":"5851 SE COMMUNITY DR STUART , FL 34997"}},{"type":"Feature","id":209,"geometry":{"type":"Point","coordinates":[-80.221846960358732,27.224463151597359]},"properties":{"OBJECTID":209,"Name":"JENSEN BEACH RECREATION CENTER","Address":"2369 NE DIXIE HWY","City":"JENSEN BEACH","Zip":"34957","COUNTY":"MARTIN","X":-80.221846959999993,"Y":27.224463149999998,"LONGLAT":"-80.22184696,27.22446315","USNG":"17R NL 77052 11536","OWNERSHIP":null,"PARCELID":null,"FACILITY_TYPE":"DISASTER RECOVERY CENTER","ADDRESSCITYZIP":"2369 NE DIXIE HWY JENSEN BEACH , FL 34957"}},{"type":"Feature","id":210,"geometry":{"type":"Point","coordinates":[-80.207116868362107,27.146253849712203]},"properties":{"OBJECTID":210,"Name":"PORT SALERNO ELEMENTARY SCHOOL","Address":"4890 SE JACK AVE","City":"STUART","Zip":"34997","COUNTY":"MARTIN","X":-80.207116869999993,"Y":27.146253850000001,"LONGLAT":"-80.20711687,27.14625385","USNG":"17R NL 78565 02882","OWNERSHIP":"COUNTY","PARCELID":"523841000000010003","FACILITY_TYPE":"DISASTER RECOVERY CENTER","ADDRESSCITYZIP":"4890 SE JACK AVE STUART , FL 34997"}},{"type":"Feature","id":211,"geometry":{"type":"Point","coordinates":[-80.233215804921116,25.825263555971649]},"properties":{"OBJECTID":211,"Name":"JOSEPH CALEB COMMUNITY CENTER","Address":"5400 NW 22ND AVE STE 301","City":"MIAMI","Zip":"33142","COUNTY":"MIAMI-DADE","X":-80.233215799999996,"Y":25.82526356,"LONGLAT":"-80.23321580,25.82526356","USNG":"17R NJ 76852 56557","OWNERSHIP":null,"PARCELID":null,"FACILITY_TYPE":"DISASTER RECOVERY CENTER","ADDRESSCITYZIP":"5400 NW 22ND AVE STE 301 MIAMI , FL 33142"}},{"type":"Feature","id":212,"geometry":{"type":"Point","coordinates":[-80.377092499718444,25.565542699316744]},"properties":{"OBJECTID":212,"Name":"MD-GOULD'S PARK (FIXED)","Address":"11350 SW 216TH ST ","City":"MIAMI","Zip":"33170","COUNTY":"MIAMI-DADE","X":-80.377092500000003,"Y":25.565542700000002,"LONGLAT":"-80.37709250,25.56554270","USNG":"17R NJ 62567 27718","OWNERSHIP":null,"PARCELID":null,"FACILITY_TYPE":"DISASTER RECOVERY CENTER","ADDRESSCITYZIP":"11350 SW 216TH ST  MIAMI , FL 33170"}},{"type":"Feature","id":213,"geometry":{"type":"Point","coordinates":[-80.44193579965129,25.671695898986673]},"properties":{"OBJECTID":213,"Name":"MD-WEST KENDALL REGIONAL LIBRARY","Address":"10201 HAMMOCKS BLVD","City":"MIAMI","Zip":"33196","COUNTY":"MIAMI-DADE","X":-80.441935799999996,"Y":25.6716959,"LONGLAT":"-80.44193580,25.67169590","USNG":"17R NJ 56004 39445","OWNERSHIP":null,"PARCELID":null,"FACILITY_TYPE":"DISASTER RECOVERY CENTER","ADDRESSCITYZIP":"10201 HAMMOCKS BLVD MIAMI , FL 33196"}},{"type":"Feature","id":214,"geometry":{"type":"Point","coordinates":[-80.235406999982359,25.837904999337127]},"properties":{"OBJECTID":214,"Name":"MD-NFL YET CENTER","Address":"7090 NW 22ND AVE","City":"MIAMI","Zip":" ","COUNTY":"MIAMI-DADE","X":-80.235406999999995,"Y":25.837904999999999,"LONGLAT":"-80.23540700,25.83790500","USNG":"17R NJ 76624 57955","OWNERSHIP":null,"PARCELID":null,"FACILITY_TYPE":"DISASTER RECOVERY CENTER","ADDRESSCITYZIP":"7090 NW 22ND AVE MIAMI , FL  "}},{"type":"Feature","id":215,"geometry":{"type":"Point","coordinates":[-80.374053299728217,25.673735999048997]},"properties":{"OBJECTID":215,"Name":"MIAMI-DADE COLLEGE KENDALL CAMPUS BLDG. K (FIXED)","Address":"11011 SW 104TH ST","City":"MIAMI","Zip":"33146","COUNTY":"MIAMI-DADE","X":-80.3740533,"Y":25.673736000000002,"LONGLAT":"-80.37405330,25.67373600","USNG":"17R NJ 62816 39701","OWNERSHIP":null,"PARCELID":null,"FACILITY_TYPE":"DISASTER RECOVERY CENTER","ADDRESSCITYZIP":"11011 SW 104TH ST MIAMI , FL 33146"}},{"type":"Feature","id":216,"geometry":{"type":"Point","coordinates":[-80.196662099689931,25.775252899562901]},"properties":{"OBJECTID":216,"Name":"MD-STEPHEN P CLARK (FIXED)","Address":"111 NW 1ST ST","City":"MIAMI ","Zip":"33128","COUNTY":"MIAMI-DADE","X":-80.196662099999998,"Y":25.775252900000002,"LONGLAT":"-80.19666210,25.77525290","USNG":"17R NJ 80550 51040","OWNERSHIP":null,"PARCELID":null,"FACILITY_TYPE":"DISASTER RECOVERY CENTER","ADDRESSCITYZIP":"111 NW 1ST ST MIAMI  , FL 33128"}},{"type":"Feature","id":217,"geometry":{"type":"Point","coordinates":[-80.370763815286793,25.748269598293721]},"properties":{"OBJECTID":217,"Name":"E. DARWIN FUCHS PAVILION AT TAMIAMI PARK","Address":"10901 SW 24TH STREET","City":"MIAMI","Zip":"33165","COUNTY":"MIAMI-DADE","X":-80.370763819999993,"Y":25.7482696,"LONGLAT":"-80.37076382,25.74826960","USNG":"17R NJ 63106 47957","OWNERSHIP":"COUNTY","PARCELID":"3040070000010","FACILITY_TYPE":"DISASTER RECOVERY CENTER","ADDRESSCITYZIP":"10901 SW 24TH STREET MIAMI , FL 33165"}},{"type":"Feature","id":218,"geometry":{"type":"Point","coordinates":[-81.027002387216541,24.729261479783549]},"properties":{"OBJECTID":218,"Name":"SAN PABLO CATHOLIC CHURCH","Address":"550 122ND ST OCEAN","City":"MARATHON","Zip":"33050","COUNTY":"MONROE","X":-81.027002390000007,"Y":24.729261480000002,"LONGLAT":"-81.02700239,24.72926148","USNG":"17R MH 97269 34970","OWNERSHIP":null,"PARCELID":"0566 33 00100450000000","FACILITY_TYPE":"DISASTER RECOVERY CENTER","ADDRESSCITYZIP":"550 122ND ST OCEAN MARATHON , FL 33050"}},{"type":"Feature","id":219,"geometry":{"type":"Point","coordinates":[-81.342877227240805,24.668036400172745]},"properties":{"OBJECTID":219,"Name":"SAINT PETER'S CATHOLIC CHURCH","Address":"31300 OVERSEAS HWY","City":"BIG PINE KEY","Zip":"33043","COUNTY":"MONROE","X":-81.342877229999999,"Y":24.668036399999998,"LONGLAT":"-81.34287723,24.66803640","USNG":"17R MH 65307 28234","OWNERSHIP":null,"PARCELID":"2566 29 00110400000000","FACILITY_TYPE":"DISASTER RECOVERY CENTER","ADDRESSCITYZIP":"31300 OVERSEAS HWY BIG PINE KEY , FL 33043"}},{"type":"Feature","id":220,"geometry":{"type":"Point","coordinates":[-81.358522498744591,24.668709709449885]},"properties":{"OBJECTID":220,"Name":"HABITAT FOR HUMANITY","Address":"30233 OVERSEAS HWY","City":"BIG PINE KEY","Zip":"33043","COUNTY":"MONROE","X":-81.358522500000007,"Y":24.668709710000002,"LONGLAT":"-81.35852250,24.66870971","USNG":"17R MH 63725 28312","OWNERSHIP":null,"PARCELID":"2666 29 00111690000300","FACILITY_TYPE":"DISASTER RECOVERY CENTER","ADDRESSCITYZIP":"30233 OVERSEAS HWY BIG PINE KEY , FL 33043"}},{"type":"Feature","id":221,"geometry":{"type":"Point","coordinates":[-81.354554956418966,24.669291549076036]},"properties":{"OBJECTID":221,"Name":"OLD BANK OF AMERICA BLDG. (FIXED)","Address":"30572 OVERSEAS HWY.","City":"BIG PINE KEY","Zip":"33043","COUNTY":"MONROE","X":-81.354554960000002,"Y":24.669291550000001,"LONGLAT":"-81.35455496,24.66929155","USNG":"17R MH 64126 28376","OWNERSHIP":null,"PARCELID":null,"FACILITY_TYPE":"DISASTER RECOVERY CENTER","ADDRESSCITYZIP":"30572 OVERSEAS HWY. BIG PINE KEY , FL 33043"}},{"type":"Feature","id":222,"geometry":{"type":"Point","coordinates":[-80.636758080911818,24.917534136928879]},"properties":{"OBJECTID":222,"Name":"MONROE COUNTY PUBLIC LIBRARY","Address":"81850 OVERSEAS HWY","City":"ISLAMORADA","Zip":"33036","COUNTY":"MONROE","X":-80.636758080000007,"Y":24.917534140000001,"LONGLAT":"-80.63675808,24.91753414","USNG":"17R NH 36679 55865","OWNERSHIP":"COUNTY","PARCELID":"3263 37 00095080000000","FACILITY_TYPE":"DISASTER RECOVERY CENTER","ADDRESSCITYZIP":"81850 OVERSEAS HWY ISLAMORADA , FL 33036"}},{"type":"Feature","id":223,"geometry":{"type":"Point","coordinates":[-81.049640441484144,24.725544519450775]},"properties":{"OBJECTID":223,"Name":"MARATHON AIRPORT BASE CAMP","Address":"9400 OVERSEAS HWY","City":"MARATHON","Zip":"33050","COUNTY":"MONROE","X":-81.049640440000005,"Y":24.72554452,"LONGLAT":"-81.04964044,24.72554452","USNG":"17R MH 94979 34559","OWNERSHIP":"COUNTY","PARCELID":"0166 32 00101160000000","FACILITY_TYPE":"DISASTER RECOVERY CENTER","ADDRESSCITYZIP":"9400 OVERSEAS HWY MARATHON , FL 33050"}},{"type":"Feature","id":224,"geometry":{"type":"Point","coordinates":[-81.359742573538213,24.674489904134276]},"properties":{"OBJECTID":224,"Name":"BIG PINE VOL FIRE STATION/EMS #13","Address":"400 KEY DEER BLVD","City":"BIG PINE KEY","Zip":"33043","COUNTY":"MONROE","X":-81.359742569999995,"Y":24.674489900000001,"LONGLAT":"-81.35974257,24.67448990","USNG":"17R MH 63603 28952","OWNERSHIP":"COUNTY","PARCELID":"2666 29 00111460000000","FACILITY_TYPE":"DISASTER RECOVERY CENTER","ADDRESSCITYZIP":"400 KEY DEER BLVD BIG PINE KEY , FL 33043"}},{"type":"Feature","id":225,"geometry":{"type":"Point","coordinates":[-81.356001694220481,24.675087630361084]},"properties":{"OBJECTID":225,"Name":"BIG PINE MOOSE LODGE #1585","Address":"21 WILDER RD","City":"BIG PINE KEY","Zip":"33043","COUNTY":"MONROE","X":-81.356001689999999,"Y":24.67508763,"LONGLAT":"-81.35600169,24.67508763","USNG":"17R MH 63981 29018","OWNERSHIP":null,"PARCELID":"2666 29 00111680000000","FACILITY_TYPE":"DISASTER RECOVERY CENTER","ADDRESSCITYZIP":"21 WILDER RD BIG PINE KEY , FL 33043"}},{"type":"Feature","id":226,"geometry":{"type":"Point","coordinates":[-80.383174064338277,25.162040996012124]},"properties":{"OBJECTID":226,"Name":"ST. JUSTIN THE MARTYR CATHOLIC CHURCH","Address":"105500 OVERSEAS HWY","City":"KEY LARGO","Zip":"33037","COUNTY":"MONROE","X":-80.383174060000002,"Y":25.162040999999999,"LONGLAT":"-80.38317406,25.16204100","USNG":"17R NH 62162 83032","OWNERSHIP":null,"PARCELID":null,"FACILITY_TYPE":"DISASTER RECOVERY CENTER","ADDRESSCITYZIP":"105500 OVERSEAS HWY KEY LARGO , FL 33037"}},{"type":"Feature","id":227,"geometry":{"type":"Point","coordinates":[-81.801428000288354,24.556141999299527]},"properties":{"OBJECTID":227,"Name":"MRIC","Address":" ","City":" ","Zip":" ","COUNTY":"MONROE","X":-81.801428000000001,"Y":24.556142000000001,"LONGLAT":"-81.80142800,24.55614200","USNG":"17R MH 18838 16037","OWNERSHIP":null,"PARCELID":null,"FACILITY_TYPE":"DISASTER RECOVERY CENTER","ADDRESSCITYZIP":"    , FL  "}},{"type":"Feature","id":228,"geometry":{"type":"Point","coordinates":[-81.764504030807075,24.561173460232119]},"properties":{"OBJECTID":228,"Name":"3126 FLAGLER AVE, KEY WEST, FL 33040 (FIXED)","Address":"3126 FLAGLER AVE","City":"KEY WEST","Zip":"33040","COUNTY":"MONROE","X":-81.764504029999998,"Y":24.561173459999999,"LONGLAT":"-81.76450403,24.56117346","USNG":"17R MH 22580 16573","OWNERSHIP":null,"PARCELID":null,"FACILITY_TYPE":"DISASTER RECOVERY CENTER","ADDRESSCITYZIP":"3126 FLAGLER AVE KEY WEST , FL 33040"}},{"type":"Feature","id":229,"geometry":{"type":"Point","coordinates":[-81.065253670727799,24.718731435411964]},"properties":{"OBJECTID":229,"Name":"6805 OVERSEAS HWY, MARATHON, FL 33050 (FIXED)","Address":"6805 OVERSEAS HWY","City":"MARATHON","Zip":"33050","COUNTY":"MONROE","X":null,"Y":null,"LONGLAT":null,"USNG":null,"OWNERSHIP":null,"PARCELID":null,"FACILITY_TYPE":"DISASTER RECOVERY CENTER","ADDRESSCITYZIP":"6805 OVERSEAS HWY MARATHON , FL 33050"}},{"type":"Feature","id":230,"geometry":{"type":"Point","coordinates":[-81.765622948255952,24.561590552953451]},"properties":{"OBJECTID":230,"Name":"KEY WEST FIRE ST 3","Address":"1525 KENNEDY DR","City":"KEY WEST","Zip":"33040","COUNTY":"MONROE","X":-81.765622949999994,"Y":24.561590549999998,"LONGLAT":"-81.76562295,24.56159055","USNG":"17R MH 22467 16620","OWNERSHIP":"MUNICIPAL","PARCELID":"3367 25 00064570000000","FACILITY_TYPE":"DISASTER RECOVERY CENTER","ADDRESSCITYZIP":"1525 KENNEDY DR KEY WEST , FL 33040"}},{"type":"Feature","id":231,"geometry":{"type":"Point","coordinates":[-81.78681180303326,24.558128766094775]},"properties":{"OBJECTID":231,"Name":"KEY WEST FIRE ST 1","Address":"1600 N ROOSEVELT BLVD","City":"KEY WEST","Zip":"33040","COUNTY":"MONROE","X":-81.786811799999995,"Y":24.55812877,"LONGLAT":"-81.78681180,24.55812877","USNG":"17R MH 20319 16248","OWNERSHIP":"MUNICIPAL","PARCELID":"0568 25 00064920000000","FACILITY_TYPE":"DISASTER RECOVERY CENTER","ADDRESSCITYZIP":"1600 N ROOSEVELT BLVD KEY WEST , FL 33040"}},{"type":"Feature","id":232,"geometry":{"type":"Point","coordinates":[-81.78681180303326,24.558128766094775]},"properties":{"OBJECTID":232,"Name":"KEY WEST FIRE ST 1","Address":"1600 N ROOSEVELT BLVD","City":"KEY WEST","Zip":"33040","COUNTY":"MONROE","X":-81.786811799999995,"Y":24.55812877,"LONGLAT":"-81.78681180,24.55812877","USNG":"17R MH 20319 16248","OWNERSHIP":"MUNICIPAL","PARCELID":"0568 25 00064920000000","FACILITY_TYPE":"DISASTER RECOVERY CENTER","ADDRESSCITYZIP":"1600 N ROOSEVELT BLVD KEY WEST , FL 33040"}},{"type":"Feature","id":233,"geometry":{"type":"Point","coordinates":[-81.457749462943553,30.663963168200247]},"properties":{"OBJECTID":233,"Name":"PECK CENTER (TENTATIVE - AGREEMENT BEING OBTAINED)","Address":"516 S 10TH ST","City":"FERNANDINA BEACH","Zip":"32034","COUNTY":"NASSAU","X":-81.457749460000002,"Y":30.663963169999999,"LONGLAT":"-81.45774946,30.66396317","USNG":"17R MP 56147 92450","OWNERSHIP":"MUNICIPAL","PARCELID":"00-00-31-1800-0143-0082","FACILITY_TYPE":"DISASTER RECOVERY CENTER","ADDRESSCITYZIP":"516 S 10TH ST FERNANDINA BEACH , FL 32034"}},{"type":"Feature","id":234,"geometry":{"type":"Point","coordinates":[-81.934788454152979,30.392136116155235]},"properties":{"OBJECTID":234,"Name":"BRYCEVILLE COMMUNITY CENTER","Address":"7280 MOTES RD","City":"BRYCEVILLE","Zip":"32009","COUNTY":"NASSAU","X":-81.934788449999999,"Y":30.39213612,"LONGLAT":"-81.93478845,30.39213612","USNG":"17R MP 10196 62609","OWNERSHIP":null,"PARCELID":null,"FACILITY_TYPE":"DISASTER RECOVERY CENTER","ADDRESSCITYZIP":"7280 MOTES RD BRYCEVILLE , FL 32009"}},{"type":"Feature","id":235,"geometry":{"type":"Point","coordinates":[-81.630185190930206,30.612655681706432]},"properties":{"OBJECTID":235,"Name":"NASSAU COUNTY EOC","Address":"77150 CITIZENS CIR","City":"YULEE","Zip":"32097","COUNTY":"NASSAU","X":-81.630185190000006,"Y":30.61265568,"LONGLAT":"-81.63018519,30.61265568","USNG":"17R MP 39596 86844","OWNERSHIP":"COUNTY","PARCELID":"08-2N-27-0000-0003-0040","FACILITY_TYPE":"DISASTER RECOVERY CENTER","ADDRESSCITYZIP":"77150 CITIZENS CIR YULEE , FL 32097"}},{"type":"Feature","id":236,"geometry":{"type":"Point","coordinates":[-86.630751000044313,30.409518998528725]},"properties":{"OBJECTID":236,"Name":"FWB SENIOR COMMUNITY CENTER","Address":"31 MEMORIAL SW","City":"FORT WALTON BEACH","Zip":"32548","COUNTY":"OKALOOSA","X":-86.630751000000004,"Y":30.409519,"LONGLAT":"-86.63075100,30.40951900","USNG":"16R EU 35466 64222","OWNERSHIP":null,"PARCELID":"14-2S-24-2180-000A-0010","FACILITY_TYPE":"DISASTER RECOVERY CENTER","ADDRESSCITYZIP":"31 MEMORIAL SW FORT WALTON BEACH , FL 32548"}},{"type":"Feature","id":237,"geometry":{"type":"Point","coordinates":[-86.618810663017726,30.407310296034925]},"properties":{"OBJECTID":237,"Name":"ST. MARY'S CATHOLIC CHURCH & SCHOOL","Address":"110 ROBINWOOD DR SW","City":"FORT WALTON BEACH","Zip":"32548","COUNTY":"OKALOOSA","X":-86.618810659999994,"Y":30.407310299999999,"LONGLAT":"-86.61881066,30.40731030","USNG":"16R EU 36613 63981","OWNERSHIP":null,"PARCELID":"14-2S-24-221E-000H-0010","FACILITY_TYPE":"DISASTER RECOVERY CENTER","ADDRESSCITYZIP":"110 ROBINWOOD DR SW FORT WALTON BEACH , FL 32548"}},{"type":"Feature","id":238,"geometry":{"type":"Point","coordinates":[-86.560367203004205,30.774938360516245]},"properties":{"OBJECTID":238,"Name":"SENIOR PARK CENTER","Address":"205 STILLWELL BLVD","City":"CRESTVIEW","Zip":"32536","COUNTY":"OKALOOSA","X":-86.560367200000002,"Y":30.77493836,"LONGLAT":"-86.56036720,30.77493836","USNG":"16R EV 42068 04742","OWNERSHIP":"MUNICIPAL","PARCELID":"08-3N-23-0000-0001-002A","FACILITY_TYPE":"DISASTER RECOVERY CENTER","ADDRESSCITYZIP":"205 STILLWELL BLVD CRESTVIEW , FL 32536"}},{"type":"Feature","id":239,"geometry":{"type":"Point","coordinates":[-86.623288000185767,30.41601099906584]},"properties":{"OBJECTID":239,"Name":"HEDRICK REC CENTER","Address":"132 JET DR. NW","City":"FORT WALTON BEACH","Zip":"32548","COUNTY":"OKALOOSA","X":-86.623288000000002,"Y":30.416011000000001,"LONGLAT":"-86.62328800,30.41601100","USNG":"16R EU 36180 64944","OWNERSHIP":"MUNICIPAL","PARCELID":"14-2S-24-1190-0000-00L1","FACILITY_TYPE":"DISASTER RECOVERY CENTER","ADDRESSCITYZIP":"132 JET DR. NW FORT WALTON BEACH , FL 32548"}},{"type":"Feature","id":240,"geometry":{"type":"Point","coordinates":[-80.828218999931664,27.22242899911631]},"properties":{"OBJECTID":240,"Name":"OKEECHOBEE COUNTY CIVIC CENTER","Address":"1750 HWY 98N","City":"OKEECHOBEE","Zip":"34974","COUNTY":"OKEECHOBEE","X":-80.828219000000004,"Y":27.222429000000002,"LONGLAT":"-80.82821900,27.22242900","USNG":"17R NL 17009 11083","OWNERSHIP":null,"PARCELID":"2-27-37-35-0A00-00012-A000","FACILITY_TYPE":"DISASTER RECOVERY CENTER","ADDRESSCITYZIP":"1750 HWY 98N OKEECHOBEE , FL 34974"}},{"type":"Feature","id":241,"geometry":{"type":"Point","coordinates":[-80.837166575453708,27.248546719348415]},"properties":{"OBJECTID":241,"Name":"OKEECHOBEE COUNTY EOC","Address":"707 NW 6TH ST","City":"OKEECHOBEE","Zip":"34972","COUNTY":"OKEECHOBEE","X":-80.837166580000002,"Y":27.24854672,"LONGLAT":"-80.83716658,27.24854672","USNG":"17R NL 16119 13975","OWNERSHIP":"COUNTY","PARCELID":null,"FACILITY_TYPE":"DISASTER RECOVERY CENTER","ADDRESSCITYZIP":"707 NW 6TH ST OKEECHOBEE , FL 34972"}},{"type":"Feature","id":242,"geometry":{"type":"Point","coordinates":[-81.405591832440678,28.571329231356451]},"properties":{"OBJECTID":242,"Name":"2250 N ORANGE BLOSSOM TRAIL, ORLANDO, FL 32804 (FIXED)","Address":"2250 N ORANGE BLOSSOM TRAIL","City":"ORLANDO","Zip":"32804","COUNTY":"ORANGE","X":-81.405591830000006,"Y":28.57132923,"LONGLAT":"-81.40559183,28.57132923","USNG":"17R MM 60333 60561","OWNERSHIP":null,"PARCELID":null,"FACILITY_TYPE":"DISASTER RECOVERY CENTER","ADDRESSCITYZIP":"2250 N ORANGE BLOSSOM TRAIL ORLANDO , FL 32804"}},{"type":"Feature","id":243,"geometry":{"type":"Point","coordinates":[-81.258664099918988,28.496898999034496]},"properties":{"OBJECTID":243,"Name":"ORANGE-RENAISSANCE SENIOR CENTER","Address":"3800 S ECONLOCKHATCHEE TRL","City":"ORLANDO","Zip":"32829","COUNTY":"ORANGE","X":-81.258664100000004,"Y":28.496898999999999,"LONGLAT":"-81.25866410,28.49689900","USNG":"17R MM 74685 52275","OWNERSHIP":null,"PARCELID":null,"FACILITY_TYPE":"DISASTER RECOVERY CENTER","ADDRESSCITYZIP":"3800 S ECONLOCKHATCHEE TRL ORLANDO , FL 32829"}},{"type":"Feature","id":244,"geometry":{"type":"Point","coordinates":[-81.384251000074045,28.548937998893923]},"properties":{"OBJECTID":244,"Name":"ORANGE-CENTRAPLEX","Address":" ","City":" ","Zip":" ","COUNTY":"ORANGE","X":-81.384251000000006,"Y":28.548938,"LONGLAT":"-81.38425100,28.54893800","USNG":"17R MM 62412 58073","OWNERSHIP":null,"PARCELID":null,"FACILITY_TYPE":"DISASTER RECOVERY CENTER","ADDRESSCITYZIP":"    , FL  "}},{"type":"Feature","id":245,"geometry":{"type":"Point","coordinates":[-81.286963032233743,28.56564318962462]},"properties":{"OBJECTID":245,"Name":"GOLDENROD FACILITY","Address":"1602 N GOLDENROD RD","City":"ORLANDO","Zip":"32807","COUNTY":"ORANGE","X":-81.286963029999995,"Y":28.565643189999999,"LONGLAT":"-81.28696303,28.56564319","USNG":"17R MM 71933 59897","OWNERSHIP":null,"PARCELID":null,"FACILITY_TYPE":"DISASTER RECOVERY CENTER","ADDRESSCITYZIP":"1602 N GOLDENROD RD ORLANDO , FL 32807"}},{"type":"Feature","id":246,"geometry":{"type":"Point","coordinates":[-81.459317200123621,28.520777698924221]},"properties":{"OBJECTID":246,"Name":"ORANGE-VALENCIA STATE COLLEGE (FIXED)","Address":"","City":"ORLANDO","Zip":"32801","COUNTY":"ORANGE","X":-81.459317200000001,"Y":28.5207777,"LONGLAT":"-81.45931720,28.52077770","USNG":"17R MM 55057 54979","OWNERSHIP":null,"PARCELID":null,"FACILITY_TYPE":"DISASTER RECOVERY CENTER","ADDRESSCITYZIP":" ORLANDO , FL 32801"}},{"type":"Feature","id":247,"geometry":{"type":"Point","coordinates":[-81.507788399799452,28.699938098892495]},"properties":{"OBJECTID":247,"Name":"ORANGE-APOPKA SERVICE CENTER","Address":"1111 ROCK SPRINGS RD","City":"APOPKA","Zip":"32712","COUNTY":"ORANGE","X":-81.507788399999995,"Y":28.699938100000001,"LONGLAT":"-81.50778840,28.69993810","USNG":"17R MM 50398 74847","OWNERSHIP":null,"PARCELID":null,"FACILITY_TYPE":"DISASTER RECOVERY CENTER","ADDRESSCITYZIP":"1111 ROCK SPRINGS RD APOPKA , FL 32712"}},{"type":"Feature","id":248,"geometry":{"type":"Point","coordinates":[-81.464810179358381,28.521201082360612]},"properties":{"OBJECTID":248,"Name":"VALENCIA COMMUNITY COLLEGE - WEST CAMPUS","Address":"","City":"ORLANDO","Zip":"32835","COUNTY":"ORANGE","X":-81.464810180000001,"Y":28.521201080000001,"LONGLAT":"-81.46481018,28.52120108","USNG":"17R MM 54520 55028","OWNERSHIP":"STATE","PARCELID":"282301000000002","FACILITY_TYPE":"DISASTER RECOVERY CENTER","ADDRESSCITYZIP":" ORLANDO , FL 32835"}},{"type":"Feature","id":249,"geometry":{"type":"Point","coordinates":[-81.306116193724165,28.240455214236569]},"properties":{"OBJECTID":249,"Name":"BALL FIELD BEHIND SENIOR CENTER","Address":"3101 17TH ST","City":"SAINT CLOUD","Zip":"34769","COUNTY":"OSCEOLA","X":-81.306116189999997,"Y":28.240455220000001,"LONGLAT":"-81.30611619,28.24045522","USNG":"17R MM 69968 23877","OWNERSHIP":"OTHER PUBLIC","PARCELID":"10-26-30-00U0-0030-0000","FACILITY_TYPE":"DISASTER RECOVERY CENTER","ADDRESSCITYZIP":"3101 17TH ST SAINT CLOUD , FL 34769"}},{"type":"Feature","id":250,"geometry":{"type":"Point","coordinates":[-81.306821149153691,28.241753819501334]},"properties":{"OBJECTID":250,"Name":"GYMNASIUM-B","Address":"3001 17TH ST","City":"SAINT CLOUD","Zip":"34769","COUNTY":"OSCEOLA","X":-81.306821150000005,"Y":28.24175382,"LONGLAT":"-81.30682115,28.24175382","USNG":"17R MM 69900 24021","OWNERSHIP":"OTHER PUBLIC","PARCELID":"10-26-30-00U0-0030-0000","FACILITY_TYPE":"DISASTER RECOVERY CENTER","ADDRESSCITYZIP":"3001 17TH ST SAINT CLOUD , FL 34769"}},{"type":"Feature","id":251,"geometry":{"type":"Point","coordinates":[-81.403786175546998,28.291908815176772]},"properties":{"OBJECTID":251,"Name":"OSCEOLA COUNTY PUBLIC LIBRARY HART MEMORIAL","Address":"211 E DAKIN AVE","City":"KISSIMMEE","Zip":"34741","COUNTY":"OSCEOLA","X":-81.403786179999997,"Y":28.29190882,"LONGLAT":"-81.40378618,28.29190882","USNG":"17R MM 60406 29605","OWNERSHIP":"MUNICIPAL","PARCELID":"22-25-29-1591-0001-0020","FACILITY_TYPE":"DISASTER RECOVERY CENTER","ADDRESSCITYZIP":"211 E DAKIN AVE KISSIMMEE , FL 34741"}},{"type":"Feature","id":252,"geometry":{"type":"Point","coordinates":[-81.329073231953785,28.254117745850536]},"properties":{"OBJECTID":252,"Name":"PARTIN TRIANGLE PARK","Address":"2830 NEPTUNE RD","City":"KISSIMMEE","Zip":"34744","COUNTY":"OSCEOLA","X":-81.329073230000006,"Y":28.254117749999999,"LONGLAT":"-81.32907323,28.25411775","USNG":"17R MM 67720 25396","OWNERSHIP":"COUNTY","PARCELID":"05-26-30-5210-0008-0080","FACILITY_TYPE":"DISASTER RECOVERY CENTER","ADDRESSCITYZIP":"2830 NEPTUNE RD KISSIMMEE , FL 34744"}},{"type":"Feature","id":253,"geometry":{"type":"Point","coordinates":[-81.369020599719647,28.298949999510388]},"properties":{"OBJECTID":253,"Name":"OSCEOLA-HERITAGE PARK","Address":"1875 SILVER SPUR LN","City":"KISSIMMEE ","Zip":"34741","COUNTY":"OSCEOLA","X":-81.369020599999999,"Y":28.298950000000001,"LONGLAT":"-81.36902060,28.29895000","USNG":"17R MM 63817 30374","OWNERSHIP":null,"PARCELID":null,"FACILITY_TYPE":"DISASTER RECOVERY CENTER","ADDRESSCITYZIP":"1875 SILVER SPUR LN KISSIMMEE  , FL 34741"}},{"type":"Feature","id":254,"geometry":{"type":"Point","coordinates":[-81.351230521541126,28.330951098948926]},"properties":{"OBJECTID":254,"Name":"OSCEOLA COUNTY PUBLIC LIBRARY (BVL)","Address":"405 BUENAVENTURA BLVD","City":"KISSIMMEE","Zip":"34743","COUNTY":"OSCEOLA","X":-81.351230520000001,"Y":28.3309511,"LONGLAT":"-81.35123052,28.33095110","USNG":"17R MM 65572 33914","OWNERSHIP":"COUNTY","PARCELID":"07-25-30-2703-0113-0070","FACILITY_TYPE":"DISASTER RECOVERY CENTER","ADDRESSCITYZIP":"405 BUENAVENTURA BLVD KISSIMMEE , FL 34743"}},{"type":"Feature","id":255,"geometry":{"type":"Point","coordinates":[-81.352317789887138,28.327145541096293]},"properties":{"OBJECTID":255,"Name":"BUENAVENTURA COMMUNITY CENTER","Address":"501 FLORIDA PKWY","City":"KISSIMMEE","Zip":"34743","COUNTY":"OSCEOLA","X":-81.352317790000001,"Y":28.32714554,"LONGLAT":"-81.35231779,28.32714554","USNG":"17R MM 65464 33493","OWNERSHIP":"COUNTY","PARCELID":"07-25-30-2677-0001-00A0","FACILITY_TYPE":"DISASTER RECOVERY CENTER","ADDRESSCITYZIP":"501 FLORIDA PKWY KISSIMMEE , FL 34743"}},{"type":"Feature","id":256,"geometry":{"type":"Point","coordinates":[-81.352965670526459,28.333225442933049]},"properties":{"OBJECTID":256,"Name":"BUENAVENTURA COMMUNITY CENTER","Address":"419 BUENAVENTURA BLVD","City":"KISSIMMEE","Zip":"34743","COUNTY":"OSCEOLA","X":-81.352965670000003,"Y":28.33322544,"LONGLAT":"-81.35296567,28.33322544","USNG":"17R MM 65402 34166","OWNERSHIP":"COUNTY","PARCELID":"07-25-30-2703-0114-0380","FACILITY_TYPE":"DISASTER RECOVERY CENTER","ADDRESSCITYZIP":"419 BUENAVENTURA BLVD KISSIMMEE , FL 34743"}},{"type":"Feature","id":257,"geometry":{"type":"Point","coordinates":[-81.439344329485607,28.275488927612429]},"properties":{"OBJECTID":257,"Name":"OREN BROWN PARK","Address":"3511 BAKER DR","City":"KISSIMMEE","Zip":"34741","COUNTY":"OSCEOLA","X":-81.439344329999997,"Y":28.275488930000002,"LONGLAT":"-81.43934433,28.27548893","USNG":"17R MM 56912 27798","OWNERSHIP":"COUNTY","PARCELID":"29-25-29-4700-0001-1130","FACILITY_TYPE":"DISASTER RECOVERY CENTER","ADDRESSCITYZIP":"3511 BAKER DR KISSIMMEE , FL 34741"}},{"type":"Feature","id":258,"geometry":{"type":"Point","coordinates":[-81.278648253247312,28.246780634038512]},"properties":{"OBJECTID":258,"Name":"OSCEOLA COUNTY PUBLIC LIBRARY VETERANS MEMORIAL","Address":"810 13TH ST","City":"SAINT CLOUD","Zip":"34769","COUNTY":"OSCEOLA","X":-81.278648250000003,"Y":28.24678063,"LONGLAT":"-81.27864825,28.24678063","USNG":"17R MM 72665 24571","OWNERSHIP":"COUNTY","PARCELID":"01-26-30-0001-0224-0010","FACILITY_TYPE":"DISASTER RECOVERY CENTER","ADDRESSCITYZIP":"810 13TH ST SAINT CLOUD , FL 34769"}},{"type":"Feature","id":259,"geometry":{"type":"Point","coordinates":[-81.452753696514577,28.151297526243972]},"properties":{"OBJECTID":259,"Name":"OSCEOLA COUNTY PUBLIC LIBRARY POINCIANA","Address":"101 N DOVERPLUM AVE","City":"KISSIMMEE","Zip":"34758","COUNTY":"OSCEOLA","X":-81.452753700000002,"Y":28.151297530000001,"LONGLAT":"-81.45275370,28.15129753","USNG":"17R MM 55546 14045","OWNERSHIP":"COUNTY","PARCELID":"25-26-28-6120-000A-0010","FACILITY_TYPE":"DISASTER RECOVERY CENTER","ADDRESSCITYZIP":"101 N DOVERPLUM AVE KISSIMMEE , FL 34758"}},{"type":"Feature","id":260,"geometry":{"type":"Point","coordinates":[-80.668905469605434,26.68126414969856]},"properties":{"OBJECTID":260,"Name":"BELLE GLADE MUNICIPAL COMPLEX","Address":"SW 2ND STREET","City":"BELLE GLADE","Zip":"33430","COUNTY":"PALM BEACH","X":-80.668905469999999,"Y":26.681264150000001,"LONGLAT":"-80.66890547,26.68126415","USNG":"17R NK 32941 51175","OWNERSHIP":"COUNTY","PARCELID":"04374342010060013","FACILITY_TYPE":"DISASTER RECOVERY CENTER","ADDRESSCITYZIP":"SW 2ND STREET BELLE GLADE , FL 33430"}},{"type":"Feature","id":261,"geometry":{"type":"Point","coordinates":[-80.067533171752373,26.538077874169328]},"properties":{"OBJECTID":261,"Name":"CAROLYN SIMS CENTER (FIXED)","Address":"225 NW 12th AVE","City":"BOYNTON BEACH","Zip":"33435","COUNTY":"PALM BEACH","X":-80.067533170000004,"Y":26.538077869999999,"LONGLAT":"-80.06753317,26.53807787","USNG":"17R NK 92892 35612","OWNERSHIP":null,"PARCELID":null,"FACILITY_TYPE":"DISASTER RECOVERY CENTER","ADDRESSCITYZIP":"225 NW 12th AVE BOYNTON BEACH , FL 33435"}},{"type":"Feature","id":262,"geometry":{"type":"Point","coordinates":[-80.238287329282045,26.65310122810444]},"properties":{"OBJECTID":262,"Name":"WELLINGTON COMMUNITY CENTER","Address":"12165 W FOREST HILL BLVD","City":"WEST PALM BEACH","Zip":"33414","COUNTY":"PALM BEACH","X":-80.238287330000006,"Y":26.653101230000001,"LONGLAT":"-80.23828733,26.65310123","USNG":"17R NK 75805 48240","OWNERSHIP":"MUNICIPAL","PARCELID":"73414410000005020","FACILITY_TYPE":"DISASTER RECOVERY CENTER","ADDRESSCITYZIP":"12165 W FOREST HILL BLVD WEST PALM BEACH , FL 33414"}},{"type":"Feature","id":263,"geometry":{"type":"Point","coordinates":[-80.103127455953725,26.931755056133962]},"properties":{"OBJECTID":263,"Name":"JUPITER COMMUNITY CENTER","Address":"210 MILITARY TRAIL","City":"JUPITER","Zip":"33458","COUNTY":"PALM BEACH","X":-80.103127459999996,"Y":26.93175506,"LONGLAT":"-80.10312746,26.93175506","USNG":"17R NK 89039 79192","OWNERSHIP":"MUNICIPAL","PARCELID":"30424101000007210","FACILITY_TYPE":"DISASTER RECOVERY CENTER","ADDRESSCITYZIP":"210 MILITARY TRAIL JUPITER , FL 33458"}},{"type":"Feature","id":264,"geometry":{"type":"Point","coordinates":[-82.273853800032043,28.331536299134385]},"properties":{"OBJECTID":264,"Name":"PASCO-WELLS FARGO","Address":"11938 CURLEY ST","City":"SAN ANTONIO","Zip":"33576","COUNTY":"PASCO","X":-82.273853799999998,"Y":28.3315363,"LONGLAT":"-82.27385380,28.33153630","USNG":"17R LM 75131 34588","OWNERSHIP":null,"PARCELID":null,"FACILITY_TYPE":"DISASTER RECOVERY CENTER","ADDRESSCITYZIP":"11938 CURLEY ST SAN ANTONIO , FL 33576"}},{"type":"Feature","id":265,"geometry":{"type":"Point","coordinates":[-82.432159358602107,28.199331826700206]},"properties":{"OBJECTID":265,"Name":"LAND O LAKE RECREATION CENTER","Address":"3032 COLLIER PARKWAY","City":"LAND O LAKES","Zip":"34639","COUNTY":"PASCO","X":-82.43215936,"Y":28.199331829999998,"LONGLAT":"-82.43215936,28.19933183","USNG":"17R LM 59438 20113","OWNERSHIP":"COUNTY","PARCELID":"1926290000007000020","FACILITY_TYPE":"DISASTER RECOVERY CENTER","ADDRESSCITYZIP":"3032 COLLIER PARKWAY LAND O LAKES , FL 34639"}},{"type":"Feature","id":266,"geometry":{"type":"Point","coordinates":[-82.720983329994979,28.223660418093434]},"properties":{"OBJECTID":266,"Name":"TROUBLE CREEK SQUARE SHOPPING CENTER","Address":"4444 GRAND BLVD","City":"NEW PORT RICHEY","Zip":"34652","COUNTY":"PASCO","X":-82.720983329999996,"Y":28.223660420000002,"LONGLAT":"-82.72098333,28.22366042","USNG":"17R LM 31125 23178","OWNERSHIP":null,"PARCELID":"1626170040037000034","FACILITY_TYPE":"DISASTER RECOVERY CENTER","ADDRESSCITYZIP":"4444 GRAND BLVD NEW PORT RICHEY , FL 34652"}},{"type":"Feature","id":267,"geometry":{"type":"Point","coordinates":[-82.544505399642219,28.186407999000437]},"properties":{"OBJECTID":267,"Name":"PASCO-VAC SUPER TARGET","Address":"16400 FL-54","City":"ODESSA","Zip":"33556","COUNTY":"PASCO","X":-82.544505400000006,"Y":28.186408,"LONGLAT":"-82.54450540,28.18640800","USNG":"17R LM 48392 18817","OWNERSHIP":null,"PARCELID":null,"FACILITY_TYPE":"DISASTER RECOVERY CENTER","ADDRESSCITYZIP":"16400 FL-54 ODESSA , FL 33556"}},{"type":"Feature","id":268,"geometry":{"type":"Point","coordinates":[-82.198203334788943,28.360261641904437]},"properties":{"OBJECTID":268,"Name":"PASCO COUNTY COMMUNITY SERVICES DEPT. (DADE CITY)","Address":"13853 15TH ST","City":"DADE CITY","Zip":"33525","COUNTY":"PASCO","X":-82.198203329999998,"Y":28.360261640000001,"LONGLAT":"-82.19820333,28.36026164","USNG":"17R LM 82579 37694","OWNERSHIP":"COUNTY","PARCELID":"2124340010003000010","FACILITY_TYPE":"DISASTER RECOVERY CENTER","ADDRESSCITYZIP":"13853 15TH ST DADE CITY , FL 33525"}},{"type":"Feature","id":269,"geometry":{"type":"Point","coordinates":[-82.681935432009467,28.283137026880404]},"properties":{"OBJECTID":269,"Name":"COMMUNITY SERVICE COMPLEX","Address":"8620 GALEN WILSON BLVD","City":"PORT RICHEY","Zip":"34668","COUNTY":"PASCO","X":-82.681935429999996,"Y":28.283137029999999,"LONGLAT":"-82.68193543,28.28313703","USNG":"17R LM 35048 29714","OWNERSHIP":"COUNTY","PARCELID":"1625260010024000020","FACILITY_TYPE":"DISASTER RECOVERY CENTER","ADDRESSCITYZIP":"8620 GALEN WILSON BLVD PORT RICHEY , FL 34668"}},{"type":"Feature","id":270,"geometry":{"type":"Point","coordinates":[-82.757263999317345,28.081596998778885]},"properties":{"OBJECTID":270,"Name":"PALM HARBOR COMMUNITY ACTIVITY CENTER","Address":"1500 16TH STREET","City":"PALM HARBOR","Zip":"34683","COUNTY":"PINELLAS","X":-82.757264000000006,"Y":28.081596999999999,"LONGLAT":"-82.75726400,28.08159700","USNG":"17R LM 27336 07487","OWNERSHIP":"COUNTY","PARCELID":"15 28 01 13068 000 0010","FACILITY_TYPE":"DISASTER RECOVERY CENTER","ADDRESSCITYZIP":"1500 16TH STREET PALM HARBOR , FL 34683"}},{"type":"Feature","id":271,"geometry":{"type":"Point","coordinates":[-82.812445000075556,27.885658998881635]},"properties":{"OBJECTID":271,"Name":"PINELLAS COUNTY EXTENSION","Address":"12520 ULMERTON ROAD","City":"LARGO","Zip":"33774","COUNTY":"PINELLAS","X":-82.812444999999997,"Y":27.885659,"LONGLAT":"-82.81244500,27.88565900","USNG":"17R LL 21591 85856","OWNERSHIP":null,"PARCELID":"15 30 08 70470 400 1601","FACILITY_TYPE":"DISASTER RECOVERY CENTER","ADDRESSCITYZIP":"12520 ULMERTON ROAD LARGO , FL 33774"}},{"type":"Feature","id":272,"geometry":{"type":"Point","coordinates":[-82.711340812809368,27.897429545636438]},"properties":{"OBJECTID":272,"Name":"EPICENTER/ST. PETERSBURG COLLEGE","Address":"13805 58th St N","City":"CLEARWATER","Zip":"33760","COUNTY":"PINELLAS","X":-82.711340809999996,"Y":27.897429549999998,"LONGLAT":"-82.71134081,27.89742955","USNG":"17R LL 31563 87017","OWNERSHIP":null,"PARCELID":null,"FACILITY_TYPE":"DISASTER RECOVERY CENTER","ADDRESSCITYZIP":"13805 58th St N CLEARWATER , FL 33760"}},{"type":"Feature","id":273,"geometry":{"type":"Point","coordinates":[-82.740401908267046,28.067780761110232]},"properties":{"OBJECTID":273,"Name":"2431 TAMPA ROAD, PALM HARBOR, FL 34683 (FIXED)","Address":"2431 TAMPA ROAD","City":"PALM HARBOR","Zip":"34683","COUNTY":"PINELLAS","X":-82.740401910000003,"Y":28.067780760000002,"LONGLAT":"-82.74040191,28.06778076","USNG":"17R LM 28971 05933","OWNERSHIP":null,"PARCELID":null,"FACILITY_TYPE":"DISASTER RECOVERY CENTER","ADDRESSCITYZIP":"2431 TAMPA ROAD PALM HARBOR , FL 34683"}},{"type":"Feature","id":274,"geometry":{"type":"Point","coordinates":[-82.714243583438304,27.839583640569607]},"properties":{"OBJECTID":274,"Name":"DRC 10 - PARK STATION (PINELLAS PARK CHAMBER OF COMMERCE)","Address":"5851 PARK BLVD","City":"PINELLAS PARK","Zip":"33781","COUNTY":"PINELLAS","X":-82.714243580000002,"Y":27.839583640000001,"LONGLAT":"-82.71424358,27.83958364","USNG":"17R LL 31188 80612","OWNERSHIP":"MUNICIPAL","PARCELID":"16 30 28 71064 000 0030","FACILITY_TYPE":"DISASTER RECOVERY CENTER","ADDRESSCITYZIP":"5851 PARK BLVD PINELLAS PARK , FL 33781"}},{"type":"Feature","id":275,"geometry":{"type":"Point","coordinates":[-81.834699999662504,27.999999999105285]},"properties":{"OBJECTID":275,"Name":"HARDEE COUNTY AGRI-CIVIC CENTER","Address":"515 CIVIC CENTER DRIVE","City":"WINTER HAVEN","Zip":"33880","COUNTY":"POLK","X":-81.834699999999998,"Y":28,"LONGLAT":"-81.83470000,28.00000000","USNG":"17R ML 17928 97483","OWNERSHIP":"STATE","PARCELID":"252832000000011010","FACILITY_TYPE":"DISASTER RECOVERY CENTER","ADDRESSCITYZIP":"515 CIVIC CENTER DRIVE WINTER HAVEN , FL 33880"}},{"type":"Feature","id":276,"geometry":{"type":"Point","coordinates":[-81.844390000645873,27.872498998697338]},"properties":{"OBJECTID":276,"Name":"BARTOW CIVIC CENTER","Address":"2250 S FLORAL AVE","City":"BARTOW","Zip":"33830","COUNTY":"POLK","X":-81.844390000000004,"Y":27.872499000000001,"LONGLAT":"-81.84439000,27.87249900","USNG":"17R ML 16878 83364","OWNERSHIP":"MUNICIPAL","PARCELID":"253018000000012010","FACILITY_TYPE":"DISASTER RECOVERY CENTER","ADDRESSCITYZIP":"2250 S FLORAL AVE BARTOW , FL 33830"}},{"type":"Feature","id":277,"geometry":{"type":"Point","coordinates":[-81.826312300032868,27.913063399162073]},"properties":{"OBJECTID":277,"Name":"POLK-WH STUART CONF CENTER","Address":" 1710 US HWY 17","City":"BARTOW","Zip":"33830","COUNTY":"POLK","X":-81.826312299999998,"Y":27.913063399999999,"LONGLAT":"-81.82631230,27.91306340","USNG":"17R ML 18688 87846","OWNERSHIP":null,"PARCELID":null,"FACILITY_TYPE":"DISASTER RECOVERY CENTER","ADDRESSCITYZIP":" 1710 US HWY 17 BARTOW , FL 33830"}},{"type":"Feature","id":278,"geometry":{"type":"Point","coordinates":[-81.805739000327932,27.999998998969076]},"properties":{"OBJECTID":278,"Name":"ZOLFO SPRINGS CIVIC CENTER","Address":" ","City":"WINTER HAVEN","Zip":"33880","COUNTY":"POLK","X":-81.805739000000003,"Y":27.999998999999999,"LONGLAT":"-81.80573900,27.99999900","USNG":"17R ML 20776 97463","OWNERSHIP":null,"PARCELID":"252834000000011010","FACILITY_TYPE":"DISASTER RECOVERY CENTER","ADDRESSCITYZIP":"  WINTER HAVEN , FL 33880"}},{"type":"Feature","id":279,"geometry":{"type":"Point","coordinates":[-81.827906875859441,27.877840976265858]},"properties":{"OBJECTID":279,"Name":"W. H. STUART CONFERENCE CENTER (FIXED)","Address":"1702 US HWY 17","City":"BARTOW","Zip":"33830","COUNTY":"POLK","X":-81.82790688,"Y":27.877840979999998,"LONGLAT":"-81.82790688,27.87784098","USNG":"17R ML 18504 83945","OWNERSHIP":null,"PARCELID":null,"FACILITY_TYPE":"DISASTER RECOVERY CENTER","ADDRESSCITYZIP":"1702 US HWY 17 BARTOW , FL 33830"}},{"type":"Feature","id":280,"geometry":{"type":"Point","coordinates":[-81.962938999758734,28.041848998633323]},"properties":{"OBJECTID":280,"Name":"LAKELAND CIVIC CENTER","Address":"700 WEST LEMON ST","City":"LAKELAND","Zip":"33815","COUNTY":"POLK","X":-81.962939000000006,"Y":28.041848999999999,"LONGLAT":"-81.96293900,28.04184900","USNG":"17R MM 05355 02212","OWNERSHIP":null,"PARCELID":"232813065000000011","FACILITY_TYPE":"DISASTER RECOVERY CENTER","ADDRESSCITYZIP":"700 WEST LEMON ST LAKELAND , FL 33815"}},{"type":"Feature","id":281,"geometry":{"type":"Point","coordinates":[-81.615869000131653,27.954109999707946]},"properties":{"OBJECTID":281,"Name":"EAGLE RIDGE MALL","Address":"451 EAGLE RIDGE DRIVE","City":"LAKE WALES","Zip":"33859","COUNTY":"POLK","X":-81.615869000000004,"Y":27.95411,"LONGLAT":"-81.61586900,27.95411000","USNG":"17R ML 39419 92271","OWNERSHIP":null,"PARCELID":"272916000000021010","FACILITY_TYPE":"DISASTER RECOVERY CENTER","ADDRESSCITYZIP":"451 EAGLE RIDGE DRIVE LAKE WALES , FL 33859"}},{"type":"Feature","id":282,"geometry":{"type":"Point","coordinates":[-81.681315982596757,29.646646985686701]},"properties":{"OBJECTID":282,"Name":"ST JOHNS RIVER STATE COLLEGE","Address":"5001 ST JOHNS AVE","City":"PALATKA","Zip":"32177","COUNTY":"PUTNAM","X":-81.681315979999994,"Y":29.646646990000001,"LONGLAT":"-81.68131598,29.64664699","USNG":"17R MN 34056 79825","OWNERSHIP":null,"PARCELID":"10-10-26-0000-0010-0000","FACILITY_TYPE":"DISASTER RECOVERY CENTER","ADDRESSCITYZIP":"5001 ST JOHNS AVE PALATKA , FL 32177"}},{"type":"Feature","id":283,"geometry":{"type":"Point","coordinates":[-82.045652105266214,29.712483603469597]},"properties":{"OBJECTID":283,"Name":"MELROSE PUBLIC LIBRARY","Address":"312 WYNNWOOD AVE","City":"MELROSE","Zip":"32666","COUNTY":"PUTNAM","X":-82.045652110000006,"Y":29.712483599999999,"LONGLAT":"-82.04565211,29.71248360","USNG":"17R LN 98856 87384","OWNERSHIP":"COUNTY","PARCELID":"05-09-23-005293-004-01","FACILITY_TYPE":"DISASTER RECOVERY CENTER","ADDRESSCITYZIP":"312 WYNNWOOD AVE MELROSE , FL 32666"}},{"type":"Feature","id":284,"geometry":{"type":"Point","coordinates":[-81.887124613884779,29.632366987495352]},"properties":{"OBJECTID":284,"Name":"INTERLACHEN PUBLIC LIBRARY","Address":"133 N COUNTY ROAD 315","City":"INTERLACHEN","Zip":"32148","COUNTY":"PUTNAM","X":-81.887124610000001,"Y":29.632366990000001,"LONGLAT":"-81.88712461,29.63236699","USNG":"17R MN 14123 78378","OWNERSHIP":"COUNTY","PARCELID":"10-10-24-0150-0070-0250","FACILITY_TYPE":"DISASTER RECOVERY CENTER","ADDRESSCITYZIP":"133 N COUNTY ROAD 315 INTERLACHEN , FL 32148"}},{"type":"Feature","id":285,"geometry":{"type":"Point","coordinates":[-81.589453284670014,29.643091915878717]},"properties":{"OBJECTID":285,"Name":"PUTNAM COUNTY FAIRGROUNDS EXPO CENTER, BLDG. 1 (FIXED)","Address":"118 FAIRGROUNDS RD","City":"EAST PALATKA","Zip":"32131","COUNTY":"PUTNAM","X":-81.589453280000001,"Y":29.64309192,"LONGLAT":"-81.58945328,29.64309192","USNG":"17R MN 42945 79383","OWNERSHIP":null,"PARCELID":null,"FACILITY_TYPE":"DISASTER RECOVERY CENTER","ADDRESSCITYZIP":"118 FAIRGROUNDS RD EAST PALATKA , FL 32131"}},{"type":"Feature","id":286,"geometry":{"type":"Point","coordinates":[-81.883820250277864,29.618367314526129]},"properties":{"OBJECTID":286,"Name":"WEST PUTNAM RECREATION COMPLEX","Address":"170 COUNTY ROAD 315","City":"INTERLACHEN","Zip":"32148","COUNTY":"PUTNAM","X":-81.883820249999999,"Y":29.618367320000001,"LONGLAT":"-81.88382025,29.61836732","USNG":"17R MN 14431 76824","OWNERSHIP":null,"PARCELID":null,"FACILITY_TYPE":"DISASTER RECOVERY CENTER","ADDRESSCITYZIP":"170 COUNTY ROAD 315 INTERLACHEN , FL 32148"}},{"type":"Feature","id":287,"geometry":{"type":"Point","coordinates":[-81.656797550950273,29.638671894641472]},"properties":{"OBJECTID":287,"Name":"EDGAR JOHNSON SENIOR CENTER","Address":"1215 WESTOVER DR","City":"PALATKA","Zip":"32177","COUNTY":"PUTNAM","X":-81.656797549999993,"Y":29.638671899999999,"LONGLAT":"-81.65679755,29.63867190","USNG":"17R MN 36424 78928","OWNERSHIP":null,"PARCELID":null,"FACILITY_TYPE":"DISASTER RECOVERY CENTER","ADDRESSCITYZIP":"1215 WESTOVER DR PALATKA , FL 32177"}},{"type":"Feature","id":288,"geometry":{"type":"Point","coordinates":[-81.683661290995218,29.642764613089408]},"properties":{"OBJECTID":288,"Name":"PALATKA PUBLIC LIBRARY","Address":"601 COLLEGE RD","City":"PALATKA","Zip":"32177","COUNTY":"PUTNAM","X":-81.683661290000003,"Y":29.64276461,"LONGLAT":"-81.68366129,29.64276461","USNG":"17R MN 33826 79397","OWNERSHIP":"MUNICIPAL","PARCELID":"10-10-26-0000-0010-0010","FACILITY_TYPE":"DISASTER RECOVERY CENTER","ADDRESSCITYZIP":"601 COLLEGE RD PALATKA , FL 32177"}},{"type":"Feature","id":289,"geometry":{"type":"Point","coordinates":[-81.510241783290383,29.438451742595355]},"properties":{"OBJECTID":289,"Name":"CRESCENT CITY PUBLIC LIBRARY","Address":"610 N SUMMIT ST","City":"CRESCENT CITY","Zip":"32112","COUNTY":"PUTNAM","X":-81.510241780000001,"Y":29.438451740000001,"LONGLAT":"-81.51024178,29.43845174","USNG":"17R MN 50513 56672","OWNERSHIP":"MUNICIPAL","PARCELID":"19-12-28-3990-0010-0051","FACILITY_TYPE":"DISASTER RECOVERY CENTER","ADDRESSCITYZIP":"610 N SUMMIT ST CRESCENT CITY , FL 32112"}},{"type":"Feature","id":290,"geometry":{"type":"Point","coordinates":[-81.310230000049216,29.876418998999664]},"properties":{"OBJECTID":290,"Name":"GALIMORE CENTER","Address":"399 RIBERIA ST","City":"SAINT AUGUSTINE","Zip":"32084","COUNTY":"ST. JOHNS","X":-81.310230000000004,"Y":29.876418999999999,"LONGLAT":"-81.31023000,29.87641900","USNG":"17R MP 70041 05132","OWNERSHIP":"MUNICIPAL","PARCELID":"2035000000","FACILITY_TYPE":"DISASTER RECOVERY CENTER","ADDRESSCITYZIP":"399 RIBERIA ST SAINT AUGUSTINE , FL 32084"}},{"type":"Feature","id":291,"geometry":{"type":"Point","coordinates":[-81.410054351104435,29.904872214961618]},"properties":{"OBJECTID":291,"Name":"ST. JOHNS COUNTY AGRICULTURE CENTER WIND MITIGATION BUILDING (FIXED)","Address":"3111 AGRICULTURAL CENTER DR","City":"SAINT AUGUSTINE","Zip":"32092","COUNTY":"ST. JOHNS","X":-81.410054349999996,"Y":29.904872220000001,"LONGLAT":"-81.41005435,29.90487222","USNG":"17R MP 60413 08315","OWNERSHIP":null,"PARCELID":null,"FACILITY_TYPE":"DISASTER RECOVERY CENTER","ADDRESSCITYZIP":"3111 AGRICULTURAL CENTER DR SAINT AUGUSTINE , FL 32092"}},{"type":"Feature","id":292,"geometry":{"type":"Point","coordinates":[-81.312856957386444,29.879182648730851]},"properties":{"OBJECTID":292,"Name":"Willie Galimore Community Center","Address":"399 Riberia St","City":"St Augustine","Zip":"32084","COUNTY":"ST. JOHNS","X":-81.312856960000005,"Y":29.879182650000001,"LONGLAT":"-81.31285696,29.87918265","USNG":"17R MP 69789 05439","OWNERSHIP":null,"PARCELID":null,"FACILITY_TYPE":"DISASTER RECOVERY CENTER","ADDRESSCITYZIP":"399 Riberia St St Augustine , FL 32084"}},{"type":"Feature","id":293,"geometry":{"type":"Point","coordinates":[-81.467726316105171,29.98977574544897]},"properties":{"OBJECTID":293,"Name":"WORLD GOLF VILLAGE CONVENTION CENTER","Address":"500 S LEGACY TRL","City":"SAINT AUGUSTINE","Zip":"32092","COUNTY":"ST. JOHNS","X":-81.467726319999997,"Y":29.98977575,"LONGLAT":"-81.46772632,29.98977575","USNG":"17R MP 54884 17744","OWNERSHIP":"COUNTY","PARCELID":"0270100080","FACILITY_TYPE":"DISASTER RECOVERY CENTER","ADDRESSCITYZIP":"500 S LEGACY TRL SAINT AUGUSTINE , FL 32092"}},{"type":"Feature","id":294,"geometry":{"type":"Point","coordinates":[-81.467726316105171,29.98977574544897]},"properties":{"OBJECTID":294,"Name":"WORLD GOLF VILLAGE CONVENTION CENTER","Address":"500 S LEGACY TRL","City":"SAINT AUGUSTINE","Zip":"32092","COUNTY":"ST. JOHNS","X":-81.467726319999997,"Y":29.98977575,"LONGLAT":"-81.46772632,29.98977575","USNG":"17R MP 54884 17744","OWNERSHIP":"COUNTY","PARCELID":"0270100080","FACILITY_TYPE":"DISASTER RECOVERY CENTER","ADDRESSCITYZIP":"500 S LEGACY TRL SAINT AUGUSTINE , FL 32092"}},{"type":"Feature","id":295,"geometry":{"type":"Point","coordinates":[-81.318567181282518,29.897716183662286]},"properties":{"OBJECTID":295,"Name":"KETTERLINUS ELEMENTARY SCHOOL GYM","Address":"40 ORANGE ST","City":"SAINT AUGUSTINE","Zip":"32084","COUNTY":"ST. JOHNS","X":-81.318567180000002,"Y":29.89771618,"LONGLAT":"-81.31856718,29.89771618","USNG":"17R MP 69243 07494","OWNERSHIP":"COUNTY","PARCELID":"1961600000","FACILITY_TYPE":"DISASTER RECOVERY CENTER","ADDRESSCITYZIP":"40 ORANGE ST SAINT AUGUSTINE , FL 32084"}},{"type":"Feature","id":296,"geometry":{"type":"Point","coordinates":[-81.467726316105171,29.98977574544897]},"properties":{"OBJECTID":296,"Name":"WORLD GOLF VILLAGE CONVENTION CENTER","Address":"500 S LEGACY TRL","City":"SAINT AUGUSTINE","Zip":"32092","COUNTY":"ST. JOHNS","X":-81.467726319999997,"Y":29.98977575,"LONGLAT":"-81.46772632,29.98977575","USNG":"17R MP 54884 17744","OWNERSHIP":"COUNTY","PARCELID":"0270100080","FACILITY_TYPE":"DISASTER RECOVERY CENTER","ADDRESSCITYZIP":"500 S LEGACY TRL SAINT AUGUSTINE , FL 32092"}},{"type":"Feature","id":297,"geometry":{"type":"Point","coordinates":[-81.467726316105171,29.98977574544897]},"properties":{"OBJECTID":297,"Name":"WORLD GOLF VILLAGE CONVENTION CENTER","Address":"500 S LEGACY TRL","City":"SAINT AUGUSTINE","Zip":"32092","COUNTY":"ST. JOHNS","X":-81.467726319999997,"Y":29.98977575,"LONGLAT":"-81.46772632,29.98977575","USNG":"17R MP 54884 17744","OWNERSHIP":"COUNTY","PARCELID":"0270100080","FACILITY_TYPE":"DISASTER RECOVERY CENTER","ADDRESSCITYZIP":"500 S LEGACY TRL SAINT AUGUSTINE , FL 32092"}},{"type":"Feature","id":298,"geometry":{"type":"Point","coordinates":[-81.411897614941211,29.905775506296084]},"properties":{"OBJECTID":298,"Name":"WINDSTORM DAMAGE MITIGATION BUILDING","Address":"3111 AGRICULTURAL CENTER DR","City":"ST AUGUSTINE","Zip":"32092","COUNTY":"ST. JOHNS","X":-81.411897609999997,"Y":29.905775510000002,"LONGLAT":"-81.41189761,29.90577551","USNG":"17R MP 60235 08415","OWNERSHIP":null,"PARCELID":null,"FACILITY_TYPE":"DISASTER RECOVERY CENTER","ADDRESSCITYZIP":"3111 AGRICULTURAL CENTER DR ST AUGUSTINE , FL 32092"}},{"type":"Feature","id":299,"geometry":{"type":"Point","coordinates":[-80.371059531504969,27.246289119178211]},"properties":{"OBJECTID":299,"Name":"MINSKY GYM","Address":"750 DARWIN BLVD","City":"PORT SAINT LUCIE","Zip":"34953","COUNTY":"ST. LUCIE","X":-80.371059529999997,"Y":27.24628912,"LONGLAT":"-80.37105953,27.24628912","USNG":"17R NL 62264 13870","OWNERSHIP":"COUNTY","PARCELID":"3420-711-0011-100-3","FACILITY_TYPE":"DISASTER RECOVERY CENTER","ADDRESSCITYZIP":"750 DARWIN BLVD PORT SAINT LUCIE , FL 34953"}},{"type":"Feature","id":300,"geometry":{"type":"Point","coordinates":[-80.328416947398253,27.390566644018392]},"properties":{"OBJECTID":300,"Name":"ST. LUCIE COUNTY LOGISTICS","Address":"3855 S US HWY 1","City":"FORT PIERCE","Zip":"34982","COUNTY":"ST. LUCIE","X":-80.328416950000005,"Y":27.390566639999999,"LONGLAT":"-80.32841695,27.39056664","USNG":"17R NL 66400 29874","OWNERSHIP":"COUNTY","PARCELID":"2434-601-0046-000-8","FACILITY_TYPE":"DISASTER RECOVERY CENTER","ADDRESSCITYZIP":"3855 S US HWY 1 FORT PIERCE , FL 34982"}},{"type":"Feature","id":301,"geometry":{"type":"Point","coordinates":[-80.39765413416211,27.315701644816908]},"properties":{"OBJECTID":301,"Name":"SLC South County Annex","Address":"250 NW COUNTRY CLUB DR","City":"PORT SAINT LUCIE","Zip":"34986","COUNTY":"ST. LUCIE","X":-80.397654130000006,"Y":27.315701650000001,"LONGLAT":"-80.39765413,27.31570165","USNG":"17R NL 59594 21546","OWNERSHIP":"COUNTY","PARCELID":"3323-650-0004-000-6","FACILITY_TYPE":"DISASTER RECOVERY CENTER","ADDRESSCITYZIP":"250 NW COUNTRY CLUB DR PORT SAINT LUCIE , FL 34986"}},{"type":"Feature","id":302,"geometry":{"type":"Point","coordinates":[-80.355255061009544,27.37336729660467]},"properties":{"OBJECTID":302,"Name":"AMERICAN RED CROSS COAST TO HEARTLAND CHAPTER","Address":"2963 W MIDWAY RD","City":"FORT PIERCE","Zip":"34981","COUNTY":"ST. LUCIE","X":-80.355255060000005,"Y":27.373367300000002,"LONGLAT":"-80.35525506,27.37336730","USNG":"17R NL 63756 27955","OWNERSHIP":null,"PARCELID":null,"FACILITY_TYPE":"DISASTER RECOVERY CENTER","ADDRESSCITYZIP":"2963 W MIDWAY RD FORT PIERCE , FL 34981"}},{"type":"Feature","id":303,"geometry":{"type":"Point","coordinates":[-80.335048251892658,27.469301622846832]},"properties":{"OBJECTID":303,"Name":"TAYLOR CREEK COMMONS","Address":"1851 N US HIGHWAY 1","City":"FORT PIERCE","Zip":"34946","COUNTY":"ST. LUCIE","X":-80.33504825,"Y":27.46930162,"LONGLAT":"-80.33504825,27.46930162","USNG":"17R NL 65698 38592","OWNERSHIP":null,"PARCELID":null,"FACILITY_TYPE":"DISASTER RECOVERY CENTER","ADDRESSCITYZIP":"1851 N US HIGHWAY 1 FORT PIERCE , FL 34946"}},{"type":"Feature","id":304,"geometry":{"type":"Point","coordinates":[-80.40223744584604,27.321373204838537]},"properties":{"OBJECTID":304,"Name":"ST. LUCIE COUNTY RED CROSS CHAPTER","Address":"540 NW UNIVERSITY BLVD STE 107","City":"PORT SAINT LUCIE","Zip":"34986","COUNTY":"ST. LUCIE","X":-80.402237450000001,"Y":27.321373210000001,"LONGLAT":"-80.40223745,27.32137321","USNG":"17R NL 59138 22172","OWNERSHIP":null,"PARCELID":null,"FACILITY_TYPE":"DISASTER RECOVERY CENTER","ADDRESSCITYZIP":"540 NW UNIVERSITY BLVD STE 107 PORT SAINT LUCIE , FL 34986"}},{"type":"Feature","id":305,"geometry":{"type":"Point","coordinates":[-80.396288400457593,27.432447139911627]},"properties":{"OBJECTID":305,"Name":"Ft Pierce Jai Alai","Address":"1750 S Kings Hwy","City":"FORT PIERCE","Zip":"34945","COUNTY":"ST. LUCIE","X":-80.396288400000003,"Y":27.432447140000001,"LONGLAT":"-80.39628840,27.43244714","USNG":"17R NL 59667 34479","OWNERSHIP":null,"PARCELID":null,"FACILITY_TYPE":"DISASTER RECOVERY CENTER","ADDRESSCITYZIP":"1750 S Kings Hwy FORT PIERCE , FL 34945"}},{"type":"Feature","id":306,"geometry":{"type":"Point","coordinates":[-80.289512999811478,27.293890998813524]},"properties":{"OBJECTID":306,"Name":"PAL BUILDING","Address":"2101 TIFFANY AVE","City":"PORT SAINT LUCIE","Zip":"34952","COUNTY":"ST. LUCIE","X":-80.289512999999999,"Y":27.293890999999999,"LONGLAT":"-80.28951300,27.29389100","USNG":"17R NL 70307 19186","OWNERSHIP":"MUNICIPAL","PARCELID":"3420-745-0002-000-1","FACILITY_TYPE":"DISASTER RECOVERY CENTER","ADDRESSCITYZIP":"2101 TIFFANY AVE PORT SAINT LUCIE , FL 34952"}},{"type":"Feature","id":307,"geometry":{"type":"Point","coordinates":[-80.370525160586126,27.42733743206977]},"properties":{"OBJECTID":307,"Name":"Orange Blossom Mall Site","Address":"4204 Okeechobee Rd","City":"FORT PIERCE","Zip":"34947","COUNTY":"ST. LUCIE","X":-80.37052516,"Y":27.427337430000001,"LONGLAT":"-80.37052516,27.42733743","USNG":"17R NL 62216 33925","OWNERSHIP":"PRIVATE","PARCELID":null,"FACILITY_TYPE":"DISASTER RECOVERY CENTER","ADDRESSCITYZIP":"4204 Okeechobee Rd FORT PIERCE , FL 34947"}},{"type":"Feature","id":308,"geometry":{"type":"Point","coordinates":[-87.160388543470972,30.951852237727625]},"properties":{"OBJECTID":308,"Name":"JAY COMMUNITY CENTER","Address":"5259 BOOKER LN","City":"JAY","Zip":"32565","COUNTY":"SANTA ROSA","X":-87.16038854,"Y":30.951852240000001,"LONGLAT":"-87.16038854,30.95185224","USNG":"16R DV 84680 24277","OWNERSHIP":"MUNICIPAL","PARCELID":"19-5N-29-0000-00300-0000","FACILITY_TYPE":"DISASTER RECOVERY CENTER","ADDRESSCITYZIP":"5259 BOOKER LN JAY , FL 32565"}},{"type":"Feature","id":309,"geometry":{"type":"Point","coordinates":[-87.177592429963809,30.354778388046331]},"properties":{"OBJECTID":309,"Name":"GULF BREEZE RECREATION CENTER","Address":"800 SHORELINE DR","City":"GULF BREEZE","Zip":"32561","COUNTY":"SANTA ROSA","X":-87.177592430000004,"Y":30.35477839,"LONGLAT":"-87.17759243,30.35477839","USNG":"16R DU 82932 58112","OWNERSHIP":"MUNICIPAL","PARCELID":"09-3S-29-0000-00200-0000","FACILITY_TYPE":"DISASTER RECOVERY CENTER","ADDRESSCITYZIP":"800 SHORELINE DR GULF BREEZE , FL 32561"}},{"type":"Feature","id":310,"geometry":{"type":"Point","coordinates":[-87.075382572475917,30.604948170330612]},"properties":{"OBJECTID":310,"Name":"PENSACOLA STATE COLLEGE - MILTON CAMPUS","Address":"5988 US HWY 90","City":"MILTON","Zip":"32583","COUNTY":"SANTA ROSA","X":-87.075382570000002,"Y":30.60494817,"LONGLAT":"-87.07538257,30.60494817","USNG":"16R DU 92774 85824","OWNERSHIP":null,"PARCELID":null,"FACILITY_TYPE":"DISASTER RECOVERY CENTER","ADDRESSCITYZIP":"5988 US HWY 90 MILTON , FL 32583"}},{"type":"Feature","id":311,"geometry":{"type":"Point","coordinates":[-87.050274999410149,30.615545999740441]},"properties":{"OBJECTID":311,"Name":"SANTA ROSA COUNTY ADMINISTRATIVE CENTER","Address":"6495 CAROLINE ST","City":"MILTON","Zip":"32570","COUNTY":"SANTA ROSA","X":-87.050274999999999,"Y":30.615545999999998,"LONGLAT":"-87.05027500,30.61554600","USNG":"16R DU 95181 86997","OWNERSHIP":"COUNTY","PARCELID":" ","FACILITY_TYPE":"DISASTER RECOVERY CENTER","ADDRESSCITYZIP":"6495 CAROLINE ST MILTON , FL 32570"}},{"type":"Feature","id":312,"geometry":{"type":"Point","coordinates":[-82.350813500325671,26.955245799067193]},"properties":{"OBJECTID":312,"Name":"SARASOTA-ST. DAVID'S CHURCH","Address":"401 S BROADWAY","City":"ENGLEWOOD","Zip":"34223","COUNTY":"SARASOTA","X":-82.350813500000001,"Y":26.9552458,"LONGLAT":"-82.35081350,26.95524580","USNG":"17R LK 65918 82194","OWNERSHIP":null,"PARCELID":null,"FACILITY_TYPE":"DISASTER RECOVERY CENTER","ADDRESSCITYZIP":"401 S BROADWAY ENGLEWOOD , FL 34223"}},{"type":"Feature","id":313,"geometry":{"type":"Point","coordinates":[-82.450691398516497,27.099307450837674]},"properties":{"OBJECTID":313,"Name":"DRC 16 - CITY HALL (COMMUNITY ROOM 114)","Address":"401 W VENICE AVE","City":"VENICE","Zip":"34285","COUNTY":"SARASOTA","X":-82.450691399999997,"Y":27.099307450000001,"LONGLAT":"-82.45069140,27.09930745","USNG":"17R LK 56186 98264","OWNERSHIP":"MUNICIPAL","PARCELID":"0176-08-0001","FACILITY_TYPE":"DISASTER RECOVERY CENTER","ADDRESSCITYZIP":"401 W VENICE AVE VENICE , FL 34285"}},{"type":"Feature","id":314,"geometry":{"type":"Point","coordinates":[-82.438881459095199,27.266168935794777]},"properties":{"OBJECTID":314,"Name":"TWIN LAKES PARK ROOM A","Address":"6700 CLARK ROAD","City":"SARASOTA","Zip":"34241","COUNTY":"SARASOTA","X":-82.438881460000005,"Y":27.26616894,"LONGLAT":"-82.43888146,27.26616894","USNG":"17R LL 57570 16735","OWNERSHIP":"SPECIAL TAXING DISTRICT","PARCELID":"0285-01-0001","FACILITY_TYPE":"DISASTER RECOVERY CENTER","ADDRESSCITYZIP":"6700 CLARK ROAD SARASOTA , FL 34241"}},{"type":"Feature","id":315,"geometry":{"type":"Point","coordinates":[-82.400519632910388,27.048973676680127]},"properties":{"OBJECTID":315,"Name":"ROBERT L. ANDERSON ADMINISTRATION CENTER","Address":"4000 TAMIAMI TRL","City":"VENICE","Zip":"34293","COUNTY":"SARASOTA","X":-82.400519630000005,"Y":27.04897368,"LONGLAT":"-82.40051963,27.04897368","USNG":"17R LK 61099 92631","OWNERSHIP":"SPECIAL TAXING DISTRICT","PARCELID":"0460-04-0001","FACILITY_TYPE":"DISASTER RECOVERY CENTER","ADDRESSCITYZIP":"4000 TAMIAMI TRL VENICE , FL 34293"}},{"type":"Feature","id":316,"geometry":{"type":"Point","coordinates":[-81.266382698273318,28.812339808767131]},"properties":{"OBJECTID":316,"Name":"NORTH BRANCH LIBRARY","Address":"150 N PALMETTO AVE","City":"SANFORD","Zip":"32771","COUNTY":"SEMINOLE","X":-81.266382699999994,"Y":28.812339810000001,"LONGLAT":"-81.26638270,28.81233981","USNG":"17R MM 74007 87223","OWNERSHIP":null,"PARCELID":null,"FACILITY_TYPE":"DISASTER RECOVERY CENTER","ADDRESSCITYZIP":"150 N PALMETTO AVE SANFORD , FL 32771"}},{"type":"Feature","id":317,"geometry":{"type":"Point","coordinates":[-81.339272913998656,28.734404256552679]},"properties":{"OBJECTID":317,"Name":"NORTHWEST BRANCH LIBRARY","Address":"580 GREEN WAY BLVD","City":"LAKE MARY","Zip":"32746","COUNTY":"SEMINOLE","X":-81.339272910000005,"Y":28.734404260000002,"LONGLAT":"-81.33927291,28.73440426","USNG":"17R MM 66870 78607","OWNERSHIP":null,"PARCELID":null,"FACILITY_TYPE":"DISASTER RECOVERY CENTER","ADDRESSCITYZIP":"580 GREEN WAY BLVD LAKE MARY , FL 32746"}},{"type":"Feature","id":318,"geometry":{"type":"Point","coordinates":[-81.299136540476979,28.743191616982585]},"properties":{"OBJECTID":318,"Name":"MUSEUM OF SEMINOLE COUNTY HISTORY","Address":"300 BUSH BLVD","City":"SANFORD","Zip":"32773","COUNTY":"SEMINOLE","X":-81.299136540000006,"Y":28.743191620000001,"LONGLAT":"-81.29913654,28.74319162","USNG":"17R MM 70792 79570","OWNERSHIP":null,"PARCELID":null,"FACILITY_TYPE":"DISASTER RECOVERY CENTER","ADDRESSCITYZIP":"300 BUSH BLVD SANFORD , FL 32773"}},{"type":"Feature","id":319,"geometry":{"type":"Point","coordinates":[-81.203664161949774,28.675401212515865]},"properties":{"OBJECTID":319,"Name":"EAST BRANCH LIBRARY","Address":"310 N DIVISION ST","City":"OVIEDO","Zip":"32765","COUNTY":"SEMINOLE","X":-81.203664160000002,"Y":28.67540121,"LONGLAT":"-81.20366416,28.67540121","USNG":"17R MM 80101 72040","OWNERSHIP":null,"PARCELID":null,"FACILITY_TYPE":"DISASTER RECOVERY CENTER","ADDRESSCITYZIP":"310 N DIVISION ST OVIEDO , FL 32765"}},{"type":"Feature","id":320,"geometry":{"type":"Point","coordinates":[-81.445869215278648,28.693949389937213]},"properties":{"OBJECTID":320,"Name":"WEST BRANCH LIBRARY","Address":"245 HUNT CLUB BLVD","City":"LONGWOOD","Zip":"32779","COUNTY":"SEMINOLE","X":-81.445869220000006,"Y":28.69394939,"LONGLAT":"-81.44586922,28.69394939","USNG":"17R MM 56444 74159","OWNERSHIP":null,"PARCELID":"062129300007C0000","FACILITY_TYPE":"DISASTER RECOVERY CENTER","ADDRESSCITYZIP":"245 HUNT CLUB BLVD LONGWOOD , FL 32779"}},{"type":"Feature","id":321,"geometry":{"type":"Point","coordinates":[-82.00241685836221,28.926607314486223]},"properties":{"OBJECTID":321,"Name":"LAUREL MANOR RECREATIONAL CENTER","Address":"1985 LAUREL MANOR DR","City":"LADY LAKE","Zip":"32159","COUNTY":"SUMTER","X":-82.002416859999997,"Y":28.926607319999999,"LONGLAT":"-82.00241686,28.92660732","USNG":"17R MN 02293 00267","OWNERSHIP":null,"PARCELID":null,"FACILITY_TYPE":"DISASTER RECOVERY CENTER","ADDRESSCITYZIP":"1985 LAUREL MANOR DR LADY LAKE , FL 32159"}},{"type":"Feature","id":322,"geometry":{"type":"Point","coordinates":[-82.041138903580105,28.858558022772016]},"properties":{"OBJECTID":322,"Name":"OLD WILDWOOD SHOPPING CENTER","Address":"322 SHOPPING CENTER DR","City":"WILDWOOD","Zip":"34785","COUNTY":"SUMTER","X":-82.041138900000007,"Y":28.85855802,"LONGLAT":"-82.04113890,28.85855802","USNG":"17R LM 98452 92760","OWNERSHIP":null,"PARCELID":"G06=063","FACILITY_TYPE":"DISASTER RECOVERY CENTER","ADDRESSCITYZIP":"322 SHOPPING CENTER DR WILDWOOD , FL 34785"}},{"type":"Feature","id":323,"geometry":{"type":"Point","coordinates":[-82.113042800154645,28.676251499305515]},"properties":{"OBJECTID":323,"Name":"SUMTER-BUSHNELL SHOPPING CENTER","Address":"910 MAIN ST","City":"BUSHNELL","Zip":"33513","COUNTY":"SUMTER","X":-82.113042800000002,"Y":28.676251499999999,"LONGLAT":"-82.11304280,28.67625150","USNG":"17R LM 91249 72624","OWNERSHIP":null,"PARCELID":null,"FACILITY_TYPE":"DISASTER RECOVERY CENTER","ADDRESSCITYZIP":"910 MAIN ST BUSHNELL , FL 33513"}},{"type":"Feature","id":324,"geometry":{"type":"Point","coordinates":[-81.998931551571076,28.951375742932214]},"properties":{"OBJECTID":324,"Name":"SAVANNAH CENTER","Address":"1545 BUENA VISTA BLVD","City":"LADY LAKE","Zip":"32162","COUNTY":"SUMTER","X":-81.998931549999995,"Y":28.95137574,"LONGLAT":"-81.99893155,28.95137574","USNG":"17R MN 02655 03009","OWNERSHIP":null,"PARCELID":"D23A250","FACILITY_TYPE":"DISASTER RECOVERY CENTER","ADDRESSCITYZIP":"1545 BUENA VISTA BLVD LADY LAKE , FL 32162"}},{"type":"Feature","id":325,"geometry":{"type":"Point","coordinates":[-81.961263574700226,28.865962314465534]},"properties":{"OBJECTID":325,"Name":"COLONY COTTAGE REGIONAL RECREATIONAL CENTER","Address":"510 COLONY BLVD","City":"FRUITLAND PARK","Zip":"34731","COUNTY":"SUMTER","X":-81.96126357,"Y":28.865962320000001,"LONGLAT":"-81.96126357,28.86596232","USNG":"17R MM 06250 93515","OWNERSHIP":null,"PARCELID":null,"FACILITY_TYPE":"DISASTER RECOVERY CENTER","ADDRESSCITYZIP":"510 COLONY BLVD FRUITLAND PARK , FL 34731"}},{"type":"Feature","id":326,"geometry":{"type":"Point","coordinates":[-82.130297959015195,28.7753661925126]},"properties":{"OBJECTID":326,"Name":"LAKE PANASOFFKEE RECREATIONAL CENTER","Address":"1582 COUNTY ROAD 459","City":"LAKE PANASOFFKEE","Zip":"33538","COUNTY":"SUMTER","X":-82.130297959999993,"Y":28.77536619,"LONGLAT":"-82.13029796,28.77536619","USNG":"17R LM 89668 83622","OWNERSHIP":null,"PARCELID":"J05=096","FACILITY_TYPE":"DISASTER RECOVERY CENTER","ADDRESSCITYZIP":"1582 COUNTY ROAD 459 LAKE PANASOFFKEE , FL 33538"}},{"type":"Feature","id":327,"geometry":{"type":"Point","coordinates":[-82.924657256344801,29.963979380734497]},"properties":{"OBJECTID":327,"Name":"BRANFORD HIGH SCHOOL","Address":"405 NE REYNOLDS ST","City":"BRANFORD","Zip":"32008","COUNTY":"SUWANNEE","X":-82.924657260000004,"Y":29.963979380000001,"LONGLAT":"-82.92465726,29.96397938","USNG":"17R LP 14286 16352","OWNERSHIP":"COUNTY","PARCELID":"1606S14E04271870000","FACILITY_TYPE":"DISASTER RECOVERY CENTER","ADDRESSCITYZIP":"405 NE REYNOLDS ST BRANFORD , FL 32008"}},{"type":"Feature","id":328,"geometry":{"type":"Point","coordinates":[-82.918507393814608,29.963935354186141]},"properties":{"OBJECTID":328,"Name":"BRANFORD ELEMENTARY SCHOOL","Address":"26801 STATE ROAD 247","City":"BRANFORD","Zip":"32008","COUNTY":"SUWANNEE","X":-82.918507390000002,"Y":29.963935360000001,"LONGLAT":"-82.91850739,29.96393536","USNG":"17R LP 14880 16337","OWNERSHIP":"COUNTY","PARCELID":"1606S14E03953000000","FACILITY_TYPE":"DISASTER RECOVERY CENTER","ADDRESSCITYZIP":"26801 STATE ROAD 247 BRANFORD , FL 32008"}},{"type":"Feature","id":329,"geometry":{"type":"Point","coordinates":[-82.995251987462822,30.283456120672014]},"properties":{"OBJECTID":329,"Name":"SUWANNEE INTERMEDIATE SCHOOL","Address":"1419 WALKER AVE SW","City":"LIVE OAK","Zip":"32064","COUNTY":"SUWANNEE","X":-82.99525199,"Y":30.28345612,"LONGLAT":"-82.99525199,30.28345612","USNG":"17R LP 08092 51880","OWNERSHIP":"COUNTY","PARCELID":"2602S13E07869000000","FACILITY_TYPE":"DISASTER RECOVERY CENTER","ADDRESSCITYZIP":"1419 WALKER AVE SW LIVE OAK , FL 32064"}},{"type":"Feature","id":330,"geometry":{"type":"Point","coordinates":[-83.574467738869856,30.077533631542455]},"properties":{"OBJECTID":330,"Name":"PERRY-FOLEY AIRPORT","Address":"511 INDUSTRIAL PARK DR","City":"PERRY","Zip":"32348","COUNTY":"TAYLOR","X":-83.574467740000003,"Y":30.077533630000001,"LONGLAT":"-83.57446774,30.07753363","USNG":"17R KP 51849 30172","OWNERSHIP":"COUNTY","PARCELID":"01050705928000","FACILITY_TYPE":"DISASTER RECOVERY CENTER","ADDRESSCITYZIP":"511 INDUSTRIAL PARK DR PERRY , FL 32348"}},{"type":"Feature","id":331,"geometry":{"type":"Point","coordinates":[-83.375779748443762,29.673307524432282]},"properties":{"OBJECTID":331,"Name":"STEINHATCHEE ELEMENTARY SCHOOL","Address":"1209 SE 1ST AVE","City":"STEINHATCHEE","Zip":"32359","COUNTY":"TAYLOR","X":-83.375779750000007,"Y":29.673307529999999,"LONGLAT":"-83.37577975,29.67330753","USNG":"17R KN 70080 84946","OWNERSHIP":null,"PARCELID":"25090909756000","FACILITY_TYPE":"DISASTER RECOVERY CENTER","ADDRESSCITYZIP":"1209 SE 1ST AVE STEINHATCHEE , FL 32359"}},{"type":"Feature","id":332,"geometry":{"type":"Point","coordinates":[-82.424301366792577,29.928975064983149]},"properties":{"OBJECTID":332,"Name":"WORTHINGTON SPRINGS COMMUNITY CENTER","Address":"3635 SW STATE ROAD 121","City":"LAKE BUTLER","Zip":"32054","COUNTY":"UNION","X":-82.424301369999995,"Y":29.92897507,"LONGLAT":"-82.42430137,29.92897507","USNG":"17R LP 62524 11767","OWNERSHIP":"COUNTY","PARCELID":" ","FACILITY_TYPE":"DISASTER RECOVERY CENTER","ADDRESSCITYZIP":"3635 SW STATE ROAD 121 LAKE BUTLER , FL 32054"}},{"type":"Feature","id":333,"geometry":{"type":"Point","coordinates":[-82.546206454371244,30.002455330233968]},"properties":{"OBJECTID":333,"Name":"PROVIDENCE COMMUNITY CENTER","Address":"8562 SW 45TH CT","City":"LAKE BUTLER","Zip":"32054","COUNTY":"UNION","X":-82.54620645,"Y":30.00245533,"LONGLAT":"-82.54620645,30.00245533","USNG":"17R LP 50866 20063","OWNERSHIP":"COUNTY","PARCELID":" ","FACILITY_TYPE":"DISASTER RECOVERY CENTER","ADDRESSCITYZIP":"8562 SW 45TH CT LAKE BUTLER , FL 32054"}},{"type":"Feature","id":334,"geometry":{"type":"Point","coordinates":[-82.339322586764752,30.01761175818875]},"properties":{"OBJECTID":334,"Name":"LAKE BUTLER MIDDLE SCHOOL GYMNASIUM","Address":"150 SW 6TH ST","City":"LAKE BUTLER","Zip":"32054","COUNTY":"UNION","X":-82.339322589999995,"Y":30.017611760000001,"LONGLAT":"-82.33932259,30.01761176","USNG":"17R LP 70842 21492","OWNERSHIP":null,"PARCELID":"31-05-20-00-000-0390-0","FACILITY_TYPE":"DISASTER RECOVERY CENTER","ADDRESSCITYZIP":"150 SW 6TH ST LAKE BUTLER , FL 32054"}},{"type":"Feature","id":335,"geometry":{"type":"Point","coordinates":[-82.239413831094566,30.061661612550612]},"properties":{"OBJECTID":335,"Name":"RAIFORD COMMUNITY CENTER","Address":"N COUNTY ROAD 121 & WHITTEN ST","City":"RAIFORD","Zip":"32083","COUNTY":"UNION","X":-82.239413830000004,"Y":30.061661610000002,"LONGLAT":"-82.23941383,30.06166161","USNG":"17R LP 80530 26265","OWNERSHIP":"MUNICIPAL","PARCELID":"18-05-21-00-000-0780-0","FACILITY_TYPE":"DISASTER RECOVERY CENTER","ADDRESSCITYZIP":"N COUNTY ROAD 121 & WHITTEN ST RAIFORD , FL 32083"}},{"type":"Feature","id":336,"geometry":{"type":"Point","coordinates":[-81.224389999926089,29.017328999056343]},"properties":{"OBJECTID":336,"Name":"VOLUSIA COUNTY FAIRGROUNDS","Address":"3150 E. STATE RD. 44","City":"DELAND","Zip":"32724","COUNTY":"VOLUSIA","X":-81.22439,"Y":29.017329,"LONGLAT":"-81.22439000,29.01732900","USNG":"17R MN 78148 09926","OWNERSHIP":"MUNICIPAL","PARCELID":"31171802100500","FACILITY_TYPE":"DISASTER RECOVERY CENTER","ADDRESSCITYZIP":"3150 E. STATE RD. 44 DELAND , FL 32724"}},{"type":"Feature","id":337,"geometry":{"type":"Point","coordinates":[-81.243155024276049,29.011992886236516]},"properties":{"OBJECTID":337,"Name":"DAYTONA STATE COLLEGE - DELAND CAMPUS","Address":"1156 COUNTY ROAD 4139","City":"DELAND","Zip":"32724","COUNTY":"VOLUSIA","X":-81.243155020000003,"Y":29.011992889999998,"LONGLAT":"-81.24315502,29.01199289","USNG":"17R MN 76319 09338","OWNERSHIP":"STATE","PARCELID":"30172400000012","FACILITY_TYPE":"DISASTER RECOVERY CENTER","ADDRESSCITYZIP":"1156 COUNTY ROAD 4139 DELAND , FL 32724"}},{"type":"Feature","id":338,"geometry":{"type":"Point","coordinates":[-81.281139999414023,28.913246999235543]},"properties":{"OBJECTID":338,"Name":"WAL-MART PARKING LOT","Address":"2400 VETERANS MEMORIAL PKWY","City":"ORANGE CITY","Zip":"32763","COUNTY":"VOLUSIA","X":-81.281139999999994,"Y":28.913246999999998,"LONGLAT":"-81.28114000,28.91324700","USNG":"17R MM 72594 98406","OWNERSHIP":null,"PARCELID":"30182400000072","FACILITY_TYPE":"DISASTER RECOVERY CENTER","ADDRESSCITYZIP":"2400 VETERANS MEMORIAL PKWY ORANGE CITY , FL 32763"}},{"type":"Feature","id":339,"geometry":{"type":"Point","coordinates":[-81.000198406899656,29.165816617184944]},"properties":{"OBJECTID":339,"Name":"SUNSHINE PARK MALL","Address":"2400 S. RIDGEWOOD AVE.","City":"DAYTONA BEACH","Zip":"32119","COUNTY":"VOLUSIA","X":-81.000198409999996,"Y":29.165816620000001,"LONGLAT":"-81.00019841,29.16581662","USNG":"17R MN 99980 26356","OWNERSHIP":null,"PARCELID":"33154408030010","FACILITY_TYPE":"DISASTER RECOVERY CENTER","ADDRESSCITYZIP":"2400 S. RIDGEWOOD AVE. DAYTONA BEACH , FL 32119"}},{"type":"Feature","id":340,"geometry":{"type":"Point","coordinates":[-86.303261537454958,30.972941974414486]},"properties":{"OBJECTID":340,"Name":"PAXTON FARM CENTER","Address":"21829 US HIGHWAY 331","City":"LAUREL HILL","Zip":"32567","COUNTY":"WALTON","X":-86.303261539999994,"Y":30.972941980000002,"LONGLAT":"-86.30326154,30.97294198","USNG":"16R EV 66534 26811","OWNERSHIP":null,"PARCELID":"36-6N-21-40000-016-0000","FACILITY_TYPE":"DISASTER RECOVERY CENTER","ADDRESSCITYZIP":"21829 US HIGHWAY 331 LAUREL HILL , FL 32567"}},{"type":"Feature","id":341,"geometry":{"type":"Point","coordinates":[-86.133668319993674,30.500202722962058]},"properties":{"OBJECTID":341,"Name":"THE FREEPORT MIDDLE SCHOOL MEDIA CENTER","Address":"360 KYLEA LAIRD DR","City":"FREEPORT","Zip":"32439","COUNTY":"WALTON","X":-86.133668319999998,"Y":30.500202720000001,"LONGLAT":"-86.13366832,30.50020272","USNG":"16R EU 83135 74532","OWNERSHIP":"COUNTY","PARCELID":"15-1S-19-23000-017-0010","FACILITY_TYPE":"DISASTER RECOVERY CENTER","ADDRESSCITYZIP":"360 KYLEA LAIRD DR FREEPORT , FL 32439"}},{"type":"Feature","id":342,"geometry":{"type":"Point","coordinates":[-86.181975999385955,30.37116299900217]},"properties":{"OBJECTID":342,"Name":"COASTAL BRANCH LIBRARY","Address":"336 GREENWAY TRAIL","City":"SANTA ROSA BEACH","Zip":"32459","COUNTY":"WALTON","X":-86.181976000000006,"Y":30.371162999999999,"LONGLAT":"-86.18197600,30.37116300","USNG":"16R EU 78602 60198","OWNERSHIP":null,"PARCELID":"31-2S-19-24000-001-0020","FACILITY_TYPE":"DISASTER RECOVERY CENTER","ADDRESSCITYZIP":"336 GREENWAY TRAIL SANTA ROSA BEACH , FL 32459"}},{"type":"Feature","id":343,"geometry":{"type":"Point","coordinates":[-85.553032000723775,30.742532999128805]},"properties":{"OBJECTID":343,"Name":"BLUE LAKE COMMUNITY CENTER","Address":"1865 HWY 77","City":"CHIPLEY","Zip":"32428","COUNTY":"WASHINGTON","X":-85.553032000000002,"Y":30.742533000000002,"LONGLAT":"-85.55303200,30.74253300","USNG":"16R FV 38513 01962","OWNERSHIP":null,"PARCELID":"00000000-00-2372-0000","FACILITY_TYPE":"DISASTER RECOVERY CENTER","ADDRESSCITYZIP":"1865 HWY 77 CHIPLEY , FL 32428"}},{"type":"Feature","id":344,"geometry":{"type":"Point","coordinates":[-85.588847047684212,30.636687441040781]},"properties":{"OBJECTID":344,"Name":"POSSUM PALACE COMMUNITY CENTER","Address":"3121 POSSUM PALACE DRIVE","City":"CHIPLEY","Zip":"32428","COUNTY":"WASHINGTON","X":-85.588847049999998,"Y":30.636687439999999,"LONGLAT":"-85.58884705,30.63668744","USNG":"16R FU 35231 90187","OWNERSHIP":"MUNICIPAL","PARCELID":"00000000-00-3573-0001","FACILITY_TYPE":"DISASTER RECOVERY CENTER","ADDRESSCITYZIP":"3121 POSSUM PALACE DRIVE CHIPLEY , FL 32428"}},{"type":"Feature","id":345,"geometry":{"type":"Point","coordinates":[-85.761477000020591,30.700889998649213]},"properties":{"OBJECTID":345,"Name":"VJ COLLINS RECREATION CENTER","Address":"3892 DESALVO ROAD","City":"CARYVILLE","Zip":"32427","COUNTY":"WASHINGTON","X":-85.761476999999999,"Y":30.700890000000001,"LONGLAT":"-85.76147700,30.70089000","USNG":"16R FU 18608 97108","OWNERSHIP":"COUNTY","PARCELID":"00000000-00-4471-0002","FACILITY_TYPE":"DISASTER RECOVERY CENTER","ADDRESSCITYZIP":"3892 DESALVO ROAD CARYVILLE , FL 32427"}},{"type":"Feature","id":346,"geometry":{"type":"Point","coordinates":[-85.873259823896547,30.440494078352742]},"properties":{"OBJECTID":346,"Name":"EBRO TOWN HALL","Address":"6629 DOG TRACK RD","City":"EBRO","Zip":"32437","COUNTY":"WASHINGTON","X":-85.873259820000001,"Y":30.440494080000001,"LONGLAT":"-85.87325982,30.44049408","USNG":"16R FU 08191 68136","OWNERSHIP":"MUNICIPAL","PARCELID":"00000000-00-5226-0001","FACILITY_TYPE":"DISASTER RECOVERY CENTER","ADDRESSCITYZIP":"6629 DOG TRACK RD EBRO , FL 32437"}}]}