{"type":"FeatureCollection","features":[{"type":"Feature","id":1,"geometry":{"type":"Point","coordinates":[-82.351073102672288,29.633117778718749]},"properties":{"OBJECTID":1,"Name":"SHANDSCAIR EMS","Address":"1600 SW SHEALY DR","City":"GAINESVILLE","Zip":" ","COUNTY":"ALACHUA","X":-82.351073099999994,"Y":29.633117779999999,"LONGLAT":"-82.35107310,29.63311778","USNG":"17R LN 69209 78895","OWNERSHIP":null,"PARCELID":null,"FACILITY_TYPE":"EMERGENCY MEDICAL SERVICE"}},{"type":"Feature","id":2,"geometry":{"type":"Point","coordinates":[-82.319392719504876,29.643286103382231]},"properties":{"OBJECTID":2,"Name":"ALACHUA CO FIRE RESCUE HQ","Address":"911 SE 5TH ST","City":"GAINESVILLE","Zip":"32601","COUNTY":"ALACHUA","X":-82.319392719999996,"Y":29.643286100000001,"LONGLAT":"-82.31939272,29.64328610","USNG":"17R LN 72289 79986","OWNERSHIP":"COUNTY","PARCELID":"16001 002 000","FACILITY_TYPE":"EMERGENCY MEDICAL SERVICE"}},{"type":"Feature","id":3,"geometry":{"type":"Point","coordinates":[-82.308341819222861,29.66056645699722]},"properties":{"OBJECTID":3,"Name":"GAINESVILLE FIRE RESCUE DEPT","Address":"1025 NE 13TH ST","City":"GAINESVILLE","Zip":"32601","COUNTY":"ALACHUA","X":-82.308341819999995,"Y":29.660566459999998,"LONGLAT":"-82.30834182,29.66056646","USNG":"17R LN 73380 81889","OWNERSHIP":"MUNICIPAL","PARCELID":"10515 010 003","FACILITY_TYPE":"EMERGENCY MEDICAL SERVICE"}},{"type":"Feature","id":4,"geometry":{"type":"Point","coordinates":[-82.350677378353737,29.635162719939842]},"properties":{"OBJECTID":4,"Name":"SHANDS AIR AMBULANCE","Address":"1600 SW SHEALY DR","City":"GAINESVILLE","Zip":"32608","COUNTY":"ALACHUA","X":-82.350677379999993,"Y":29.63516272,"LONGLAT":"-82.35067738,29.63516272","USNG":"17R LN 69250 79121","OWNERSHIP":"PRIVATE","PARCELID":"15505 002 002","FACILITY_TYPE":"EMERGENCY MEDICAL SERVICE"}},{"type":"Feature","id":5,"geometry":{"type":"Point","coordinates":[-82.1396479153927,30.279442782869243]},"properties":{"OBJECTID":5,"Name":"BAKER CO EMS","Address":"1190 W MACCLENNY AVE","City":"MACCLENNY","Zip":"32063","COUNTY":"BAKER","X":-82.139647920000002,"Y":30.27944278,"LONGLAT":"-82.13964792,30.27944278","USNG":"17R LP 90389 50300","OWNERSHIP":"COUNTY","PARCELID":"312S22000000000387","FACILITY_TYPE":"EMERGENCY MEDICAL SERVICE"}},{"type":"Feature","id":6,"geometry":{"type":"Point","coordinates":[-82.273696807855828,30.249589869706437]},"properties":{"OBJECTID":6,"Name":"BAKER CO EMS STATION 2","Address":"14275 W US 90","City":"SANDERSON","Zip":"32087","COUNTY":"BAKER","X":-82.273696810000004,"Y":30.249589870000001,"LONGLAT":"-82.27369681,30.24958987","USNG":"17R LP 77458 47128","OWNERSHIP":"COUNTY","PARCELID":"123S20005000420010","FACILITY_TYPE":"EMERGENCY MEDICAL SERVICE"}},{"type":"Feature","id":7,"geometry":{"type":"Point","coordinates":[-85.439270326111085,30.360211612155293]},"properties":{"OBJECTID":7,"Name":"EMS STATION 4","Address":"11711 US HIGHWAY 231","City":"YOUNGSTOWN","Zip":"32466","COUNTY":"BAY","X":-85.439270329999999,"Y":30.36021161,"LONGLAT":"-85.43927033,30.36021161","USNG":"16R FU 49991 59733","OWNERSHIP":"COUNTY","PARCELID":"03631-020-000","FACILITY_TYPE":"EMERGENCY MEDICAL SERVICE"}},{"type":"Feature","id":8,"geometry":{"type":"Point","coordinates":[-85.648386423583148,30.245914789571049]},"properties":{"OBJECTID":8,"Name":"EMS STATION 3","Address":"827 OHIO AVE","City":"LYNN HAVEN","Zip":"32444","COUNTY":"BAY","X":-85.648386419999994,"Y":30.24591479,"LONGLAT":"-85.64838642,30.24591479","USNG":"16R FU 30043 46807","OWNERSHIP":"COUNTY","PARCELID":"09611-000-000","FACILITY_TYPE":"EMERGENCY MEDICAL SERVICE"}},{"type":"Feature","id":9,"geometry":{"type":"Point","coordinates":[-85.890089042712432,30.23036719199262]},"properties":{"OBJECTID":9,"Name":"EMS STATION 8","Address":"17109 PANAMA CITY BEACH PKWY","City":"PANAMA CITY BEACH","Zip":"32413","COUNTY":"BAY","X":-85.890089040000007,"Y":30.230367189999999,"LONGLAT":"-85.89008904,30.23036719","USNG":"16R FU 06803 44833","OWNERSHIP":"COUNTY","PARCELID":"33387-000-000","FACILITY_TYPE":"EMERGENCY MEDICAL SERVICE"}},{"type":"Feature","id":10,"geometry":{"type":"Point","coordinates":[-85.650015743290837,30.157889170252503]},"properties":{"OBJECTID":10,"Name":"BAY MEDICAL EMS","Address":"518 N COVE BLVD","City":"PANAMA CITY","Zip":"32401","COUNTY":"BAY","X":-85.650015740000001,"Y":30.157889170000001,"LONGLAT":"-85.65001574,30.15788917","USNG":"16R FU 30002 37050","OWNERSHIP":"COUNTY","PARCELID":"20802-000-000","FACILITY_TYPE":"EMERGENCY MEDICAL SERVICE"}},{"type":"Feature","id":11,"geometry":{"type":"Point","coordinates":[-85.591515942427534,30.156644971379393]},"properties":{"OBJECTID":11,"Name":"EMS STATION 7","Address":"489 N TYNDALL PKWY","City":"PANAMA CITY","Zip":"32404","COUNTY":"BAY","X":-85.591515939999994,"Y":30.156644969999999,"LONGLAT":"-85.59151594,30.15664497","USNG":"16R FU 35637 36980","OWNERSHIP":"COUNTY","PARCELID":"24407-000-000","FACILITY_TYPE":"EMERGENCY MEDICAL SERVICE"}},{"type":"Feature","id":12,"geometry":{"type":"Point","coordinates":[-85.804066789316266,30.181005875953737]},"properties":{"OBJECTID":12,"Name":"EMS STATION 2","Address":"10005 HUTCHISON BLVD","City":"PANAMA CITY BEACH","Zip":"32407","COUNTY":"BAY","X":-85.804066789999993,"Y":30.181005880000001,"LONGLAT":"-85.80406679,30.18100588","USNG":"16R FU 15139 39446","OWNERSHIP":"COUNTY","PARCELID":"34881-050-000","FACILITY_TYPE":"EMERGENCY MEDICAL SERVICE"}},{"type":"Feature","id":13,"geometry":{"type":"Point","coordinates":[-85.675955247440541,30.212306215760268]},"properties":{"OBJECTID":13,"Name":"CHIPOLA AVIATION AIR AMBULANCE","Address":"1001 JACKSON WAY","City":"PANAMA CITY","Zip":"32405","COUNTY":"BAY","X":-85.675955250000001,"Y":30.212306219999999,"LONGLAT":"-85.67595525,30.21230622","USNG":"16R FU 27433 43052","OWNERSHIP":"PRIVATE","PARCELID":"11730-000-000","FACILITY_TYPE":"EMERGENCY MEDICAL SERVICE"}},{"type":"Feature","id":14,"geometry":{"type":"Point","coordinates":[-82.109512472602532,29.954315138706008]},"properties":{"OBJECTID":14,"Name":"BRADFORD COUNTY EMS","Address":"945B N TEMPLE AVE","City":"STARKE","Zip":"32091","COUNTY":"BRADFORD","X":-82.109512469999999,"Y":29.954315139999999,"LONGLAT":"-82.10951247,29.95431514","USNG":"17R LP 92937 14240","OWNERSHIP":"COUNTY","PARCELID":"02405-0-00000","FACILITY_TYPE":"EMERGENCY MEDICAL SERVICE"}},{"type":"Feature","id":15,"geometry":{"type":"Point","coordinates":[-80.505915610896153,27.883080818627917]},"properties":{"OBJECTID":15,"Name":"BREVARD CO FIRE RESCUE ST 86 EMS","Address":"301 BAREFOOT BLVD","City":"SEBASTIAN","Zip":"32976","COUNTY":"BREVARD","X":-80.505915610000002,"Y":27.88308082,"LONGLAT":"-80.50591561,27.88308082","USNG":"17R NL 48632 84348","OWNERSHIP":"COUNTY","PARCELID":"30 381100  532","FACILITY_TYPE":"EMERGENCY MEDICAL SERVICE"}},{"type":"Feature","id":16,"geometry":{"type":"Point","coordinates":[-80.578642954174001,28.127486001259413]},"properties":{"OBJECTID":16,"Name":"BREVARD CO FIRE RESCUE ST 63 EMS","Address":"2602 N STATE ROAD A1A","City":"INDIALANTIC","Zip":"32903","COUNTY":"BREVARD","X":-80.578642950000003,"Y":28.127486000000001,"LONGLAT":"-80.57864295,28.12748600","USNG":"17R NM 41380 11396","OWNERSHIP":"COUNTY","PARCELID":"27 371300  759","FACILITY_TYPE":"EMERGENCY MEDICAL SERVICE"}},{"type":"Feature","id":17,"geometry":{"type":"Point","coordinates":[-80.670467226828933,28.079669266975987]},"properties":{"OBJECTID":17,"Name":"BREVARD CO FIRE RESCUE ST 82 EMS","Address":"109 PINE ST","City":"MELBOURNE","Zip":"32904","COUNTY":"BREVARD","X":-80.67046723,"Y":28.07966927,"LONGLAT":"-80.67046723,28.07966927","USNG":"17R NM 32376 06071","OWNERSHIP":"COUNTY","PARCELID":"28 370626        75","FACILITY_TYPE":"EMERGENCY MEDICAL SERVICE"}},{"type":"Feature","id":18,"geometry":{"type":"Point","coordinates":[-80.783529948510136,28.359179864631834]},"properties":{"OBJECTID":18,"Name":"BREVARD CO FIRE RESCUE ST 44 EMS","Address":"3780 KING ST","City":"COCOA","Zip":"32926","COUNTY":"BREVARD","X":-80.783529950000002,"Y":28.359179869999998,"LONGLAT":"-80.78352995,28.35917987","USNG":"17R NM 21212 37010","OWNERSHIP":"COUNTY","PARCELID":"24 353600  262","FACILITY_TYPE":"EMERGENCY MEDICAL SERVICE"}},{"type":"Feature","id":19,"geometry":{"type":"Point","coordinates":[-80.820070112713182,28.606216177429687]},"properties":{"OBJECTID":19,"Name":"BREVARD CO FIRE RESCUE ST 23 EMS","Address":"770 SOUTH ST","City":"TITUSVILLE","Zip":"32780","COUNTY":"BREVARD","X":-80.820070110000003,"Y":28.606216180000001,"LONGLAT":"-80.82007011,28.60621618","USNG":"17R NM 17591 64372","OWNERSHIP":"COUNTY","PARCELID":"22 350476         1","FACILITY_TYPE":"EMERGENCY MEDICAL SERVICE"}},{"type":"Feature","id":20,"geometry":{"type":"Point","coordinates":[-80.627731283967151,28.107475673588848]},"properties":{"OBJECTID":20,"Name":"BREVARD CO FIRE RESCUE ST 67 EMS","Address":"11 NIEMAN AVE","City":"MELBOURNE","Zip":"32935","COUNTY":"BREVARD","X":-80.627731280000006,"Y":28.107475669999999,"LONGLAT":"-80.62773128,28.10747567","USNG":"17R NM 36566 09164","OWNERSHIP":"COUNTY","PARCELID":null,"FACILITY_TYPE":"EMERGENCY MEDICAL SERVICE"}},{"type":"Feature","id":21,"geometry":{"type":"Point","coordinates":[-80.676795958707714,28.225911768314802]},"properties":{"OBJECTID":21,"Name":"BREVARD CO FIRE RESCUE ST 80 EMS","Address":"400 PINEDA CT","City":"MELBOURNE","Zip":"32940","COUNTY":"BREVARD","X":-80.676795960000007,"Y":28.22591177,"LONGLAT":"-80.67679596,28.22591177","USNG":"17R NM 31711 22270","OWNERSHIP":"COUNTY","PARCELID":"26 361300   11","FACILITY_TYPE":"EMERGENCY MEDICAL SERVICE"}},{"type":"Feature","id":22,"geometry":{"type":"Point","coordinates":[-80.738444425298127,28.264536977281779]},"properties":{"OBJECTID":22,"Name":"BREVARD CO FIRE RESCUE ST 48 EMS","Address":"5550 PORADA DR","City":"VIERA","Zip":"32940","COUNTY":"BREVARD","X":-80.738444430000001,"Y":28.264536979999999,"LONGLAT":"-80.73844443,28.26453698","USNG":"17R NM 25653 26534","OWNERSHIP":"COUNTY","PARCELID":null,"FACILITY_TYPE":"EMERGENCY MEDICAL SERVICE"}},{"type":"Feature","id":23,"geometry":{"type":"Point","coordinates":[-80.672196725324355,28.030541782360665]},"properties":{"OBJECTID":23,"Name":"BREVARD CO FIRE RESCUE ST 83 EMS","Address":"5148 MINTON ROAD","City":"PALM BAY","Zip":"32907","COUNTY":"BREVARD","X":-80.672196729999996,"Y":28.03054178,"LONGLAT":"-80.67219673,28.03054178","USNG":"17R NM 32221 00628","OWNERSHIP":"COUNTY","PARCELID":"28 3624KR 2472   33","FACILITY_TYPE":"EMERGENCY MEDICAL SERVICE"}},{"type":"Feature","id":24,"geometry":{"type":"Point","coordinates":[-80.547687054787502,28.045879201147184]},"properties":{"OBJECTID":24,"Name":"BREVARD CO FIRE RESCUE ST 64 EMS","Address":"2550 S STATE ROAD A1A","City":"MELBOURNE BEACH","Zip":"32951","COUNTY":"BREVARD","X":-80.547687049999993,"Y":28.045879200000002,"LONGLAT":"-80.54768705,28.04587920","USNG":"17R NM 44453 02367","OWNERSHIP":"COUNTY","PARCELID":"28 381700  250","FACILITY_TYPE":"EMERGENCY MEDICAL SERVICE"}},{"type":"Feature","id":25,"geometry":{"type":"Point","coordinates":[-80.612312577497306,28.001145867261549]},"properties":{"OBJECTID":25,"Name":"BREVARD CO FIRE RESCUE ST 88 EMS","Address":"175 MEDPLEX PKWY","City":"PALM BAY","Zip":"32907","COUNTY":"BREVARD","X":-80.612312579999994,"Y":28.001145869999998,"LONGLAT":"-80.61231258,28.00114587","USNG":"17R NL 38118 97389","OWNERSHIP":"COUNTY","PARCELID":"28 373400  754","FACILITY_TYPE":"EMERGENCY MEDICAL SERVICE"}},{"type":"Feature","id":26,"geometry":{"type":"Point","coordinates":[-80.707201516438062,28.383920335589668]},"properties":{"OBJECTID":26,"Name":"BREVARD CO FIRE RESCUE ST 41 EMS","Address":"300 ALMA BLVD","City":"MERRITT ISLAND","Zip":"32953","COUNTY":"BREVARD","X":-80.707201519999998,"Y":28.38392034,"LONGLAT":"-80.70720152,28.38392034","USNG":"17R NM 28686 39767","OWNERSHIP":"COUNTY","PARCELID":"24 362300  251","FACILITY_TYPE":"EMERGENCY MEDICAL SERVICE"}},{"type":"Feature","id":27,"geometry":{"type":"Point","coordinates":[-80.829624852185717,28.542252201968253]},"properties":{"OBJECTID":27,"Name":"BREVARD CO FIRE RESCUE ST 24 EMS","Address":"2280 COLUMBIA BLVD","City":"TITUSVILLE","Zip":"32780","COUNTY":"BREVARD","X":-80.829624850000002,"Y":28.5422522,"LONGLAT":"-80.82962485,28.54225220","USNG":"17R NM 16667 57284","OWNERSHIP":"COUNTY","PARCELID":"22 353300  254","FACILITY_TYPE":"EMERGENCY MEDICAL SERVICE"}},{"type":"Feature","id":28,"geometry":{"type":"Point","coordinates":[-80.603324929484899,28.203813768484249]},"properties":{"OBJECTID":28,"Name":"BREVARD CO FIRE RESCUE ST 62 EMS","Address":"299 SEA PARK BLVD","City":"SATELLITE BEACH","Zip":"32937","COUNTY":"BREVARD","X":-80.603324929999999,"Y":28.20381377,"LONGLAT":"-80.60332493,28.20381377","USNG":"17R NM 38928 19843","OWNERSHIP":"COUNTY","PARCELID":"26 372300  501","FACILITY_TYPE":"EMERGENCY MEDICAL SERVICE"}},{"type":"Feature","id":29,"geometry":{"type":"Point","coordinates":[-80.723297695943572,28.334312130380258]},"properties":{"OBJECTID":29,"Name":"BREVARD CO FIRE RESCUE ST 45 EMS","Address":"113 LONGWOOD AVE","City":"ROCKLEDGE","Zip":"32955","COUNTY":"BREVARD","X":-80.723297700000003,"Y":28.334312130000001,"LONGLAT":"-80.72329770,28.33431213","USNG":"17R NM 27121 34267","OWNERSHIP":"COUNTY","PARCELID":"25 360478    3    6","FACILITY_TYPE":"EMERGENCY MEDICAL SERVICE"}},{"type":"Feature","id":30,"geometry":{"type":"Point","coordinates":[-80.648652970943857,28.135644926534173]},"properties":{"OBJECTID":30,"Name":"BREVARD CO FIRE RESCUE ST 66 EMS","Address":"1695 AURORA RD","City":"MELBOURNE","Zip":"32935","COUNTY":"BREVARD","X":-80.648652970000001,"Y":28.135644930000002,"LONGLAT":"-80.64865297,28.13564493","USNG":"17R NM 34502 12278","OWNERSHIP":"COUNTY","PARCELID":"27 371700  500","FACILITY_TYPE":"EMERGENCY MEDICAL SERVICE"}},{"type":"Feature","id":31,"geometry":{"type":"Point","coordinates":[-80.605079571046531,28.031281639327915]},"properties":{"OBJECTID":31,"Name":"BREVARD CO FIRE RESCUE ST 84 EMS","Address":"1391 CLEARMONT ST NE","City":"PALM BAY","Zip":"32905","COUNTY":"BREVARD","X":-80.605079570000001,"Y":28.03128164,"LONGLAT":"-80.60507957,28.03128164","USNG":"17R NM 38818 00730","OWNERSHIP":"COUNTY","PARCELID":"28 3723FN    5    1","FACILITY_TYPE":"EMERGENCY MEDICAL SERVICE"}},{"type":"Feature","id":32,"geometry":{"type":"Point","coordinates":[-80.702902581531248,28.146679057600725]},"properties":{"OBJECTID":32,"Name":"BREVARD CO FIRE RESCUE ST 81 EMS","Address":"4630 LAKE WASHINGTON RD","City":"MELBOURNE","Zip":"32934","COUNTY":"BREVARD","X":-80.70290258,"Y":28.14667906,"LONGLAT":"-80.70290258,28.14667906","USNG":"17R NM 29171 13486","OWNERSHIP":"COUNTY","PARCELID":"27 361100  530","FACILITY_TYPE":"EMERGENCY MEDICAL SERVICE"}},{"type":"Feature","id":33,"geometry":{"type":"Point","coordinates":[-80.845681042125818,28.666148792894592]},"properties":{"OBJECTID":33,"Name":"BREVARD CO FIRE RESCUE ST 22 EMS","Address":"2475 TAYLOR ST","City":"MIMS","Zip":"32754","COUNTY":"BREVARD","X":-80.845681040000002,"Y":28.666148790000001,"LONGLAT":"-80.84568104,28.66614879","USNG":"17R NM 15078 71008","OWNERSHIP":"COUNTY","PARCELID":"21 351751        18","FACILITY_TYPE":"EMERGENCY MEDICAL SERVICE"}},{"type":"Feature","id":34,"geometry":{"type":"Point","coordinates":[-80.717310309244638,28.304574472441516]},"properties":{"OBJECTID":34,"Name":"COASTAL HEALTH SYSTEM - BREVARD AMBULANCE","Address":"486 GUS HIPP BLVD","City":"ROCKLEDGE","Zip":"32955","COUNTY":"BREVARD","X":-80.717310310000002,"Y":28.304574469999999,"LONGLAT":"-80.71731031,28.30457447","USNG":"17R NM 27716 30974","OWNERSHIP":"OTHER PUBLIC","PARCELID":"25 361500  524","FACILITY_TYPE":"EMERGENCY MEDICAL SERVICE"}},{"type":"Feature","id":35,"geometry":{"type":"Point","coordinates":[-80.669141229189677,27.998748646344485]},"properties":{"OBJECTID":35,"Name":"PALM BAY FD ST 2 EMS","Address":"150 MALABAR RD SE","City":"PALM BAY","Zip":"32909","COUNTY":"BREVARD","X":-80.669141229999994,"Y":27.99874865,"LONGLAT":"-80.66914123,27.99874865","USNG":"17R NL 32531 97107","OWNERSHIP":"MUNICIPAL","PARCELID":"29 3706GK    A","FACILITY_TYPE":"EMERGENCY MEDICAL SERVICE"}},{"type":"Feature","id":36,"geometry":{"type":"Point","coordinates":[-80.628568930060965,27.95195994853367]},"properties":{"OBJECTID":36,"Name":"PALM BAY FD ST 4 EMS","Address":"1200 SAN FILIPPO DR SE","City":"PALM BAY","Zip":"32909","COUNTY":"BREVARD","X":-80.62856893,"Y":27.951959949999999,"LONGLAT":"-80.62856893,27.95195995","USNG":"17R NL 36536 91936","OWNERSHIP":"MUNICIPAL","PARCELID":"29 3721GR    D","FACILITY_TYPE":"EMERGENCY MEDICAL SERVICE"}},{"type":"Feature","id":37,"geometry":{"type":"Point","coordinates":[-80.634248272403738,27.993405388163612]},"properties":{"OBJECTID":37,"Name":"PALM BAY FD ST 5 EMS","Address":"37 SAN FILIPPO DR SE","City":"PALM BAY","Zip":"32909","COUNTY":"BREVARD","X":-80.634248270000001,"Y":27.993405389999999,"LONGLAT":"-80.63424827,27.99340539","USNG":"17R NL 35963 96525","OWNERSHIP":"MUNICIPAL","PARCELID":"29 3704MZ    R","FACILITY_TYPE":"EMERGENCY MEDICAL SERVICE"}},{"type":"Feature","id":38,"geometry":{"type":"Point","coordinates":[-80.613980044439501,28.084826527538258]},"properties":{"OBJECTID":38,"Name":"MELBOURNE FD ST 74 EMS","Address":"1500 HICKORY ST","City":"MELBOURNE","Zip":"32901","COUNTY":"BREVARD","X":-80.613980040000001,"Y":28.084826530000001,"LONGLAT":"-80.61398004,28.08482653","USNG":"17R NM 37924 06659","OWNERSHIP":"MUNICIPAL","PARCELID":"28 3703FG    N    1","FACILITY_TYPE":"EMERGENCY MEDICAL SERVICE"}},{"type":"Feature","id":39,"geometry":{"type":"Point","coordinates":[-80.712982878073134,28.234503061941574]},"properties":{"OBJECTID":39,"Name":"BREVARD CO FIRE RESCUE ST 47 EMS","Address":"7225 MURRELL RD","City":"MELBOURNE","Zip":"32940","COUNTY":"BREVARD","X":-80.712982879999998,"Y":28.234503060000002,"LONGLAT":"-80.71298288,28.23450306","USNG":"17R NM 28158 23213","OWNERSHIP":"COUNTY","PARCELID":"26 361000  759","FACILITY_TYPE":"EMERGENCY MEDICAL SERVICE"}},{"type":"Feature","id":40,"geometry":{"type":"Point","coordinates":[-80.780904356875723,28.476492357181233]},"properties":{"OBJECTID":40,"Name":"BREVARD CO FIRE RESCUE ST 26 EMS","Address":"6655 CAROLE AVE","City":"COCOA","Zip":"32927","COUNTY":"BREVARD","X":-80.780904359999994,"Y":28.476492360000002,"LONGLAT":"-80.78090436,28.47649236","USNG":"17R NM 21446 50007","OWNERSHIP":"COUNTY","PARCELID":"23 3513JZ  369    7","FACILITY_TYPE":"EMERGENCY MEDICAL SERVICE"}},{"type":"Feature","id":41,"geometry":{"type":"Point","coordinates":[-80.688493119790763,28.340180819393343]},"properties":{"OBJECTID":41,"Name":"BREVARD CO FIRE RESCUE ST 43 EMS","Address":"902 AIRPORT RD","City":"MERRITT ISLAND","Zip":"32952","COUNTY":"BREVARD","X":-80.688493120000004,"Y":28.34018082,"LONGLAT":"-80.68849312,28.34018082","USNG":"17R NM 30531 34926","OWNERSHIP":"COUNTY","PARCELID":"25 360100    4","FACILITY_TYPE":"EMERGENCY MEDICAL SERVICE"}},{"type":"Feature","id":42,"geometry":{"type":"Point","coordinates":[-80.57844601579707,28.491866675070575]},"properties":{"OBJECTID":42,"Name":"KSC/CCAFS FIRE RESCUE EMS","Address":"BLDG K6-1198 SGS-322","City":"PATRICK AFB","Zip":"32925","COUNTY":"BREVARD","X":-80.578446020000001,"Y":28.491866680000001,"LONGLAT":"-80.57844602,28.49186668","USNG":"17R NM 41258 51763","OWNERSHIP":"FEDERAL","PARCELID":null,"FACILITY_TYPE":"EMERGENCY MEDICAL SERVICE"}},{"type":"Feature","id":43,"geometry":{"type":"Point","coordinates":[-80.604420803713381,28.387498492008049]},"properties":{"OBJECTID":43,"Name":"CAPE CANAVERAL FD ST 53 EMS","Address":"190 JACKSON AVE","City":"CAPE CANAVERAL","Zip":"32920","COUNTY":"BREVARD","X":-80.6044208,"Y":28.387498489999999,"LONGLAT":"-80.60442080,28.38749849","USNG":"17R NM 38754 40192","OWNERSHIP":"MUNICIPAL","PARCELID":"24 3723CG   25   15","FACILITY_TYPE":"EMERGENCY MEDICAL SERVICE"}},{"type":"Feature","id":44,"geometry":{"type":"Point","coordinates":[-80.632678929938635,28.128620389139179]},"properties":{"OBJECTID":44,"Name":"MELBOURNE FD ST 71 EMS","Address":"865 W EAU GALLIE BLVD","City":"MELBOURNE","Zip":"32935","COUNTY":"BREVARD","X":-80.632678929999997,"Y":28.128620389999998,"LONGLAT":"-80.63267893,28.12862039","USNG":"17R NM 36073 11504","OWNERSHIP":"MUNICIPAL","PARCELID":"27 372128        72","FACILITY_TYPE":"EMERGENCY MEDICAL SERVICE"}},{"type":"Feature","id":45,"geometry":{"type":"Point","coordinates":[-80.609764805965369,28.317744131138639]},"properties":{"OBJECTID":45,"Name":"BREVARD CO FIRE RESCUE ST 61 EMS","Address":"45 S ORLANDO AVE","City":"COCOA BEACH","Zip":"32931","COUNTY":"BREVARD","X":-80.609764810000001,"Y":28.317744130000001,"LONGLAT":"-80.60976481,28.31774413","USNG":"17R NM 38255 32463","OWNERSHIP":"MUNICIPAL","PARCELID":"25 3714DD   32   22","FACILITY_TYPE":"EMERGENCY MEDICAL SERVICE"}},{"type":"Feature","id":46,"geometry":{"type":"Point","coordinates":[-80.697020050495894,28.023866015398852]},"properties":{"OBJECTID":46,"Name":"PALM BAY FD ST 3 EMS","Address":"790 JUPITER BLVD NW","City":"PALM BAY","Zip":"32907","COUNTY":"BREVARD","X":-80.697020050000006,"Y":28.02386602,"LONGLAT":"-80.69702005,28.02386602","USNG":"17R NL 29783 99883","OWNERSHIP":"MUNICIPAL","PARCELID":"28 3626KN 2132    3","FACILITY_TYPE":"EMERGENCY MEDICAL SERVICE"}},{"type":"Feature","id":47,"geometry":{"type":"Point","coordinates":[-80.606379954077994,28.172507333485616]},"properties":{"OBJECTID":47,"Name":"SATELLITE BEACH FD ST 55 EMS","Address":"1390 S PATRICK DR","City":"SATELLITE BEACH","Zip":"32937","COUNTY":"BREVARD","X":-80.606379950000004,"Y":28.172507329999998,"LONGLAT":"-80.60637995,28.17250733","USNG":"17R NM 38640 16374","OWNERSHIP":"MUNICIPAL","PARCELID":"26 3734EC        15","FACILITY_TYPE":"EMERGENCY MEDICAL SERVICE"}},{"type":"Feature","id":48,"geometry":{"type":"Point","coordinates":[-80.822090503598673,28.5559550254236]},"properties":{"OBJECTID":48,"Name":"TITUSVILLE FD ST 13 EMS","Address":"4715 BARNA AVE","City":"TITUSVILLE","Zip":"32780","COUNTY":"BREVARD","X":-80.822090500000002,"Y":28.55595503,"LONGLAT":"-80.82209050,28.55595503","USNG":"17R NM 17401 58803","OWNERSHIP":"MUNICIPAL","PARCELID":"22 352801    3    1","FACILITY_TYPE":"EMERGENCY MEDICAL SERVICE"}},{"type":"Feature","id":49,"geometry":{"type":"Point","coordinates":[-80.224394931772153,26.150747561945114]},"properties":{"OBJECTID":49,"Name":"LAUDERHILL FIRE RESCUE","Address":"1900 NW 56TH AVE","City":"FORT LAUDERDALE","Zip":"33313","COUNTY":"BROWARD","X":-80.224394930000003,"Y":26.150747559999999,"LONGLAT":"-80.22439493,26.15074756","USNG":"17R NJ 77522 92609","OWNERSHIP":"MUNICIPAL","PARCELID":"494126240010","FACILITY_TYPE":"EMERGENCY MEDICAL SERVICE"}},{"type":"Feature","id":50,"geometry":{"type":"Point","coordinates":[-80.091419702804075,26.317733472272611]},"properties":{"OBJECTID":50,"Name":"DEERFIELD BEACH FIRE RESCUE","Address":"928 E HILLSBORO BLVD","City":"DEERFIELD BEACH","Zip":"33441","COUNTY":"BROWARD","X":-80.091419700000003,"Y":26.31773347,"LONGLAT":"-80.09141970,26.31773347","USNG":"17R NK 90684 11190","OWNERSHIP":"MUNICIPAL","PARCELID":"484306000050","FACILITY_TYPE":"EMERGENCY MEDICAL SERVICE"}},{"type":"Feature","id":51,"geometry":{"type":"Point","coordinates":[-80.239402734191728,26.066321241239081]},"properties":{"OBJECTID":51,"Name":"DAVIE FIRE RESCUE","Address":"6901 SW 45TH ST","City":"FORT LAUDERDALE","Zip":"33314","COUNTY":"BROWARD","X":-80.239402729999995,"Y":26.066321240000001,"LONGLAT":"-80.23940273,26.06632124","USNG":"17R NJ 76077 83250","OWNERSHIP":"MUNICIPAL","PARCELID":"504127230010","FACILITY_TYPE":"EMERGENCY MEDICAL SERVICE"}},{"type":"Feature","id":52,"geometry":{"type":"Point","coordinates":[-80.285739816692868,26.044015544416517]},"properties":{"OBJECTID":52,"Name":"BROWARD SHERIFF OFFICE","Address":"10550 STIRLING RD","City":"HOLLYWOOD","Zip":"33026","COUNTY":"BROWARD","X":-80.285739820000003,"Y":26.044015550000001,"LONGLAT":"-80.28573982,26.04401555","USNG":"17R NJ 71455 80753","OWNERSHIP":"MUNICIPAL","PARCELID":"514106080010","FACILITY_TYPE":"EMERGENCY MEDICAL SERVICE"}},{"type":"Feature","id":53,"geometry":{"type":"Point","coordinates":[-80.230276316326226,26.210254883268185]},"properties":{"OBJECTID":53,"Name":"NORTH LAUDERDALE FIRE RESCUE ST 44","Address":"7700 HAMPTON BLVD","City":"POMPANO BEACH","Zip":"33068","COUNTY":"BROWARD","X":-80.230276320000002,"Y":26.210254880000001,"LONGLAT":"-80.23027632,26.21025488","USNG":"17R NJ 76895 99196","OWNERSHIP":"MUNICIPAL","PARCELID":"494102150100","FACILITY_TYPE":"EMERGENCY MEDICAL SERVICE"}},{"type":"Feature","id":54,"geometry":{"type":"Point","coordinates":[-80.271677412370522,26.007771009643061]},"properties":{"OBJECTID":54,"Name":"PEMBROKE PINES FIRE/RESCUE","Address":"9500 PINES BLVD","City":"HOLLYWOOD","Zip":"33025","COUNTY":"BROWARD","X":-80.271677409999995,"Y":26.007771009999999,"LONGLAT":"-80.27167741,26.00777101","USNG":"17R NJ 72885 76747","OWNERSHIP":"MUNICIPAL","PARCELID":"514117010030","FACILITY_TYPE":"EMERGENCY MEDICAL SERVICE"}},{"type":"Feature","id":55,"geometry":{"type":"Point","coordinates":[-80.28756103536162,26.199358627618565]},"properties":{"OBJECTID":55,"Name":"TAMARAC FIRE RESC","Address":"6000 HIATUS RD","City":"FORT LAUDERDALE","Zip":"33321","COUNTY":"BROWARD","X":-80.28756104,"Y":26.199358629999999,"LONGLAT":"-80.28756104,26.19935863","USNG":"17R NJ 71179 97957","OWNERSHIP":"MUNICIPAL","PARCELID":"494107030010","FACILITY_TYPE":"EMERGENCY MEDICAL SERVICE"}},{"type":"Feature","id":56,"geometry":{"type":"Point","coordinates":[-80.264811416156547,25.981470700571325]},"properties":{"OBJECTID":56,"Name":"MIRAMAR FIRE RESCUE AMBULANCE ST 70","Address":"8909 MIRAMAR PKWY","City":"HOLLYWOOD","Zip":"33025","COUNTY":"BROWARD","X":-80.264811420000001,"Y":25.981470699999999,"LONGLAT":"-80.26481142,25.98147070","USNG":"17R NJ 73588 73838","OWNERSHIP":"MUNICIPAL","PARCELID":"514129010100","FACILITY_TYPE":"EMERGENCY MEDICAL SERVICE"}},{"type":"Feature","id":57,"geometry":{"type":"Point","coordinates":[-80.265270683844989,26.265337345187906]},"properties":{"OBJECTID":57,"Name":"CORAL SPRINGS FIRE RESCUE","Address":"2801 CORAL SPRINGS DRIVE","City":"POMPANO BEACH","Zip":"33065","COUNTY":"BROWARD","X":-80.26527068,"Y":26.265337349999999,"LONGLAT":"-80.26527068,26.26533735","USNG":"17R NK 73365 05276","OWNERSHIP":"MUNICIPAL","PARCELID":"484121310010","FACILITY_TYPE":"EMERGENCY MEDICAL SERVICE"}},{"type":"Feature","id":58,"geometry":{"type":"Point","coordinates":[-80.125327413411625,26.225096741006237]},"properties":{"OBJECTID":58,"Name":"POMPANO BEACH FIRE RESCUE","Address":"120 SW 3RD ST","City":"POMPANO BEACH","Zip":"33060","COUNTY":"BROWARD","X":-80.125327409999997,"Y":26.225096740000001,"LONGLAT":"-80.12532741,26.22509674","USNG":"17R NK 87369 00906","OWNERSHIP":"MUNICIPAL","PARCELID":"494202400010","FACILITY_TYPE":"EMERGENCY MEDICAL SERVICE"}},{"type":"Feature","id":59,"geometry":{"type":"Point","coordinates":[-80.150053209694249,25.981601549822699]},"properties":{"OBJECTID":59,"Name":"HALLANDALE BEACH FIRE RESCUE STATION 7","Address":"121 SW 3RD ST","City":"HALLANDALE","Zip":"33009","COUNTY":"BROWARD","X":-80.150053209999996,"Y":25.981601550000001,"LONGLAT":"-80.15005321,25.98160155","USNG":"17R NJ 85075 73922","OWNERSHIP":"MUNICIPAL","PARCELID":"514227010361","FACILITY_TYPE":"EMERGENCY MEDICAL SERVICE"}},{"type":"Feature","id":60,"geometry":{"type":"Point","coordinates":[-80.118389119626698,25.986279825714366]},"properties":{"OBJECTID":60,"Name":"HALLANDALE FIRE RESCUE ST 60","Address":"2801 E HALLANDALE BEACH BLVD","City":"HOLLYWOOD","Zip":"33019","COUNTY":"BROWARD","X":-80.118389120000003,"Y":25.986279830000001,"LONGLAT":"-80.11838912,25.98627983","USNG":"17R NJ 88241 74461","OWNERSHIP":"MUNICIPAL","PARCELID":"514226010210","FACILITY_TYPE":"EMERGENCY MEDICAL SERVICE"}},{"type":"Feature","id":61,"geometry":{"type":"Point","coordinates":[-80.206804268593928,26.201403422353884]},"properties":{"OBJECTID":61,"Name":"NORTH LAUDERDALE FIRE RESCUE ST 34","Address":"6151 BAILEY RD","City":"POMPANO BEACH","Zip":"33068","COUNTY":"BROWARD","X":-80.206804270000006,"Y":26.201403419999998,"LONGLAT":"-80.20680427,26.20140342","USNG":"17R NJ 79246 98230","OWNERSHIP":"MUNICIPAL","PARCELID":"494112160030","FACILITY_TYPE":"EMERGENCY MEDICAL SERVICE"}},{"type":"Feature","id":62,"geometry":{"type":"Point","coordinates":[-80.29294874577694,26.169019965270373]},"properties":{"OBJECTID":62,"Name":"SUNRISE FIRE/RESCUE","Address":"10770 W OAKLAND PARK BLVD","City":"FORT LAUDERDALE","Zip":"33351","COUNTY":"BROWARD","X":-80.292948749999994,"Y":26.169019970000001,"LONGLAT":"-80.29294875,26.16901997","USNG":"17R NJ 70659 94594","OWNERSHIP":"MUNICIPAL","PARCELID":"494119020010","FACILITY_TYPE":"EMERGENCY MEDICAL SERVICE"}},{"type":"Feature","id":63,"geometry":{"type":"Point","coordinates":[-80.177899799548371,26.048085834300007]},"properties":{"OBJECTID":63,"Name":"HOLLYWOOD FIRE & RESCUE","Address":"2741 STIRLING ROAD","City":"FORT LAUDERDALE","Zip":"33312","COUNTY":"BROWARD","X":-80.177899800000006,"Y":26.048085839999999,"LONGLAT":"-80.17789980,26.04808584","USNG":"17R NJ 82242 81268","OWNERSHIP":"MUNICIPAL","PARCELID":"504232240010","FACILITY_TYPE":"EMERGENCY MEDICAL SERVICE"}},{"type":"Feature","id":64,"geometry":{"type":"Point","coordinates":[-80.145334929075204,26.052615788852982]},"properties":{"OBJECTID":64,"Name":"DANIA BEACH FIRE RESCUE","Address":"116 W DANIA BEACH BLVD","City":"DANIA BEACH","Zip":"33004","COUNTY":"BROWARD","X":-80.145334930000004,"Y":26.052615790000001,"LONGLAT":"-80.14533493,26.05261579","USNG":"17R NJ 85496 81790","OWNERSHIP":"MUNICIPAL","PARCELID":"504234620010","FACILITY_TYPE":"EMERGENCY MEDICAL SERVICE"}},{"type":"Feature","id":65,"geometry":{"type":"Point","coordinates":[-80.171307230521379,26.173793843492707]},"properties":{"OBJECTID":65,"Name":"OAKLAND PARK FIRE/RESC","Address":"2100 NW 39TH ST","City":"FORT LAUDERDALE","Zip":"33309","COUNTY":"BROWARD","X":-80.171307229999996,"Y":26.173793839999998,"LONGLAT":"-80.17130723,26.17379384","USNG":"17R NJ 82813 95194","OWNERSHIP":"MUNICIPAL","PARCELID":"494220050010","FACILITY_TYPE":"EMERGENCY MEDICAL SERVICE"}},{"type":"Feature","id":66,"geometry":{"type":"Point","coordinates":[-80.221249514338808,26.239058861956359]},"properties":{"OBJECTID":66,"Name":"MARGATE FIRE/RESC","Address":"600 N ROCK ISLAND RD","City":"POMPANO BEACH","Zip":"33063","COUNTY":"BROWARD","X":-80.221249510000007,"Y":26.23905886,"LONGLAT":"-80.22124951,26.23905886","USNG":"17R NK 77778 02392","OWNERSHIP":"MUNICIPAL","PARCELID":"484135012670","FACILITY_TYPE":"EMERGENCY MEDICAL SERVICE"}},{"type":"Feature","id":67,"geometry":{"type":"Point","coordinates":[-80.236320022980706,26.128605679364174]},"properties":{"OBJECTID":67,"Name":"PLANTATION FIRE RESCUE HEADQUARTERS","Address":"550 NW 65TH AVE","City":"FORT LAUDERDALE","Zip":"33317","COUNTY":"BROWARD","X":-80.236320019999994,"Y":26.12860568,"LONGLAT":"-80.23632002,26.12860568","USNG":"17R NJ 76345 90150","OWNERSHIP":"MUNICIPAL","PARCELID":"504103071390","FACILITY_TYPE":"EMERGENCY MEDICAL SERVICE"}},{"type":"Feature","id":68,"geometry":{"type":"Point","coordinates":[-80.220749597813366,25.981629335103129]},"properties":{"OBJECTID":68,"Name":"MIRAMAR FIRE RESCUE AMBULANCE ST 19","Address":"6700 MIRAMAR PKWY","City":"HOLLYWOOD","Zip":"33023","COUNTY":"BROWARD","X":-80.220749600000005,"Y":25.981629340000001,"LONGLAT":"-80.22074960,25.98162934","USNG":"17R NJ 77999 73881","OWNERSHIP":"MUNICIPAL","PARCELID":"514126030010","FACILITY_TYPE":"EMERGENCY MEDICAL SERVICE"}},{"type":"Feature","id":69,"geometry":{"type":"Point","coordinates":[-80.126453961497077,25.987708610892938]},"properties":{"OBJECTID":69,"Name":"HALLANDALE BEACH FIRE RESCUE STATION 90","Address":"101 THREE ISLANDS BLVD","City":"HALLANDALE","Zip":"33009","COUNTY":"BROWARD","X":-80.126453960000006,"Y":25.987708609999999,"LONGLAT":"-80.12645396,25.98770861","USNG":"17R NJ 87433 74614","OWNERSHIP":"MUNICIPAL","PARCELID":"514223120030","FACILITY_TYPE":"EMERGENCY MEDICAL SERVICE"}},{"type":"Feature","id":70,"geometry":{"type":"Point","coordinates":[-80.392799383766317,25.982347434606467]},"properties":{"OBJECTID":70,"Name":"MIRAMAR FIRE RESCUE AMBULANCE ST 100","Address":"2800 SW 184TH AVE","City":"HOLLYWOOD","Zip":"33029","COUNTY":"BROWARD","X":-80.39279938,"Y":25.982347440000002,"LONGLAT":"-80.39279938,25.98234744","USNG":"17R NJ 60777 73870","OWNERSHIP":"MUNICIPAL","PARCELID":"513925030020","FACILITY_TYPE":"EMERGENCY MEDICAL SERVICE"}},{"type":"Feature","id":71,"geometry":{"type":"Point","coordinates":[-80.206574792387855,26.169276635420005]},"properties":{"OBJECTID":71,"Name":"BROWARD SHERIFF FIRE RESCUE","Address":"3461 NW 43RD AVE","City":"FORT LAUDERDALE","Zip":"33319","COUNTY":"BROWARD","X":-80.206574790000005,"Y":26.16927664,"LONGLAT":"-80.20657479,26.16927664","USNG":"17R NJ 79291 94672","OWNERSHIP":"MUNICIPAL","PARCELID":"494124060010","FACILITY_TYPE":"EMERGENCY MEDICAL SERVICE"}},{"type":"Feature","id":72,"geometry":{"type":"Point","coordinates":[-80.093704156667371,26.276348955692885]},"properties":{"OBJECTID":72,"Name":"LIGHTHOUSE POINT FIRE RESCUE","Address":"3740 NE 22ND AVE","City":"POMPANO BEACH","Zip":"33064","COUNTY":"BROWARD","X":-80.093704160000001,"Y":26.27634896,"LONGLAT":"-80.09370416,26.27634896","USNG":"17R NK 90489 06605","OWNERSHIP":"MUNICIPAL","PARCELID":"484318020040","FACILITY_TYPE":"EMERGENCY MEDICAL SERVICE"}},{"type":"Feature","id":73,"geometry":{"type":"Point","coordinates":[-80.165974615992084,26.189919677132341]},"properties":{"OBJECTID":73,"Name":"AERO JET INTERNATIONAL","Address":"1707 S PERIMETER RD HANGER 33B","City":"FORT LAUDERDALE","Zip":"33309","COUNTY":"BROWARD","X":-80.16597462,"Y":26.189919679999999,"LONGLAT":"-80.16597462,26.18991968","USNG":"17R NJ 83334 96984","OWNERSHIP":"PRIVATE","PARCELID":"494209290220","FACILITY_TYPE":"EMERGENCY MEDICAL SERVICE"}},{"type":"Feature","id":74,"geometry":{"type":"Point","coordinates":[-80.17115998578052,25.987431606300238]},"properties":{"OBJECTID":74,"Name":"AMERICAN AMBULANCE SERVICE INC","Address":"2570 S PARK RD","City":"HALLANDALE","Zip":"33009","COUNTY":"BROWARD","X":-80.171159990000007,"Y":25.987431610000002,"LONGLAT":"-80.17115999,25.98743161","USNG":"17R NJ 82958 74554","OWNERSHIP":"PRIVATE","PARCELID":"514229000121","FACILITY_TYPE":"EMERGENCY MEDICAL SERVICE"}},{"type":"Feature","id":75,"geometry":{"type":"Point","coordinates":[-80.146151636607243,26.167616718262362]},"properties":{"OBJECTID":75,"Name":"MEDICS AMB SVC","Address":"3200 N ANDREWS AVE","City":"FORT LAUDERDALE","Zip":"33334","COUNTY":"BROWARD","X":-80.146151639999999,"Y":26.167616720000002,"LONGLAT":"-80.14615164,26.16761672","USNG":"17R NJ 85331 94526","OWNERSHIP":"PRIVATE","PARCELID":"494222030090","FACILITY_TYPE":"EMERGENCY MEDICAL SERVICE"}},{"type":"Feature","id":76,"geometry":{"type":"Point","coordinates":[-80.164792332543357,26.189978618100653]},"properties":{"OBJECTID":76,"Name":"AIR AMBULANCE PROFESSIONALS","Address":"1535 S PERIMETER RD HANGER 36B","City":"FORT LAUDERDALE","Zip":"33309","COUNTY":"BROWARD","X":-80.164792329999997,"Y":26.189978620000002,"LONGLAT":"-80.16479233,26.18997862","USNG":"17R NJ 83452 96991","OWNERSHIP":"PRIVATE","PARCELID":"494209290220","FACILITY_TYPE":"EMERGENCY MEDICAL SERVICE"}},{"type":"Feature","id":77,"geometry":{"type":"Point","coordinates":[-80.285283588122184,26.106032203947994]},"properties":{"OBJECTID":77,"Name":"FLORIDA MEDICAL EMERGENCY CENTER AT DAVIE OFFSITE","Address":"10230 W SR 84","City":"DAVIE","Zip":"33324","COUNTY":"BROWARD","X":null,"Y":null,"LONGLAT":null,"USNG":null,"OWNERSHIP":null,"PARCELID":null,"FACILITY_TYPE":"EMERGENCY MEDICAL SERVICE"}},{"type":"Feature","id":78,"geometry":{"type":"Point","coordinates":[-80.152445565667293,26.082071322325401]},"properties":{"OBJECTID":78,"Name":"NATIONAL AIR AMBULANCE","Address":"3495 SW 9TH AVE","City":"FORT LAUDERDALE","Zip":"33315","COUNTY":"BROWARD","X":-80.152445569999998,"Y":26.082071320000001,"LONGLAT":"-80.15244557,26.08207132","USNG":"17R NJ 84764 85048","OWNERSHIP":"PRIVATE","PARCELID":"504222000160","FACILITY_TYPE":"EMERGENCY MEDICAL SERVICE"}},{"type":"Feature","id":79,"geometry":{"type":"Point","coordinates":[-85.093876890611156,30.431806160036942]},"properties":{"OBJECTID":79,"Name":"EMERGYSTAT OF CALHOUN COUNTY","Address":"17617 STATE ROAD 20 W","City":"BLOUNTSTOWN","Zip":"32424","COUNTY":"CALHOUN","X":-85.093876890000004,"Y":30.431806160000001,"LONGLAT":"-85.09387689,30.43180616","USNG":"16R FU 83056 68177","OWNERSHIP":"PRIVATE","PARCELID":"01-1S-09-0000-0033-0000","FACILITY_TYPE":"EMERGENCY MEDICAL SERVICE"}},{"type":"Feature","id":80,"geometry":{"type":"Point","coordinates":[-81.99912948014827,26.917170052448032]},"properties":{"OBJECTID":80,"Name":"AIR TREK MEDICAL TRANSPORT","Address":"28000 AIRPORT RD STE A5","City":"PUNTA GORDA","Zip":"33982","COUNTY":"CHARLOTTE","X":-81.999129479999993,"Y":26.917170049999999,"LONGLAT":"-81.99912948,26.91717005","USNG":"17R MK 00795 77652","OWNERSHIP":"PRIVATE","PARCELID":"412315200001","FACILITY_TYPE":"EMERGENCY MEDICAL SERVICE"}},{"type":"Feature","id":81,"geometry":{"type":"Point","coordinates":[-82.006654113274195,26.987563167291967]},"properties":{"OBJECTID":81,"Name":"CHARLOTTE COUNTY FIRE & EMS ST 11","Address":"27055 RUSHMORE AVE","City":"PUNTA GORDA","Zip":"33983","COUNTY":"CHARLOTTE","X":-82.006654109999999,"Y":26.987563170000001,"LONGLAT":"-82.00665411,26.98756317","USNG":"17R MK 00110 85455","OWNERSHIP":"COUNTY","PARCELID":"402322102003","FACILITY_TYPE":"EMERGENCY MEDICAL SERVICE"}},{"type":"Feature","id":82,"geometry":{"type":"Point","coordinates":[-81.760004736015986,26.799664266105374]},"properties":{"OBJECTID":82,"Name":"CHARLOTTE COUNTY FIRE & EMS ST 9","Address":"12900 STATE ROAD 31","City":"PUNTA GORDA","Zip":"33982","COUNTY":"CHARLOTTE","X":-81.760004739999999,"Y":26.799664270000001,"LONGLAT":"-81.76000474,26.79966427","USNG":"17R MK 24461 64472","OWNERSHIP":"COUNTY","PARCELID":"422524400006","FACILITY_TYPE":"EMERGENCY MEDICAL SERVICE"}},{"type":"Feature","id":83,"geometry":{"type":"Point","coordinates":[-82.31549255999758,26.868252088829447]},"properties":{"OBJECTID":83,"Name":"CHARLOTTE COUNTY FIRE & EMS ST 10","Address":"101 GASPARILLA WAY","City":"PLACIDA","Zip":"33946","COUNTY":"CHARLOTTE","X":-82.315492559999996,"Y":26.868252089999999,"LONGLAT":"-82.31549256,26.86825209","USNG":"17R LK 69324 72521","OWNERSHIP":"COUNTY","PARCELID":"412033179003","FACILITY_TYPE":"EMERGENCY MEDICAL SERVICE"}},{"type":"Feature","id":84,"geometry":{"type":"Point","coordinates":[-82.014666458022774,26.860640169203723]},"properties":{"OBJECTID":84,"Name":"CHARLOTTE COUNTY FIRE & EMS ST 5","Address":"26287 NOTRE DAME BLVD","City":"PUNTA GORDA","Zip":"33955","COUNTY":"CHARLOTTE","X":-82.014666460000001,"Y":26.86064017,"LONGLAT":"-82.01466646,26.86064017","USNG":"17R LK 99202 71403","OWNERSHIP":"COUNTY","PARCELID":"412333453001","FACILITY_TYPE":"EMERGENCY MEDICAL SERVICE"}},{"type":"Feature","id":85,"geometry":{"type":"Point","coordinates":[-82.03569362966374,27.001648734842316]},"properties":{"OBJECTID":85,"Name":"CHARLOTTE COUNTY FIRE & EMS ST 12","Address":"2001 LUTHER RD","City":"PUNTA GORDA","Zip":"33983","COUNTY":"CHARLOTTE","X":-82.035693629999997,"Y":27.00164874,"LONGLAT":"-82.03569363,27.00164874","USNG":"17R LK 97241 87039","OWNERSHIP":"COUNTY","PARCELID":"402317126001","FACILITY_TYPE":"EMERGENCY MEDICAL SERVICE"}},{"type":"Feature","id":86,"geometry":{"type":"Point","coordinates":[-81.992009627878005,26.954790307721527]},"properties":{"OBJECTID":86,"Name":"CHARLOTTE COUNTY FIRE & EMS ST 6","Address":"27287 DISSTON AVE","City":"PUNTA GORDA","Zip":"33982","COUNTY":"CHARLOTTE","X":-81.992009629999998,"Y":26.95479031,"LONGLAT":"-81.99200963,26.95479031","USNG":"17R MK 01535 81814","OWNERSHIP":"COUNTY","PARCELID":"402335156001","FACILITY_TYPE":"EMERGENCY MEDICAL SERVICE"}},{"type":"Feature","id":87,"geometry":{"type":"Point","coordinates":[-82.223145406081656,26.917396793932451]},"properties":{"OBJECTID":87,"Name":"CHARLOTTE COUNTY FIRE & EMS ST 4","Address":"13600 MARATHON BLVD","City":"PORT CHARLOTTE","Zip":"33981","COUNTY":"CHARLOTTE","X":-82.223145410000001,"Y":26.917396790000002,"LONGLAT":"-82.22314541,26.91739679","USNG":"17R LK 78551 77873","OWNERSHIP":"COUNTY","PARCELID":"412108478002","FACILITY_TYPE":"EMERGENCY MEDICAL SERVICE"}},{"type":"Feature","id":88,"geometry":{"type":"Point","coordinates":[-82.156834764804799,27.00460788975283]},"properties":{"OBJECTID":88,"Name":"CHARLOTTE COUNTY FIRE & EMS ST 2","Address":"1493 COLLINGSWOOD BLVD","City":"PORT CHARLOTTE","Zip":"33948","COUNTY":"CHARLOTTE","X":-82.156834759999995,"Y":27.004607889999999,"LONGLAT":"-82.15683476,27.00460789","USNG":"17R LK 85224 87471","OWNERSHIP":"COUNTY","PARCELID":"402112478019","FACILITY_TYPE":"EMERGENCY MEDICAL SERVICE"}},{"type":"Feature","id":89,"geometry":{"type":"Point","coordinates":[-82.287736620123297,26.851741796547973]},"properties":{"OBJECTID":89,"Name":"ENGLEWOOD FIRE DEPT STATION 76","Address":"9495 PLACIDA RD","City":"PLACIDA","Zip":"33946","COUNTY":"CHARLOTTE","X":-82.287736620000004,"Y":26.851741799999999,"LONGLAT":"-82.28773662,26.85174180","USNG":"17R LK 72063 70663","OWNERSHIP":"COUNTY","PARCELID":"422002156001","FACILITY_TYPE":"EMERGENCY MEDICAL SERVICE"}},{"type":"Feature","id":90,"geometry":{"type":"Point","coordinates":[-82.087163922567555,26.975977828064455]},"properties":{"OBJECTID":90,"Name":"AMBITRANS MEDICAL TRANSPORT","Address":"22093 KIMBLE AVE","City":"PORT CHARLOTTE","Zip":"33952","COUNTY":"CHARLOTTE","X":-82.087163919999995,"Y":26.975977830000001,"LONGLAT":"-82.08716392,26.97597783","USNG":"17R LK 92110 84238","OWNERSHIP":"PRIVATE","PARCELID":"402223311001","FACILITY_TYPE":"EMERGENCY MEDICAL SERVICE"}},{"type":"Feature","id":91,"geometry":{"type":"Point","coordinates":[-82.000692983847074,26.922134220420869]},"properties":{"OBJECTID":91,"Name":"CHARLOTTE COUNTY FIRE & EMS ST 7","Address":"27437 MOONEY AVE","City":"PUNTA GORDA","Zip":"33982","COUNTY":"CHARLOTTE","X":-82.000692979999997,"Y":26.92213422,"LONGLAT":"-82.00069298,26.92213422","USNG":"17R MK 00644 78203","OWNERSHIP":"MUNICIPAL","PARCELID":"412310300001","FACILITY_TYPE":"EMERGENCY MEDICAL SERVICE"}},{"type":"Feature","id":92,"geometry":{"type":"Point","coordinates":[-82.210251326245768,26.966189166201765]},"properties":{"OBJECTID":92,"Name":"CHARLOTTE COUNTY FIRE & EMS ST 3","Address":"4322 EL JOBEAN RD","City":"PORT CHARLOTTE","Zip":"33953","COUNTY":"CHARLOTTE","X":-82.210251330000006,"Y":26.96618917,"LONGLAT":"-82.21025133,26.96618917","USNG":"17R LK 79883 83265","OWNERSHIP":"COUNTY","PARCELID":"402128412002","FACILITY_TYPE":"EMERGENCY MEDICAL SERVICE"}},{"type":"Feature","id":93,"geometry":{"type":"Point","coordinates":[-82.092124971520391,26.976166114204666]},"properties":{"OBJECTID":93,"Name":"CHARLOTTE COUNTY FIRE & EMS ST 1","Address":"3631 TAMIAMI TRL","City":"PORT CHARLOTTE","Zip":"33952","COUNTY":"CHARLOTTE","X":-82.09212497,"Y":26.976166110000001,"LONGLAT":"-82.09212497,26.97616611","USNG":"17R LK 91617 84264","OWNERSHIP":"COUNTY","PARCELID":"402222435016","FACILITY_TYPE":"EMERGENCY MEDICAL SERVICE"}},{"type":"Feature","id":94,"geometry":{"type":"Point","coordinates":[-82.091557820512492,27.026296645615574]},"properties":{"OBJECTID":94,"Name":"CHARLOTTE COUNTY FIRE & EMS ST 8","Address":"21500 CLINTON AVE","City":"PORT CHARLOTTE","Zip":"33954","COUNTY":"CHARLOTTE","X":-82.091557820000006,"Y":27.026296649999999,"LONGLAT":"-82.09155782,27.02629665","USNG":"17R LK 91722 89816","OWNERSHIP":"MUNICIPAL","PARCELID":"402203283001","FACILITY_TYPE":"EMERGENCY MEDICAL SERVICE"}},{"type":"Feature","id":95,"geometry":{"type":"Point","coordinates":[-82.233035901409195,27.010302444598732]},"properties":{"OBJECTID":95,"Name":"CHARLOTTE COUNTY FIRE & EMS ST 15","Address":"13190 EISENHOWER RD","City":"PORT CHARLOTTE","Zip":"33953","COUNTY":"CHARLOTTE","X":-82.233035900000004,"Y":27.010302450000001,"LONGLAT":"-82.23303590,27.01030245","USNG":"17R LK 77669 88174","OWNERSHIP":"MUNICIPAL","PARCELID":"402108327001","FACILITY_TYPE":"EMERGENCY MEDICAL SERVICE"}},{"type":"Feature","id":96,"geometry":{"type":"Point","coordinates":[-81.960768281600011,27.006570520835421]},"properties":{"OBJECTID":96,"Name":"CHARLOTTE COUNTY FIRE & EMS ST 16","Address":"29400 PALM SHORES BLVD","City":"PUNTA GORDA","Zip":"33982","COUNTY":"CHARLOTTE","X":-81.960768279999996,"Y":27.00657052,"LONGLAT":"-81.96076828,27.00657052","USNG":"17R MK 04680 87525","OWNERSHIP":"MUNICIPAL","PARCELID":"402312476001","FACILITY_TYPE":"EMERGENCY MEDICAL SERVICE"}},{"type":"Feature","id":97,"geometry":{"type":"Point","coordinates":[-82.49871385657876,28.849117512715434]},"properties":{"OBJECTID":97,"Name":"NATURE COAST EMERGENCY MEDICAL FOUNDATION","Address":"3876 W COUNTRY HILL DR","City":"LECANTO","Zip":"34461","COUNTY":"CITRUS","X":-82.498713859999995,"Y":28.849117509999999,"LONGLAT":"-82.49871386,28.84911751","USNG":"17R LM 53804 92192","OWNERSHIP":"OTHER PUBLIC","PARCELID":"18E19S04      33105","FACILITY_TYPE":"EMERGENCY MEDICAL SERVICE"}},{"type":"Feature","id":98,"geometry":{"type":"Point","coordinates":[-81.717748354264927,26.144141009379013]},"properties":{"OBJECTID":98,"Name":"MEDIC 75/EMS BC 80","Address":"4590 SANTA BARBRA PKWY","City":"NAPLES","Zip":"34104","COUNTY":"COLLIER","X":-81.717748349999994,"Y":26.144141009999998,"LONGLAT":"-81.71774835,26.14414101","USNG":"17R MJ 28256 91844","OWNERSHIP":"MUNICIPAL","PARCELID":"00400246309","FACILITY_TYPE":"EMERGENCY MEDICAL SERVICE"}},{"type":"Feature","id":99,"geometry":{"type":"Point","coordinates":[-81.795111077800826,26.138760620577422]},"properties":{"OBJECTID":99,"Name":"MEDIC 1","Address":"835 8TH AVE S","City":"NAPLES","Zip":"34102","COUNTY":"COLLIER","X":-81.795111079999998,"Y":26.138760619999999,"LONGLAT":"-81.79511108,26.13876062","USNG":"17R MJ 20519 91293","OWNERSHIP":"MUNICIPAL","PARCELID":"14044720002","FACILITY_TYPE":"EMERGENCY MEDICAL SERVICE"}},{"type":"Feature","id":100,"geometry":{"type":"Point","coordinates":[-81.750757561741011,26.138179378175881]},"properties":{"OBJECTID":100,"Name":"MEDIC 20","Address":"4798 DAVIS BLVD","City":"NAPLES","Zip":"34112","COUNTY":"COLLIER","X":-81.750757559999997,"Y":26.13817938,"LONGLAT":"-81.75075756,26.13817938","USNG":"17R MJ 24952 91203","OWNERSHIP":"MUNICIPAL","PARCELID":"00391360006","FACILITY_TYPE":"EMERGENCY MEDICAL SERVICE"}},{"type":"Feature","id":101,"geometry":{"type":"Point","coordinates":[-81.44692261162065,26.341799132762056]},"properties":{"OBJECTID":101,"Name":"MEDIC 32","Address":"4817 AVE MARIA BLVD","City":"IMMOKALEE","Zip":"34142","COUNTY":"COLLIER","X":-81.446922610000001,"Y":26.341799129999998,"LONGLAT":"-81.44692261,26.34179913","USNG":"17R MK 55402 13614","OWNERSHIP":"MUNICIPAL","PARCELID":"22671005344","FACILITY_TYPE":"EMERGENCY MEDICAL SERVICE"}},{"type":"Feature","id":102,"geometry":{"type":"Point","coordinates":[-81.450325356883127,26.434184876753676]},"properties":{"OBJECTID":102,"Name":"MEDIC 31","Address":"1107 CARSON RD","City":"IMMOKALEE","Zip":"34142","COUNTY":"COLLIER","X":-81.450325359999994,"Y":26.43418488,"LONGLAT":"-81.45032536,26.43418488","USNG":"17R MK 55099 23847","OWNERSHIP":"MUNICIPAL","PARCELID":"00073280006","FACILITY_TYPE":"EMERGENCY MEDICAL SERVICE"}},{"type":"Feature","id":103,"geometry":{"type":"Point","coordinates":[-81.633393353454679,26.228894436807671]},"properties":{"OBJECTID":103,"Name":"MEDIC 71/EMS 84","Address":"95 13TH ST SW","City":"NAPLES","Zip":"34117","COUNTY":"COLLIER","X":-81.633393350000006,"Y":26.228894440000001,"LONGLAT":"-81.63339335,26.22889444","USNG":"17R MK 36734 01187","OWNERSHIP":"MUNICIPAL","PARCELID":"37013362009","FACILITY_TYPE":"EMERGENCY MEDICAL SERVICE"}},{"type":"Feature","id":104,"geometry":{"type":"Point","coordinates":[-81.768189647032742,26.181751982779389]},"properties":{"OBJECTID":104,"Name":"MEDIC 24","Address":"2795 N AIRPORT PULLING RD","City":"NAPLES","Zip":"34105","COUNTY":"COLLIER","X":-81.768189649999997,"Y":26.181751980000001,"LONGLAT":"-81.76818965,26.18175198","USNG":"17R MJ 23238 96039","OWNERSHIP":"MUNICIPAL","PARCELID":"20767010957","FACILITY_TYPE":"EMERGENCY MEDICAL SERVICE"}},{"type":"Feature","id":105,"geometry":{"type":"Point","coordinates":[-81.732148935475934,26.090770851410134]},"properties":{"OBJECTID":105,"Name":"MEDIC 21/MEDIC 802","Address":"11121 TAMIAMI TRL E","City":"NAPLES","Zip":"34113","COUNTY":"COLLIER","X":-81.732148940000002,"Y":26.090770849999998,"LONGLAT":"-81.73214894,26.09077085","USNG":"17R MJ 26783 85941","OWNERSHIP":"MUNICIPAL","PARCELID":"62040320005","FACILITY_TYPE":"EMERGENCY MEDICAL SERVICE"}},{"type":"Feature","id":106,"geometry":{"type":"Point","coordinates":[-81.714965979578253,25.937466993766314]},"properties":{"OBJECTID":106,"Name":"ALS TOW 50/MEDIC RES 50/MEDIC 803","Address":"1280 SAN MARCO RD","City":"MARCO ISLAND","Zip":"34145","COUNTY":"COLLIER","X":-81.714965980000002,"Y":25.937466990000001,"LONGLAT":"-81.71496598,25.93746699","USNG":"17R MJ 28408 68954","OWNERSHIP":"MUNICIPAL","PARCELID":"57360380002","FACILITY_TYPE":"EMERGENCY MEDICAL SERVICE"}},{"type":"Feature","id":107,"geometry":{"type":"Point","coordinates":[-81.769987999881593,26.112842999168638]},"properties":{"OBJECTID":107,"Name":"MEDIC 22","Address":"4375 BAYSHORE DR","City":"NAPLES","Zip":"34112","COUNTY":"COLLIER","X":-81.769987999999998,"Y":26.112843000000002,"LONGLAT":"-81.76998800,26.11284300","USNG":"17R MJ 23013 88408","OWNERSHIP":"MUNICIPAL","PARCELID":"61840720000","FACILITY_TYPE":"EMERGENCY MEDICAL SERVICE"}},{"type":"Feature","id":108,"geometry":{"type":"Point","coordinates":[-81.749137943556505,26.21106182462929]},"properties":{"OBJECTID":108,"Name":"MEDIC 46","Address":"3410 PINE RIDGE RD","City":"NAPLES","Zip":"34105","COUNTY":"COLLIER","X":-81.749137939999997,"Y":26.211061829999998,"LONGLAT":"-81.74913794,26.21106183","USNG":"17R MJ 25161 99274","OWNERSHIP":"COUNTY","PARCELID":"00287640005","FACILITY_TYPE":"EMERGENCY MEDICAL SERVICE"}},{"type":"Feature","id":109,"geometry":{"type":"Point","coordinates":[-81.700580036803402,26.046193366109623]},"properties":{"OBJECTID":109,"Name":"MEDIC 23/ALS ENG 23","Address":"6055 COLLIER BLVD","City":"NAPLES","Zip":"34113","COUNTY":"COLLIER","X":-81.700580040000006,"Y":26.046193370000001,"LONGLAT":"-81.70058004,26.04619337","USNG":"17R MJ 29913 80987","OWNERSHIP":"MUNICIPAL","PARCELID":"00732520007","FACILITY_TYPE":"EMERGENCY MEDICAL SERVICE"}},{"type":"Feature","id":110,"geometry":{"type":"Point","coordinates":[-81.798623203599419,26.17771838667036]},"properties":{"OBJECTID":110,"Name":"MEDIC 2","Address":"977 26TH AVE N","City":"NAPLES","Zip":"34103","COUNTY":"COLLIER","X":-81.798623199999994,"Y":26.177718389999999,"LONGLAT":"-81.79862320,26.17771839","USNG":"17R MJ 20194 95610","OWNERSHIP":"MUNICIPAL","PARCELID":"13801720000","FACILITY_TYPE":"EMERGENCY MEDICAL SERVICE"}},{"type":"Feature","id":111,"geometry":{"type":"Point","coordinates":[-81.548020666608537,26.365644383513462]},"properties":{"OBJECTID":111,"Name":"EMS BC 82","Address":"21520 IMMOKALEE RD","City":"NAPLES","Zip":"34120","COUNTY":"COLLIER","X":-81.54802067,"Y":26.365644379999999,"LONGLAT":"-81.54802067,26.36564438","USNG":"17R MK 45325 16293","OWNERSHIP":"COUNTY","PARCELID":"39155240003","FACILITY_TYPE":"EMERGENCY MEDICAL SERVICE"}},{"type":"Feature","id":112,"geometry":{"type":"Point","coordinates":[-81.594158409871923,26.307895840913456]},"properties":{"OBJECTID":112,"Name":"MEDIC 10","Address":"14756 IMMOKALEE RD","City":"NAPLES","Zip":"34120","COUNTY":"COLLIER","X":-81.594158410000006,"Y":26.30789584,"LONGLAT":"-81.59415841,26.30789584","USNG":"17R MK 40693 09918","OWNERSHIP":"COUNTY","PARCELID":"00209840003","FACILITY_TYPE":"EMERGENCY MEDICAL SERVICE"}},{"type":"Feature","id":113,"geometry":{"type":"Point","coordinates":[-81.511749571483151,25.957309979837827]},"properties":{"OBJECTID":113,"Name":"ALS ENG 61","Address":"525 NEWPORT DR","City":"NAPLES","Zip":"34114","COUNTY":"COLLIER","X":-81.511749570000006,"Y":25.957309980000002,"LONGLAT":"-81.51174957,25.95730998","USNG":"17R MJ 48766 71056","OWNERSHIP":"COUNTY","PARCELID":"01067080606","FACILITY_TYPE":"EMERGENCY MEDICAL SERVICE"}},{"type":"Feature","id":114,"geometry":{"type":"Point","coordinates":[-81.704177204610147,26.18274801410216]},"properties":{"OBJECTID":114,"Name":"MEDIC 70","Address":"4741 GOLDEN GATE PKWY","City":"NAPLES","Zip":"34116","COUNTY":"COLLIER","X":-81.704177200000004,"Y":26.182748010000001,"LONGLAT":"-81.70417720,26.18274801","USNG":"17R MJ 29635 96113","OWNERSHIP":"COUNTY","PARCELID":"36110040005","FACILITY_TYPE":"EMERGENCY MEDICAL SERVICE"}},{"type":"Feature","id":115,"geometry":{"type":"Point","coordinates":[-81.694726193790586,26.10527434779052]},"properties":{"OBJECTID":115,"Name":"EMS LOGISTICS & HQ","Address":"8075 LELY CULTURAL PKWY","City":"NAPLES","Zip":"34113","COUNTY":"COLLIER","X":-81.694726189999997,"Y":26.105274349999998,"LONGLAT":"-81.69472619,26.10527435","USNG":"17R MJ 30534 87527","OWNERSHIP":"COUNTY","PARCELID":"55425014105","FACILITY_TYPE":"EMERGENCY MEDICAL SERVICE"}},{"type":"Feature","id":116,"geometry":{"type":"Point","coordinates":[-81.725629848353279,26.272380809406272]},"properties":{"OBJECTID":116,"Name":"MEDIC 42","Address":"7010 IMMOKALEE RD","City":"NAPLES","Zip":"34119","COUNTY":"COLLIER","X":-81.725629850000004,"Y":26.272380810000001,"LONGLAT":"-81.72562985,26.27238081","USNG":"17R MK 27547 06051","OWNERSHIP":"COUNTY","PARCELID":"41938010008","FACILITY_TYPE":"EMERGENCY MEDICAL SERVICE"}},{"type":"Feature","id":117,"geometry":{"type":"Point","coordinates":[-81.789559818415654,26.211774952728746]},"properties":{"OBJECTID":117,"Name":"MEDIC 40","Address":"1441 PINE RIDGE RD","City":"NAPLES","Zip":"34109","COUNTY":"COLLIER","X":-81.789559819999994,"Y":26.211774949999999,"LONGLAT":"-81.78955982,26.21177495","USNG":"17R MJ 21123 99376","OWNERSHIP":"COUNTY","PARCELID":"00240200000","FACILITY_TYPE":"EMERGENCY MEDICAL SERVICE"}},{"type":"Feature","id":118,"geometry":{"type":"Point","coordinates":[-81.805920823496649,26.250621996490956]},"properties":{"OBJECTID":118,"Name":"MEDIC 44/82/EMS BC 81","Address":"776 VANDERBILT BEACH RD","City":"NAPLES","Zip":"34108","COUNTY":"COLLIER","X":-81.805920819999997,"Y":26.250622,"LONGLAT":"-81.80592082,26.25062200","USNG":"17R MK 19515 03689","OWNERSHIP":"COUNTY","PARCELID":"00176682006","FACILITY_TYPE":"EMERGENCY MEDICAL SERVICE"}},{"type":"Feature","id":119,"geometry":{"type":"Point","coordinates":[-81.727338826736954,25.984324404647289]},"properties":{"OBJECTID":119,"Name":"ALS ENG 90/MEDIC RES 90","Address":"175 CAPRI BLVD","City":"NAPLES","Zip":"34113","COUNTY":"COLLIER","X":-81.727338829999994,"Y":25.984324409999999,"LONGLAT":"-81.72733883,25.98432441","USNG":"17R MJ 27198 74150","OWNERSHIP":"COUNTY","PARCELID":"52500080002","FACILITY_TYPE":"EMERGENCY MEDICAL SERVICE"}},{"type":"Feature","id":120,"geometry":{"type":"Point","coordinates":[-81.416835331631333,26.417291569022197]},"properties":{"OBJECTID":120,"Name":"MEDIC 30","Address":"112 S 1ST ST","City":"IMMOKALEE","Zip":"34142","COUNTY":"COLLIER","X":-81.416835329999998,"Y":26.41729157,"LONGLAT":"-81.41683533,26.41729157","USNG":"17R MK 58432 21964","OWNERSHIP":"COUNTY","PARCELID":"00116760001","FACILITY_TYPE":"EMERGENCY MEDICAL SERVICE"}},{"type":"Feature","id":121,"geometry":{"type":"Point","coordinates":[-81.690078202694067,26.252384555935787]},"properties":{"OBJECTID":121,"Name":"ALS ENG 73","Address":"14575 N. COLLIER BLVD","City":"NAPLES","Zip":"34119","COUNTY":"COLLIER","X":-81.690078200000002,"Y":26.252384559999999,"LONGLAT":"-81.69007820,26.25238456","USNG":"17R MK 31085 03817","OWNERSHIP":"COUNTY","PARCELID":"00204760803","FACILITY_TYPE":"EMERGENCY MEDICAL SERVICE"}},{"type":"Feature","id":122,"geometry":{"type":"Point","coordinates":[-81.384212639422401,25.858571109828262]},"properties":{"OBJECTID":122,"Name":"MEDIC RES 60","Address":"201 BUCKNER AVE N","City":"OCHOPEE","Zip":"34141","COUNTY":"COLLIER","X":-81.384212640000001,"Y":25.85857111,"LONGLAT":"-81.38421264,25.85857111","USNG":"17R MJ 61502 60077","OWNERSHIP":"COUNTY","PARCELID":"83495520002","FACILITY_TYPE":"EMERGENCY MEDICAL SERVICE"}},{"type":"Feature","id":123,"geometry":{"type":"Point","coordinates":[-81.819570749599293,26.322111243136515]},"properties":{"OBJECTID":123,"Name":"MEDIC 43","Address":"16325 VANDERBILT DR","City":"BONITA SPRINGS","Zip":"34134","COUNTY":"COLLIER","X":-81.819570749999997,"Y":26.322111240000002,"LONGLAT":"-81.81957075,26.32211124","USNG":"17R MK 18202 11615","OWNERSHIP":"COUNTY","PARCELID":"24630840001","FACILITY_TYPE":"EMERGENCY MEDICAL SERVICE"}},{"type":"Feature","id":124,"geometry":{"type":"Point","coordinates":[-81.716696589854223,25.938010977280584]},"properties":{"OBJECTID":124,"Name":"MARCO URGENT CARE","Address":"40 S. HEATHWOOD DR","City":"NAPLES","Zip":" ","COUNTY":"COLLIER","X":-81.716696589999998,"Y":25.938010980000001,"LONGLAT":"-81.71669659,25.93801098","USNG":"17R MJ 28235 69015","OWNERSHIP":null,"PARCELID":null,"FACILITY_TYPE":"EMERGENCY MEDICAL SERVICE"}},{"type":"Feature","id":125,"geometry":{"type":"Point","coordinates":[-81.784675380247137,26.272829470999561]},"properties":{"OBJECTID":125,"Name":"POINTE MEDICAL FACILITY","Address":"1726 MEDICAL BLVD, #203","City":"NAPLES","Zip":" ","COUNTY":"COLLIER","X":-81.784675379999996,"Y":26.272829470000001,"LONGLAT":"-81.78467538,26.27282947","USNG":"17R MK 21652 06136","OWNERSHIP":null,"PARCELID":null,"FACILITY_TYPE":"EMERGENCY MEDICAL SERVICE"}},{"type":"Feature","id":126,"geometry":{"type":"Point","coordinates":[-81.789823571241115,26.15827094027442]},"properties":{"OBJECTID":126,"Name":"ADVANCED MEDICAL OF NAPLES","Address":"720 GOODLETTE-FRANK RD N","City":"NAPLES","Zip":" ","COUNTY":"COLLIER","X":-81.789823569999996,"Y":26.158270940000001,"LONGLAT":"-81.78982357,26.15827094","USNG":"17R MJ 21060 93451","OWNERSHIP":null,"PARCELID":null,"FACILITY_TYPE":"EMERGENCY MEDICAL SERVICE"}},{"type":"Feature","id":127,"geometry":{"type":"Point","coordinates":[-81.730324458099773,26.273505328093016]},"properties":{"OBJECTID":127,"Name":"REDI-MED URGENT CARE","Address":"4550 EXECUTIVE DR","City":"NAPLES","Zip":" ","COUNTY":"COLLIER","X":-81.730324460000006,"Y":26.273505329999999,"LONGLAT":"-81.73032446,26.27350533","USNG":"17R MK 27079 06179","OWNERSHIP":null,"PARCELID":null,"FACILITY_TYPE":"EMERGENCY MEDICAL SERVICE"}},{"type":"Feature","id":128,"geometry":{"type":"Point","coordinates":[-81.78562863443257,26.271741253930138]},"properties":{"OBJECTID":128,"Name":"NAPLES URGENT CARE","Address":"1713 SW HEALTH PKWY STE 1","City":"NAPLES","Zip":" ","COUNTY":"COLLIER","X":-81.785628630000005,"Y":26.271741250000002,"LONGLAT":"-81.78562863,26.27174125","USNG":"17R MK 21556 06016","OWNERSHIP":null,"PARCELID":null,"FACILITY_TYPE":"EMERGENCY MEDICAL SERVICE"}},{"type":"Feature","id":129,"geometry":{"type":"Point","coordinates":[-81.769904732468447,26.242287234221511]},"properties":{"OBJECTID":129,"Name":"COLLIER URGENT CARE-N. NAPLES","Address":"7955 AIRPORT PULLING RD N #102","City":"NAPLES","Zip":" ","COUNTY":"COLLIER","X":-81.769904729999993,"Y":26.242287229999999,"LONGLAT":"-81.76990473,26.24228723","USNG":"17R MK 23107 02744","OWNERSHIP":null,"PARCELID":null,"FACILITY_TYPE":"EMERGENCY MEDICAL SERVICE"}},{"type":"Feature","id":130,"geometry":{"type":"Point","coordinates":[-81.800649306995552,26.189467551607621]},"properties":{"OBJECTID":130,"Name":"COLLIER URGENT CARE-PARK SHORE","Address":"3601 TAMIAMI TRAIL NORTH UNIT #2","City":"NAPLES","Zip":" ","COUNTY":"COLLIER","X":-81.800649309999997,"Y":26.18946755,"LONGLAT":"-81.80064931,26.18946755","USNG":"17R MJ 20000 96913","OWNERSHIP":null,"PARCELID":null,"FACILITY_TYPE":"EMERGENCY MEDICAL SERVICE"}},{"type":"Feature","id":131,"geometry":{"type":"Point","coordinates":[-81.075095053385766,26.167324688895501]},"properties":{"OBJECTID":131,"Name":"ALS RES 63","Address":"63175 MM 63","City":"OCHOPEE","Zip":"34141","COUNTY":"COLLIER","X":-81.075095050000002,"Y":26.167324690000001,"LONGLAT":"-81.07509505,26.16732469","USNG":"17R MJ 92495 94216","OWNERSHIP":null,"PARCELID":null,"FACILITY_TYPE":"EMERGENCY MEDICAL SERVICE"}},{"type":"Feature","id":132,"geometry":{"type":"Point","coordinates":[-81.797288064177366,26.151897889385868]},"properties":{"OBJECTID":132,"Name":"NAPLES MEDICAL CENTER / MILLENNIUM PHYSICIAN GROUP","Address":"400 8TH ST N","City":"NAPLES","Zip":" ","COUNTY":"COLLIER","X":-81.79728806,"Y":26.151897890000001,"LONGLAT":"-81.79728806,26.15189789","USNG":"17R MJ 20310 92750","OWNERSHIP":null,"PARCELID":null,"FACILITY_TYPE":"EMERGENCY MEDICAL SERVICE"}},{"type":"Feature","id":133,"geometry":{"type":"Point","coordinates":[-81.68474160309438,26.106615363402916]},"properties":{"OBJECTID":133,"Name":"MEDIC 25","Address":"8320 COLLIER BLVD","City":"NAPLES","Zip":"34114","COUNTY":"COLLIER","X":-81.684741599999995,"Y":26.106615359999999,"LONGLAT":"-81.68474160,26.10661536","USNG":"17R MJ 31533 87670","OWNERSHIP":null,"PARCELID":null,"FACILITY_TYPE":"EMERGENCY MEDICAL SERVICE"}},{"type":"Feature","id":134,"geometry":{"type":"Point","coordinates":[-81.687625150061407,26.185937182463906]},"properties":{"OBJECTID":134,"Name":"ESTATES MEDICAL CENTER","Address":"11725 COLLIER BLVD, #203","City":"NAPLES","Zip":" ","COUNTY":"COLLIER","X":-81.687625150000002,"Y":26.18593718,"LONGLAT":"-81.68762515,26.18593718","USNG":"17R MJ 31291 96457","OWNERSHIP":null,"PARCELID":null,"FACILITY_TYPE":"EMERGENCY MEDICAL SERVICE"}},{"type":"Feature","id":135,"geometry":{"type":"Point","coordinates":[-81.750963911679122,26.209814280552454]},"properties":{"OBJECTID":135,"Name":"ER QUICK CARE","Address":"13030 LIVINGSTON RD","City":"NAPLES","Zip":" ","COUNTY":"COLLIER","X":-81.750963909999996,"Y":26.20981428,"LONGLAT":"-81.75096391,26.20981428","USNG":"17R MJ 24977 99136","OWNERSHIP":null,"PARCELID":null,"FACILITY_TYPE":"EMERGENCY MEDICAL SERVICE"}},{"type":"Feature","id":136,"geometry":{"type":"Point","coordinates":[-81.735136581776388,26.138289875895492]},"properties":{"OBJECTID":136,"Name":"EPN URGENT CARE","Address":"6400 DAVIS BLVD STE 103","City":"NAPLES","Zip":" ","COUNTY":"COLLIER","X":-81.735136580000002,"Y":26.138289879999999,"LONGLAT":"-81.73513658,26.13828988","USNG":"17R MJ 26514 91206","OWNERSHIP":null,"PARCELID":null,"FACILITY_TYPE":"EMERGENCY MEDICAL SERVICE"}},{"type":"Feature","id":137,"geometry":{"type":"Point","coordinates":[-81.80591474857421,26.25149619203475]},"properties":{"OBJECTID":137,"Name":"VANDERBILIT URGENT CARE","Address":"801 VANDERBILT BEACH RD","City":"NAPLES","Zip":" ","COUNTY":"COLLIER","X":-81.805914749999999,"Y":26.251496190000001,"LONGLAT":"-81.80591475,26.25149619","USNG":"17R MK 19516 03786","OWNERSHIP":null,"PARCELID":null,"FACILITY_TYPE":"EMERGENCY MEDICAL SERVICE"}},{"type":"Feature","id":138,"geometry":{"type":"Point","coordinates":[-81.697950963891344,25.93388642707917]},"properties":{"OBJECTID":138,"Name":"PHYSICIANS REGIONAL MARCO ISLAND WALK IN CLINIC","Address":"1839 SAN MARCO ROAD","City":"MARCO ISLAND","Zip":" ","COUNTY":"COLLIER","X":-81.69795096,"Y":25.933886430000001,"LONGLAT":"-81.69795096,25.93388643","USNG":"17R MJ 30110 68548","OWNERSHIP":null,"PARCELID":null,"FACILITY_TYPE":"EMERGENCY MEDICAL SERVICE"}},{"type":"Feature","id":139,"geometry":{"type":"Point","coordinates":[-81.778113571455478,26.147112724346464]},"properties":{"OBJECTID":139,"Name":"MED-FLIGHT 1/EMS BC 83","Address":"2375 TOWER DR","City":"NAPLES","Zip":"34101","COUNTY":"COLLIER","X":-81.778113570000002,"Y":26.14711273,"LONGLAT":"-81.77811357,26.14711273","USNG":"17R MJ 22223 92208","OWNERSHIP":"PRIVATE","PARCELID":null,"FACILITY_TYPE":"EMERGENCY MEDICAL SERVICE"}},{"type":"Feature","id":140,"geometry":{"type":"Point","coordinates":[-82.67150992610317,30.176208537758974]},"properties":{"OBJECTID":140,"Name":"COLUMBIA COUNTY EMS","Address":"SR-247","City":"LAKE CITY","Zip":"32025","COUNTY":"COLUMBIA","X":-82.671509929999999,"Y":30.176208540000001,"LONGLAT":"-82.67150993,30.17620854","USNG":"17R LP 39060 39491","OWNERSHIP":"COUNTY","PARCELID":"01-4S-16-02642-000","FACILITY_TYPE":"EMERGENCY MEDICAL SERVICE"}},{"type":"Feature","id":141,"geometry":{"type":"Point","coordinates":[-81.97762394425628,27.200939917750233]},"properties":{"OBJECTID":141,"Name":"DESOTO COUNTY FIRE RESCUE ST 4","Address":"8120 SW COUNTY ROAD 72","City":"ARCADIA","Zip":"34266","COUNTY":"DESOTO","X":-81.977623940000001,"Y":27.20093992,"LONGLAT":"-81.97762394,27.20093992","USNG":"17R ML 03175 09069","OWNERSHIP":"COUNTY","PARCELID":null,"FACILITY_TYPE":"EMERGENCY MEDICAL SERVICE"}},{"type":"Feature","id":142,"geometry":{"type":"Point","coordinates":[-81.999772467462378,27.092448682727515]},"properties":{"OBJECTID":142,"Name":"DESOTO COUNTY FIRE RESCUE ST 2","Address":"8789 SW COUNTY ROAD 761","City":"ARCADIA","Zip":"34269","COUNTY":"DESOTO","X":-81.999772469999996,"Y":27.09244868,"LONGLAT":"-81.99977247,27.09244868","USNG":"17R MK 00885 97068","OWNERSHIP":"COUNTY","PARCELID":"10-39-23-0000-0053-0000","FACILITY_TYPE":"EMERGENCY MEDICAL SERVICE"}},{"type":"Feature","id":143,"geometry":{"type":"Point","coordinates":[-81.842582109108022,27.208784223156712]},"properties":{"OBJECTID":143,"Name":"DESOTO COUNTY FIRE RESCUE ST 1","Address":"1985 SE CARLSTROM FIELD RD","City":"ARCADIA","Zip":"34266","COUNTY":"DESOTO","X":-81.842582109999995,"Y":27.208784219999998,"LONGLAT":"-81.84258211,27.20878422","USNG":"17R ML 16556 09840","OWNERSHIP":"COUNTY","PARCELID":"06-38-25-0104-0000-0010","FACILITY_TYPE":"EMERGENCY MEDICAL SERVICE"}},{"type":"Feature","id":144,"geometry":{"type":"Point","coordinates":[-81.861901066447857,27.216987057150348]},"properties":{"OBJECTID":144,"Name":"DESOTO COUNTY FIRE RESCUE ST 3","Address":"121 W HICKORY ST","City":"ARCADIA","Zip":"34266","COUNTY":"DESOTO","X":-81.861901070000002,"Y":27.216987060000001,"LONGLAT":"-81.86190107,27.21698706","USNG":"17R ML 14649 10762","OWNERSHIP":"COUNTY","PARCELID":"25-37-24-0012-0280-0020","FACILITY_TYPE":"EMERGENCY MEDICAL SERVICE"}},{"type":"Feature","id":145,"geometry":{"type":"Point","coordinates":[-83.111670417032045,29.625290640326394]},"properties":{"OBJECTID":145,"Name":"DIXIE COUNTY EMS","Address":"17600 SE US HWY 19","City":"OLD TOWN","Zip":"32680","COUNTY":"DIXIE","X":-83.111670419999996,"Y":29.625290639999999,"LONGLAT":"-83.11167042,29.62529064","USNG":"17R KN 95549 79128","OWNERSHIP":"COUNTY","PARCELID":"101012000026000000","FACILITY_TYPE":"EMERGENCY MEDICAL SERVICE"}},{"type":"Feature","id":146,"geometry":{"type":"Point","coordinates":[-81.660202404464698,30.33113219278265]},"properties":{"OBJECTID":146,"Name":"JACKSONVILLE FIRE AND RESCUE DEPT","Address":"515 N JULIA ST","City":"JACKSONVILLE","Zip":"32202","COUNTY":"DUVAL","X":-81.660202400000003,"Y":30.331132190000002,"LONGLAT":"-81.66020240,30.33113219","USNG":"17R MP 36536 55663","OWNERSHIP":"COUNTY","PARCELID":"0738540000R","FACILITY_TYPE":"EMERGENCY MEDICAL SERVICE"}},{"type":"Feature","id":147,"geometry":{"type":"Point","coordinates":[-81.666912998219345,30.350602156971846]},"properties":{"OBJECTID":147,"Name":"JACKSONVILLE RESCUE 4","Address":"2119 DAVIS ST N","City":"JACKSONVILLE","Zip":"32209","COUNTY":"DUVAL","X":-81.666912999999994,"Y":30.350602160000001,"LONGLAT":"-81.66691300,30.35060216","USNG":"17R MP 35904 57824","OWNERSHIP":"MUNICIPAL","PARCELID":"0548410000R","FACILITY_TYPE":"EMERGENCY MEDICAL SERVICE"}},{"type":"Feature","id":148,"geometry":{"type":"Point","coordinates":[-81.664277091572274,30.348494135973414]},"properties":{"OBJECTID":148,"Name":"TRAUMA ONE AT SHANDS JACKSONVILLE","Address":"655 W 8TH ST","City":"JACKSONVILLE","Zip":"32209","COUNTY":"DUVAL","X":-81.664277089999999,"Y":30.34849414,"LONGLAT":"-81.66427709,30.34849414","USNG":"17R MP 36156 57589","OWNERSHIP":"PRIVATE","PARCELID":null,"FACILITY_TYPE":"EMERGENCY MEDICAL SERVICE"}},{"type":"Feature","id":149,"geometry":{"type":"Point","coordinates":[-81.614489756183232,30.261737153384132]},"properties":{"OBJECTID":149,"Name":"AMBULANCE SERVICE","Address":"5995 PHILIPS HWY","City":"JACKSONVILLE","Zip":"32216","COUNTY":"DUVAL","X":-81.614489759999998,"Y":30.261737149999998,"LONGLAT":"-81.61448976,30.26173715","USNG":"17R MP 40889 47948","OWNERSHIP":"PRIVATE","PARCELID":"1529420000R","FACILITY_TYPE":"EMERGENCY MEDICAL SERVICE"}},{"type":"Feature","id":150,"geometry":{"type":"Point","coordinates":[-81.587300865949857,30.290180673547614]},"properties":{"OBJECTID":150,"Name":"ADVANCE PATIENT TRANSPORT","Address":"7007 BEACH BLVD","City":"JACKSONVILLE","Zip":"32216","COUNTY":"DUVAL","X":-81.587300870000007,"Y":30.290180670000002,"LONGLAT":"-81.58730087,30.29018067","USNG":"17R MP 43521 51086","OWNERSHIP":"PRIVATE","PARCELID":"1348780000R","FACILITY_TYPE":"EMERGENCY MEDICAL SERVICE"}},{"type":"Feature","id":151,"geometry":{"type":"Point","coordinates":[-81.600733603609342,30.312806630905396]},"properties":{"OBJECTID":151,"Name":"LIBERTY AMBULANCE SERVICE","Address":"1626 ATLANTIC UNIVERSITY CIR","City":"JACKSONVILLE","Zip":"32207","COUNTY":"DUVAL","X":-81.600733599999998,"Y":30.312806630000001,"LONGLAT":"-81.60073360,30.31280663","USNG":"17R MP 42242 53600","OWNERSHIP":"PRIVATE","PARCELID":"1340360000R","FACILITY_TYPE":"EMERGENCY MEDICAL SERVICE"}},{"type":"Feature","id":152,"geometry":{"type":"Point","coordinates":[-81.68544914883438,30.320043716735988]},"properties":{"OBJECTID":152,"Name":"CENTURY AMBULANCE SERVICES","Address":"2103 GILMORE ST","City":"JACKSONVILLE","Zip":"32204","COUNTY":"DUVAL","X":-81.685449149999997,"Y":30.320043720000001,"LONGLAT":"-81.68544915,30.32004372","USNG":"17R MP 34102 54448","OWNERSHIP":"PRIVATE","PARCELID":"0915690000R","FACILITY_TYPE":"EMERGENCY MEDICAL SERVICE"}},{"type":"Feature","id":153,"geometry":{"type":"Point","coordinates":[-87.19663951351643,30.482481929741677]},"properties":{"OBJECTID":153,"Name":"LIFEGUARD AIR AMB EXEC PLAZA RD","Address":"2401 EXECUTIVE PLAZA RD STE 3","City":"PENSACOLA","Zip":"32504","COUNTY":"ESCAMBIA","X":-87.196639509999997,"Y":30.482481929999999,"LONGLAT":"-87.19663951,30.48248193","USNG":"16R DU 81126 72266","OWNERSHIP":"PRIVATE","PARCELID":"141S292200001006","FACILITY_TYPE":"EMERGENCY MEDICAL SERVICE"}},{"type":"Feature","id":154,"geometry":{"type":"Point","coordinates":[-87.236614034721285,30.443573620007822]},"properties":{"OBJECTID":154,"Name":"ESCAMBIA COUNTY DEPT PUBLIC SAFETY","Address":"2920 N L ST","City":"PENSACOLA","Zip":"32501","COUNTY":"ESCAMBIA","X":-87.236614029999998,"Y":30.443573619999999,"LONGLAT":"-87.23661403,30.44357362","USNG":"16R DU 77281 67962","OWNERSHIP":"COUNTY","PARCELID":"172S305015000002","FACILITY_TYPE":"EMERGENCY MEDICAL SERVICE"}},{"type":"Feature","id":155,"geometry":{"type":"Point","coordinates":[-87.218563401497121,30.516235584449614]},"properties":{"OBJECTID":155,"Name":"POST 30-WEST FLORIDA HOSPITAL","Address":"8383 N DAVIS HWY","City":"PENSACOLA","Zip":"32514","COUNTY":"ESCAMBIA","X":-87.218563399999994,"Y":30.516235590000001,"LONGLAT":"-87.21856340,30.51623559","USNG":"16R DU 79030 76011","OWNERSHIP":null,"PARCELID":null,"FACILITY_TYPE":"EMERGENCY MEDICAL SERVICE"}},{"type":"Feature","id":156,"geometry":{"type":"Point","coordinates":[-87.218853359520708,30.534003067532257]},"properties":{"OBJECTID":156,"Name":"BAPTIST MEDICAL PARK - 9 MILE","Address":"9400 UNIVERSITY PKWY","City":"PENSACOLA","Zip":"32514","COUNTY":"ESCAMBIA","X":-87.218853359999997,"Y":30.534003070000001,"LONGLAT":"-87.21885336,30.53400307","USNG":"16R DU 79006 77980","OWNERSHIP":null,"PARCELID":null,"FACILITY_TYPE":"EMERGENCY MEDICAL SERVICE"}},{"type":"Feature","id":157,"geometry":{"type":"Point","coordinates":[-87.207949162252575,30.445740052491495]},"properties":{"OBJECTID":157,"Name":"PROCLINIC SERVICES","Address":"3101 N 12TH AVE","City":"PENSACOLA","Zip":"32503","COUNTY":"ESCAMBIA","X":-87.207949159999998,"Y":30.445740050000001,"LONGLAT":"-87.20794916,30.44574005","USNG":"16R DU 80034 68197","OWNERSHIP":null,"PARCELID":null,"FACILITY_TYPE":"EMERGENCY MEDICAL SERVICE"}},{"type":"Feature","id":158,"geometry":{"type":"Point","coordinates":[-87.214102317393895,30.478080939721309]},"properties":{"OBJECTID":158,"Name":"POST 22-SACRED HEART HOSPITAL","Address":"5151 N 9TH AVE","City":"PENSACOLA","Zip":"32504","COUNTY":"ESCAMBIA","X":-87.214102319999995,"Y":30.478080940000002,"LONGLAT":"-87.21410232,30.47808094","USNG":"16R DU 79450 71782","OWNERSHIP":null,"PARCELID":null,"FACILITY_TYPE":"EMERGENCY MEDICAL SERVICE"}},{"type":"Feature","id":159,"geometry":{"type":"Point","coordinates":[-87.293555817497491,30.402107106433309]},"properties":{"OBJECTID":159,"Name":"VA CLINIC PENSACOLA","Address":"790 VETERANS WAY","City":"PENSACOLA","Zip":"32507","COUNTY":"ESCAMBIA","X":-87.293555819999995,"Y":30.402107109999999,"LONGLAT":"-87.29355582,30.40210711","USNG":"16R DU 71802 63380","OWNERSHIP":null,"PARCELID":null,"FACILITY_TYPE":"EMERGENCY MEDICAL SERVICE"}},{"type":"Feature","id":160,"geometry":{"type":"Point","coordinates":[-87.288449995899342,30.566578826304671]},"properties":{"OBJECTID":160,"Name":"WEST FLORIDA MEDICAL GROUP(IMMEDIATE CARE @ KINGSFIELD)","Address":"2360 N HIGHWAY 29","City":"CANTONMENT","Zip":"32533","COUNTY":"ESCAMBIA","X":-87.288449999999997,"Y":30.566578830000001,"LONGLAT":"-87.28845000,30.56657883","USNG":"16R DU 72339 81605","OWNERSHIP":null,"PARCELID":null,"FACILITY_TYPE":"EMERGENCY MEDICAL SERVICE"}},{"type":"Feature","id":161,"geometry":{"type":"Point","coordinates":[-87.228600000023235,30.531099999427369]},"properties":{"OBJECTID":161,"Name":"POST 7-PARKS AND RECREATION","Address":"1651 EAST NINE MILE ROAD","City":"PENSACOLA","Zip":"32514","COUNTY":"ESCAMBIA","X":-87.2286,"Y":30.531099999999999,"LONGLAT":"-87.22860000,30.53110000","USNG":"16R DU 78070 77660","OWNERSHIP":null,"PARCELID":null,"FACILITY_TYPE":"EMERGENCY MEDICAL SERVICE"}},{"type":"Feature","id":162,"geometry":{"type":"Point","coordinates":[-87.224362022813551,30.472405694524436]},"properties":{"OBJECTID":162,"Name":"EMERALD COAST WALK-IN MEDICAL","Address":"511 PHYLLIS ST","City":"PENSACOLA","Zip":"32503","COUNTY":"ESCAMBIA","X":-87.224362020000001,"Y":30.472405699999999,"LONGLAT":"-87.22436202,30.47240570","USNG":"16R DU 78464 71155","OWNERSHIP":null,"PARCELID":null,"FACILITY_TYPE":"EMERGENCY MEDICAL SERVICE"}},{"type":"Feature","id":163,"geometry":{"type":"Point","coordinates":[-87.19383674776391,30.475892229248188]},"properties":{"OBJECTID":163,"Name":"LIFEGUARD AIR AMBULANCE","Address":"2430 AIRPORT BLVD","City":"PENSACOLA","Zip":"32504","COUNTY":"ESCAMBIA","X":-87.193836750000003,"Y":30.475892229999999,"LONGLAT":"-87.19383675,30.47589223","USNG":"16R DU 81394 71535","OWNERSHIP":null,"PARCELID":null,"FACILITY_TYPE":"EMERGENCY MEDICAL SERVICE"}},{"type":"Feature","id":164,"geometry":{"type":"Point","coordinates":[-87.232053145551433,30.429564556488444]},"properties":{"OBJECTID":164,"Name":"POST 20-BAPTIST HOSPITAL","Address":"1000 W MORENO ST","City":"PENSACOLA","Zip":"32501","COUNTY":"ESCAMBIA","X":-87.232053149999999,"Y":30.429564559999999,"LONGLAT":"-87.23205315,30.42956456","USNG":"16R DU 77716 66409","OWNERSHIP":null,"PARCELID":null,"FACILITY_TYPE":"EMERGENCY MEDICAL SERVICE"}},{"type":"Feature","id":165,"geometry":{"type":"Point","coordinates":[-87.259195080074178,30.486391346800243]},"properties":{"OBJECTID":165,"Name":"SACRED HEART URGENT CARE","Address":"6665 PENSACOLA BLVD","City":"PENSACOLA","Zip":"32505","COUNTY":"ESCAMBIA","X":-87.259195079999998,"Y":30.486391350000002,"LONGLAT":"-87.25919508,30.48639135","USNG":"16R DU 75124 72712","OWNERSHIP":null,"PARCELID":null,"FACILITY_TYPE":"EMERGENCY MEDICAL SERVICE"}},{"type":"Feature","id":166,"geometry":{"type":"Point","coordinates":[-87.219288021694211,30.514023519664978]},"properties":{"OBJECTID":166,"Name":"WEST FLORIDA URGENT CARE","Address":"8333 N DAVIS HWY","City":"PENSACOLA","Zip":"32514","COUNTY":"ESCAMBIA","X":-87.219288019999993,"Y":30.514023519999999,"LONGLAT":"-87.21928802,30.51402352","USNG":"16R DU 78960 75766","OWNERSHIP":null,"PARCELID":null,"FACILITY_TYPE":"EMERGENCY MEDICAL SERVICE"}},{"type":"Feature","id":167,"geometry":{"type":"Point","coordinates":[-87.290234698367613,30.570590438015962]},"properties":{"OBJECTID":167,"Name":"MINUTE CLINIC (INSIDE CVS PHARMACY)","Address":"2090 S HIGHWAY 29","City":"CANTONMENT","Zip":"32533","COUNTY":"ESCAMBIA","X":-87.290234699999999,"Y":30.57059044,"LONGLAT":"-87.29023470,30.57059044","USNG":"16R DU 72169 82050","OWNERSHIP":null,"PARCELID":null,"FACILITY_TYPE":"EMERGENCY MEDICAL SERVICE"}},{"type":"Feature","id":168,"geometry":{"type":"Point","coordinates":[-87.219520639975428,30.510864772949279]},"properties":{"OBJECTID":168,"Name":"MINUTE CLINIC (INSIDE CVS)","Address":"8100 N DAVIS HWY","City":"PENSACOLA","Zip":"32514","COUNTY":"ESCAMBIA","X":-87.219520639999999,"Y":30.510864770000001,"LONGLAT":"-87.21952064,30.51086477","USNG":"16R DU 78937 75416","OWNERSHIP":null,"PARCELID":null,"FACILITY_TYPE":"EMERGENCY MEDICAL SERVICE"}},{"type":"Feature","id":169,"geometry":{"type":"Point","coordinates":[-87.231325364191335,30.443291312168057]},"properties":{"OBJECTID":169,"Name":"POST 25-ECEMS SUB-STATION-PENSACOLA","Address":"1135 W HAYES ST","City":"PENSACOLA","Zip":"32501","COUNTY":"ESCAMBIA","X":-87.23132536,"Y":30.443291309999999,"LONGLAT":"-87.23132536,30.44329131","USNG":"16R DU 77789 67930","OWNERSHIP":null,"PARCELID":null,"FACILITY_TYPE":"EMERGENCY MEDICAL SERVICE"}},{"type":"Feature","id":170,"geometry":{"type":"Point","coordinates":[-87.402581108915399,30.340336119907448]},"properties":{"OBJECTID":170,"Name":"PERDIDO URGENT CARE","Address":"12385 SORRENTO RD","City":"PENSACOLA","Zip":"32507","COUNTY":"ESCAMBIA","X":-87.40258111,"Y":30.34033612,"LONGLAT":"-87.40258111,30.34033612","USNG":"16R DU 61305 56567","OWNERSHIP":null,"PARCELID":null,"FACILITY_TYPE":"EMERGENCY MEDICAL SERVICE"}},{"type":"Feature","id":171,"geometry":{"type":"Point","coordinates":[-81.256512542005424,29.466277759002619]},"properties":{"OBJECTID":171,"Name":"FLAGLER CO FIRE RESCUE","Address":"201 MOODY BLVD E","City":"BUNNELL","Zip":"32110","COUNTY":"FLAGLER","X":-81.256512540000003,"Y":29.466277760000001,"LONGLAT":"-81.25651254,29.46627776","USNG":"17R MN 75128 59674","OWNERSHIP":"COUNTY","PARCELID":"10-12-30-0850-01330-0000","FACILITY_TYPE":"EMERGENCY MEDICAL SERVICE"}},{"type":"Feature","id":172,"geometry":{"type":"Point","coordinates":[-84.8877443444037,29.736611227437869]},"properties":{"OBJECTID":172,"Name":"FRANKLIN COUNTY EMERGENCY MEDICAL","Address":"171 UNIT C","City":"EASTPOINT","Zip":"32328","COUNTY":"FRANKLIN","X":-84.887744339999998,"Y":29.736611230000001,"LONGLAT":"-84.88774434,29.73661123","USNG":"16R GT 04281 91468","OWNERSHIP":null,"PARCELID":null,"FACILITY_TYPE":"EMERGENCY MEDICAL SERVICE"}},{"type":"Feature","id":173,"geometry":{"type":"Point","coordinates":[-84.597467137680837,29.884594341303043]},"properties":{"OBJECTID":173,"Name":"EMERGYSTAT OF FRANKLIN","Address":"2367 OAK ST","City":"CARRABELLE","Zip":"32322","COUNTY":"FRANKLIN","X":-84.597467140000006,"Y":29.88459434,"LONGLAT":"-84.59746714,29.88459434","USNG":"16R GU 32020 08422","OWNERSHIP":"COUNTY","PARCELID":null,"FACILITY_TYPE":"EMERGENCY MEDICAL SERVICE"}},{"type":"Feature","id":174,"geometry":{"type":"Point","coordinates":[-84.568324055420604,30.587420975443024]},"properties":{"OBJECTID":174,"Name":"GADSDEN COUNTY EMS","Address":"412 E JEFFERSON ST","City":"QUINCY","Zip":"32351","COUNTY":"GADSDEN","X":-84.568324059999995,"Y":30.587420980000001,"LONGLAT":"-84.56832406,30.58742098","USNG":"16R GU 33169 86398","OWNERSHIP":"COUNTY","PARCELID":"3-07-2N-3W-0000-00142-0100","FACILITY_TYPE":"EMERGENCY MEDICAL SERVICE"}},{"type":"Feature","id":175,"geometry":{"type":"Point","coordinates":[-82.844361124149316,29.658168731916209]},"properties":{"OBJECTID":175,"Name":"MED 1","Address":"3250 N US Highway 129","City":"BELL","Zip":" ","COUNTY":"GILCHRIST","X":-82.844361120000002,"Y":29.65816873,"LONGLAT":"-82.84436112,29.65816873","USNG":"17R LN 21493 82330","OWNERSHIP":null,"PARCELID":null,"FACILITY_TYPE":"EMERGENCY MEDICAL SERVICE"}},{"type":"Feature","id":176,"geometry":{"type":"Point","coordinates":[-82.823875455671143,29.630054988433812]},"properties":{"OBJECTID":176,"Name":"MED 2","Address":"7330 US HWY 129","City":"TRENTON","Zip":"32693","COUNTY":"GILCHRIST","X":-82.823875459999996,"Y":29.630054990000001,"LONGLAT":"-82.82387546,29.63005499","USNG":"17R LN 23427 79183","OWNERSHIP":null,"PARCELID":null,"FACILITY_TYPE":"EMERGENCY MEDICAL SERVICE"}},{"type":"Feature","id":177,"geometry":{"type":"Point","coordinates":[-82.865962731944194,29.784336737606392]},"properties":{"OBJECTID":177,"Name":"MED 1","Address":"3270 N US HWY 129","City":"BELL","Zip":"32619","COUNTY":"GILCHRIST","X":-82.865962730000007,"Y":29.784336740000001,"LONGLAT":"-82.86596273,29.78433674","USNG":"17R LN 19628 96347","OWNERSHIP":"COUNTY","PARCELID":"13-08-14-0000-0003-0010","FACILITY_TYPE":"EMERGENCY MEDICAL SERVICE"}},{"type":"Feature","id":178,"geometry":{"type":"Point","coordinates":[-81.12536491692812,26.840118718158134]},"properties":{"OBJECTID":178,"Name":"GLADES COUNTY EMS","Address":"1097 HEALTH PARK DRive","City":"MOORE HAVEN","Zip":"33471","COUNTY":"GLADES","X":-81.125364919999996,"Y":26.84011872,"LONGLAT":"-81.12536492,26.84011872","USNG":"17R MK 87544 68733","OWNERSHIP":"COUNTY","PARCELID":"A21-41-32-A00-0020-0000","FACILITY_TYPE":"EMERGENCY MEDICAL SERVICE"}},{"type":"Feature","id":179,"geometry":{"type":"Point","coordinates":[-85.289712097677736,29.814325293967148]},"properties":{"OBJECTID":179,"Name":"GULF COUNTY EMS","Address":"140 LIBRARY DR","City":"PORT SAINT JOE","Zip":"32456","COUNTY":"GULF","X":-85.289712100000003,"Y":29.814325289999999,"LONGLAT":"-85.28971210,29.81432529","USNG":"16R FT 65272 99438","OWNERSHIP":"COUNTY","PARCELID":"03012-000R","FACILITY_TYPE":"EMERGENCY MEDICAL SERVICE"}},{"type":"Feature","id":180,"geometry":{"type":"Point","coordinates":[-85.202069851278637,30.106099020854188]},"properties":{"OBJECTID":180,"Name":"WEWAHITCHKA EMS AMBULANCE","Address":"237 W RIVER RD","City":"WEWAHITCHKA","Zip":"32465","COUNTY":"GULF","X":-85.202069850000001,"Y":30.106099019999998,"LONGLAT":"-85.20206985,30.10609902","USNG":"16R FU 73235 31905","OWNERSHIP":null,"PARCELID":"02254-004R","FACILITY_TYPE":"EMERGENCY MEDICAL SERVICE"}},{"type":"Feature","id":181,"geometry":{"type":"Point","coordinates":[-82.954421824294357,30.519534324519537]},"properties":{"OBJECTID":181,"Name":"HAMILTON COUNTY EMS","Address":"902 US HWY 41 NW","City":"JASPER","Zip":"32052","COUNTY":"HAMILTON","X":-82.954421819999993,"Y":30.519534329999999,"LONGLAT":"-82.95442182,30.51953433","USNG":"17R LP 12472 77980","OWNERSHIP":"COUNTY","PARCELID":"6926-000","FACILITY_TYPE":"EMERGENCY MEDICAL SERVICE"}},{"type":"Feature","id":182,"geometry":{"type":"Point","coordinates":[-81.810125591714055,27.556595527105618]},"properties":{"OBJECTID":182,"Name":"HARDEE COUNTY FIRE/RESCUE","Address":"149 K D REVELL RD","City":"WAUCHULA","Zip":"33873","COUNTY":"HARDEE","X":-81.810125589999998,"Y":27.556595529999999,"LONGLAT":"-81.81012559,27.55659553","USNG":"17R ML 20021 48347","OWNERSHIP":"COUNTY","PARCELID":"04-34-25-0000-06210-0000","FACILITY_TYPE":"EMERGENCY MEDICAL SERVICE"}},{"type":"Feature","id":183,"geometry":{"type":"Point","coordinates":[-81.382804869344227,26.750368519063695]},"properties":{"OBJECTID":183,"Name":"HENDRY CO EMERGENCY SERVICE","Address":"1050 E COWBOY WAY","City":"LABELLE","Zip":"33935","COUNTY":"HENDRY","X":-81.382804870000001,"Y":26.750368519999999,"LONGLAT":"-81.38280487,26.75036852","USNG":"17R MK 61936 58843","OWNERSHIP":"COUNTY","PARCELID":"4 29 43 10 060 000D-001.1","FACILITY_TYPE":"EMERGENCY MEDICAL SERVICE"}},{"type":"Feature","id":184,"geometry":{"type":"Point","coordinates":[-81.426535431143478,26.746243775776364]},"properties":{"OBJECTID":184,"Name":"HENDRY COUNTY EMERGENCY SERVICES - LABELLE","Address":"1050 FORESTRY DIVISION RD","City":"LABELLE","Zip":"33935","COUNTY":"HENDRY","X":-81.426535430000001,"Y":26.74624378,"LONGLAT":"-81.42653543,26.74624378","USNG":"17R MK 57586 58400","OWNERSHIP":"COUNTY","PARCELID":null,"FACILITY_TYPE":"EMERGENCY MEDICAL SERVICE"}},{"type":"Feature","id":185,"geometry":{"type":"Point","coordinates":[-80.997711990762582,26.326195238844374]},"properties":{"OBJECTID":185,"Name":"SEMINOLE TRIBE FIRE/RESCUE - BIG CYPRESS","Address":"30300 JOSIE BILLIE HWY","City":"CLEWISTON","Zip":"33440","COUNTY":"HENDRY","X":-80.997711989999999,"Y":26.326195240000001,"LONGLAT":"-80.99771199,26.32619524","USNG":"17R NK 00228 11808","OWNERSHIP":"OTHER PUBLIC","PARCELID":null,"FACILITY_TYPE":"EMERGENCY MEDICAL SERVICE"}},{"type":"Feature","id":186,"geometry":{"type":"Point","coordinates":[-80.90573943492312,26.301706364563074]},"properties":{"OBJECTID":186,"Name":"BIG CYPRESS INDIAN RESERVATION FD","Address":"35154 FIREHOUSE PL","City":"CLEWISTON","Zip":"33440","COUNTY":"HENDRY","X":-80.905739429999997,"Y":26.301706370000002,"LONGLAT":"-80.90573943,26.30170637","USNG":"17R NK 09409 09100","OWNERSHIP":"OTHER PUBLIC","PARCELID":"1 34 48 23 A00 0001.0000","FACILITY_TYPE":"EMERGENCY MEDICAL SERVICE"}},{"type":"Feature","id":187,"geometry":{"type":"Point","coordinates":[-80.934920955870112,26.753418315513041]},"properties":{"OBJECTID":187,"Name":"CLEWISTON VFD","Address":"120 COMMERCIO ST","City":"CLEWISTON","Zip":"33440","COUNTY":"HENDRY","X":-80.934920959999999,"Y":26.753418320000002,"LONGLAT":"-80.93492096,26.75341832","USNG":"17R NK 06470 59126","OWNERSHIP":"MUNICIPAL","PARCELID":"3 34 43 01 010 0357-001.0","FACILITY_TYPE":"EMERGENCY MEDICAL SERVICE"}},{"type":"Feature","id":188,"geometry":{"type":"Point","coordinates":[-82.399478876035033,28.55281136276011]},"properties":{"OBJECTID":188,"Name":"HERNANDO COUNTY FIRE RESCUE HQ","Address":"60 VETERANS AVE","City":"BROOKSVILLE","Zip":"34601","COUNTY":"HERNANDO","X":-82.399478880000004,"Y":28.55281136,"LONGLAT":"-82.39947888,28.55281136","USNG":"17R LM 63100 59241","OWNERSHIP":"COUNTY","PARCELID":"R22 222 19 2822 0000 0030","FACILITY_TYPE":"EMERGENCY MEDICAL SERVICE"}},{"type":"Feature","id":189,"geometry":{"type":"Point","coordinates":[-82.456632429769655,28.478789676499495]},"properties":{"OBJECTID":189,"Name":"BAYFRONT MEDICAL CENTER BAYFLITE 4 AMBULANCE","Address":"16300 FLIGHT PATH DR","City":"BROOKSVILLE","Zip":"34604","COUNTY":"HERNANDO","X":-82.456632429999999,"Y":28.478789679999998,"LONGLAT":"-82.45663243,28.47878968","USNG":"17R LM 57409 51106","OWNERSHIP":"PRIVATE","PARCELID":"R13 223 18 2393 0000 0280","FACILITY_TYPE":"EMERGENCY MEDICAL SERVICE"}},{"type":"Feature","id":190,"geometry":{"type":"Point","coordinates":[-82.575693182765761,28.485645582796966]},"properties":{"OBJECTID":190,"Name":"SPRING HILL FIRE RESC DIST","Address":"3444 BOB HARTUNG CT","City":"SPRING HILL","Zip":"34606","COUNTY":"HERNANDO","X":-82.575693180000002,"Y":28.48564558,"LONGLAT":"-82.57569318,28.48564558","USNG":"17R LM 45763 52013","OWNERSHIP":"COUNTY","PARCELID":"R32 323 17 5251 0000 00A0","FACILITY_TYPE":"EMERGENCY MEDICAL SERVICE"}},{"type":"Feature","id":191,"geometry":{"type":"Point","coordinates":[-81.420903128644738,27.442191254487017]},"properties":{"OBJECTID":191,"Name":"HIGHLANDS COUNTY EMS","Address":"4500 GEORGE BLVD","City":"SEBRING","Zip":"33875","COUNTY":"HIGHLANDS","X":-81.420903129999999,"Y":27.442191260000001,"LONGLAT":"-81.42090313,27.44219126","USNG":"17R ML 58404 35483","OWNERSHIP":"COUNTY","PARCELID":"C093529A0001610000","FACILITY_TYPE":"EMERGENCY MEDICAL SERVICE"}},{"type":"Feature","id":192,"geometry":{"type":"Point","coordinates":[-81.502641190659588,27.591805620623926]},"properties":{"OBJECTID":192,"Name":"AVON PARK STATION 4 MEDIC 4-2, MEDIC 4-1","Address":"51 WILHITE STREET","City":"AVON PARK","Zip":"33825","COUNTY":"HIGHLANDS","X":null,"Y":null,"LONGLAT":null,"USNG":null,"OWNERSHIP":null,"PARCELID":null,"FACILITY_TYPE":"EMERGENCY MEDICAL SERVICE"}},{"type":"Feature","id":193,"geometry":{"type":"Point","coordinates":[-81.367399999928864,27.29559999914952]},"properties":{"OBJECTID":193,"Name":"LAKE PLACID STATION 38 MEDIC 38-1","Address":"17 W ROYAL PLAM DR","City":"LAKE PLACID","Zip":"33852","COUNTY":"HIGHLANDS","X":-81.367400000000004,"Y":27.2956,"LONGLAT":"-81.36740000,27.29560000","USNG":"17R ML 63643 19229","OWNERSHIP":"COUNTY","PARCELID":"P01372901000600150","FACILITY_TYPE":"EMERGENCY MEDICAL SERVICE"}},{"type":"Feature","id":194,"geometry":{"type":"Point","coordinates":[-82.392266239845739,28.033023109400386]},"properties":{"OBJECTID":194,"Name":"TEMPLE TERRACE FIRE AMBULANCE","Address":"124 BULLARD PKWY","City":"TAMPA","Zip":"33617","COUNTY":"HILLSBOROUGH","X":-82.392266239999998,"Y":28.033023109999998,"LONGLAT":"-82.39226624,28.03302311","USNG":"17R LM 63143 01642","OWNERSHIP":"MUNICIPAL","PARCELID":"19282255K0000F9000050T","FACILITY_TYPE":"EMERGENCY MEDICAL SERVICE"}},{"type":"Feature","id":195,"geometry":{"type":"Point","coordinates":[-82.11704232346311,27.989495991784889]},"properties":{"OBJECTID":195,"Name":"PLANT CITY FIRE RESCUE STATION 1","Address":"604 E ALEXANDER ST","City":"PLANT CITY","Zip":"33563","COUNTY":"HILLSBOROUGH","X":-82.117042319999996,"Y":27.989495990000002,"LONGLAT":"-82.11704232,27.98949599","USNG":"17R LL 90155 96541","OWNERSHIP":"MUNICIPAL","PARCELID":"222904ZZZ000004842400P","FACILITY_TYPE":"EMERGENCY MEDICAL SERVICE"}},{"type":"Feature","id":196,"geometry":{"type":"Point","coordinates":[-82.331807941423989,27.996390161699733]},"properties":{"OBJECTID":196,"Name":"MED EVAC INC","Address":"10220 E US HIGHWAY 92","City":"TAMPA","Zip":"33610","COUNTY":"HILLSBOROUGH","X":-82.331807940000004,"Y":27.996390160000001,"LONGLAT":"-82.33180794,27.99639016","USNG":"17R LL 69042 97517","OWNERSHIP":"PRIVATE","PARCELID":"202832ZZZ000002249100U","FACILITY_TYPE":"EMERGENCY MEDICAL SERVICE"}},{"type":"Feature","id":197,"geometry":{"type":"Point","coordinates":[-82.527021547565184,28.005854985139099]},"properties":{"OBJECTID":197,"Name":"AMERICAN MEDICAL RESPONSE AMB","Address":"4914 W KNOX ST","City":"TAMPA","Zip":"33634","COUNTY":"HILLSBOROUGH","X":-82.527021550000001,"Y":28.00585499,"LONGLAT":"-82.52702155,28.00585499","USNG":"17R LL 49857 98790","OWNERSHIP":"PRIVATE","PARCELID":"182832ZZZ000001027000U","FACILITY_TYPE":"EMERGENCY MEDICAL SERVICE"}},{"type":"Feature","id":198,"geometry":{"type":"Point","coordinates":[-82.354161572883598,27.713359931500797]},"properties":{"OBJECTID":198,"Name":"SUN CITY CTR EMERGENCY SQ #1 INC","Address":"101 RAY WATSON DR","City":"SUN CITY CENTER","Zip":"33573","COUNTY":"HILLSBOROUGH","X":-82.354161570000002,"Y":27.713359929999999,"LONGLAT":"-82.35416157,27.71335993","USNG":"17R LL 66497 66184","OWNERSHIP":"PRIVATE","PARCELID":"193212ZZZ000001782600U","FACILITY_TYPE":"EMERGENCY MEDICAL SERVICE"}},{"type":"Feature","id":199,"geometry":{"type":"Point","coordinates":[-82.454484744258011,27.951740627323865]},"properties":{"OBJECTID":199,"Name":"TAMPA FIRE RESCUE","Address":"808 E ZACK ST","City":"TAMPA","Zip":"33602","COUNTY":"HILLSBOROUGH","X":-82.454484739999998,"Y":27.95174063,"LONGLAT":"-82.45448474,27.95174063","USNG":"17R LL 56919 92707","OWNERSHIP":"MUNICIPAL","PARCELID":"1829244ZI000032000010A","FACILITY_TYPE":"EMERGENCY MEDICAL SERVICE"}},{"type":"Feature","id":200,"geometry":{"type":"Point","coordinates":[-82.137868495181095,28.021676266729482]},"properties":{"OBJECTID":200,"Name":"PLANT CITY FIRE RESCUE STATION 2","Address":"805 N ALEXANDER ST","City":"PLANT CITY","Zip":"33563","COUNTY":"HILLSBOROUGH","X":-82.137868499999996,"Y":28.02167627,"LONGLAT":"-82.13786850,28.02167627","USNG":"17R LM 88140 00125","OWNERSHIP":"MUNICIPAL","PARCELID":"2228295CN000005000001P","FACILITY_TYPE":"EMERGENCY MEDICAL SERVICE"}},{"type":"Feature","id":201,"geometry":{"type":"Point","coordinates":[-82.310269184283811,27.999388625337684]},"properties":{"OBJECTID":201,"Name":"AMERICARE AMBULANCE SERVICE","Address":"11301 E US HIGHWAY 92","City":"SEFFNER","Zip":"33584","COUNTY":"HILLSBOROUGH","X":-82.310269180000006,"Y":27.999388629999999,"LONGLAT":"-82.31026918,27.99938863","USNG":"17R LL 71163 97826","OWNERSHIP":"PRIVATE","PARCELID":"202833264000000023000U","FACILITY_TYPE":"EMERGENCY MEDICAL SERVICE"}},{"type":"Feature","id":202,"geometry":{"type":"Point","coordinates":[-82.462315946623207,28.087221309476316]},"properties":{"OBJECTID":202,"Name":"TRANSCARE","Address":"1 CRISIS CTR PLZ","City":"TAMPA","Zip":"33613","COUNTY":"HILLSBOROUGH","X":-82.462315950000004,"Y":28.08722131,"LONGLAT":"-82.46231595,28.08722131","USNG":"17R LM 56328 07727","OWNERSHIP":"PRIVATE","PARCELID":"182736ZZZ000000755900U","FACILITY_TYPE":"EMERGENCY MEDICAL SERVICE"}},{"type":"Feature","id":203,"geometry":{"type":"Point","coordinates":[-85.664116184635915,30.786740671019739]},"properties":{"OBJECTID":203,"Name":"HOLMES CO EMS STATION 1","Address":"949 E US HWY 90","City":"BONIFAY","Zip":"32425","COUNTY":"HOLMES","X":-85.664116179999994,"Y":30.78674067,"LONGLAT":"-85.66411618,30.78674067","USNG":"16R FV 27820 06730","OWNERSHIP":"COUNTY","PARCELID":"0605.00-000-000-017.000","FACILITY_TYPE":"EMERGENCY MEDICAL SERVICE"}},{"type":"Feature","id":204,"geometry":{"type":"Point","coordinates":[-85.851348912853979,30.774446023757985]},"properties":{"OBJECTID":204,"Name":"HOLMES CO EMS STATION 2","Address":"2523 N PINE ST","City":"WESTVILLE","Zip":"32464","COUNTY":"HOLMES","X":-85.851348909999999,"Y":30.774446019999999,"LONGLAT":"-85.85134891,30.77444602","USNG":"16R FV 09917 05169","OWNERSHIP":"COUNTY","PARCELID":"1408.01-001-012-009.000","FACILITY_TYPE":"EMERGENCY MEDICAL SERVICE"}},{"type":"Feature","id":205,"geometry":{"type":"Point","coordinates":[-80.6015349372434,27.770182923252108]},"properties":{"OBJECTID":205,"Name":"INDIAN RIVER CO EMS ST 10","Address":"62 N BROADWAY ST","City":"FELLSMERE","Zip":"32948","COUNTY":"INDIAN RIVER","X":-80.601534939999993,"Y":27.77018292,"LONGLAT":"-80.60153494,27.77018292","USNG":"17R NL 39261 71808","OWNERSHIP":"COUNTY","PARCELID":"31370000009098000018.0","FACILITY_TYPE":"EMERGENCY MEDICAL SERVICE"}},{"type":"Feature","id":206,"geometry":{"type":"Point","coordinates":[-80.496351213853245,27.624756378244438]},"properties":{"OBJECTID":206,"Name":"INDIAN RIVER CO EMS ST 07","Address":"1215 82ND AVE","City":"VERO BEACH","Zip":"32966","COUNTY":"INDIAN RIVER","X":-80.49635121,"Y":27.624756380000001,"LONGLAT":"-80.49635121,27.62475638","USNG":"17R NL 49690 55737","OWNERSHIP":"COUNTY","PARCELID":"33381100001008000001.0","FACILITY_TYPE":"EMERGENCY MEDICAL SERVICE"}},{"type":"Feature","id":207,"geometry":{"type":"Point","coordinates":[-80.492654488507242,27.83097156000531]},"properties":{"OBJECTID":207,"Name":"INDIAN RIVER CO EMS ST 40","Address":"8025 129TH CT","City":"SEBASTIAN","Zip":"32958","COUNTY":"INDIAN RIVER","X":-80.492654490000007,"Y":27.830971559999998,"LONGLAT":"-80.49265449,27.83097156","USNG":"17R NL 49961 78581","OWNERSHIP":"COUNTY","PARCELID":"30382100005028000001.0","FACILITY_TYPE":"EMERGENCY MEDICAL SERVICE"}},{"type":"Feature","id":208,"geometry":{"type":"Point","coordinates":[-80.420256832169585,27.712752416476306]},"properties":{"OBJECTID":208,"Name":"INDIAN RIVER CO EMS ST 05","Address":"6568 US HWY 1","City":"VERO BEACH","Zip":"32967","COUNTY":"INDIAN RIVER","X":-80.42025683,"Y":27.712752420000001,"LONGLAT":"-80.42025683,27.71275242","USNG":"17R NL 57152 65517","OWNERSHIP":"COUNTY","PARCELID":"32391000000100000023.1","FACILITY_TYPE":"EMERGENCY MEDICAL SERVICE"}},{"type":"Feature","id":209,"geometry":{"type":"Point","coordinates":[-80.486865002643469,27.778062031258997]},"properties":{"OBJECTID":209,"Name":"INDIAN RIVER CO EMS ST 08","Address":"1115 BARBER ST","City":"SEBASTIAN","Zip":"32958","COUNTY":"INDIAN RIVER","X":-80.486864999999995,"Y":27.778062030000001,"LONGLAT":"-80.48686500,27.77806203","USNG":"17R NL 50556 72723","OWNERSHIP":"COUNTY","PARCELID":"31382400001208000000.2","FACILITY_TYPE":"EMERGENCY MEDICAL SERVICE"}},{"type":"Feature","id":210,"geometry":{"type":"Point","coordinates":[-80.422154259130821,27.683260041433936]},"properties":{"OBJECTID":210,"Name":"INDIAN RIVER CO FIRE RESCUE ST 12","Address":"3620 49TH ST","City":"VERO BEACH","Zip":"32967","COUNTY":"INDIAN RIVER","X":-80.422154259999999,"Y":27.68326004,"LONGLAT":"-80.42215426,27.68326004","USNG":"17R NL 56981 62249","OWNERSHIP":"COUNTY","PARCELID":"32392200000300000002.0","FACILITY_TYPE":"EMERGENCY MEDICAL SERVICE"}},{"type":"Feature","id":211,"geometry":{"type":"Point","coordinates":[-80.429404744387185,27.649480421571738]},"properties":{"OBJECTID":211,"Name":"INDIAN RIVER CO EMS ST 03","Address":"2900 43RD AVE","City":"VERO BEACH","Zip":"32960","COUNTY":"INDIAN RIVER","X":-80.429404739999995,"Y":27.64948042,"LONGLAT":"-80.42940474,27.64948042","USNG":"17R NL 56283 58504","OWNERSHIP":"COUNTY","PARCELID":"32392600011048000001.1","FACILITY_TYPE":"EMERGENCY MEDICAL SERVICE"}},{"type":"Feature","id":212,"geometry":{"type":"Point","coordinates":[-80.339621195761964,27.602803611900466]},"properties":{"OBJECTID":212,"Name":"INDIAN RIVER CO EMS ST 06","Address":"101 STATE HWY A1A","City":"VERO BEACH","Zip":"32963","COUNTY":"INDIAN RIVER","X":-80.339621199999996,"Y":27.602803609999999,"LONGLAT":"-80.33962120,27.60280361","USNG":"17R NL 65167 53378","OWNERSHIP":"COUNTY","PARCELID":"33401600000007000003.0","FACILITY_TYPE":"EMERGENCY MEDICAL SERVICE"}},{"type":"Feature","id":213,"geometry":{"type":"Point","coordinates":[-80.408293568425719,27.762981040453649]},"properties":{"OBJECTID":213,"Name":"INDIAN RIVER CO EMS ST 11","Address":"2555 93RD ST","City":"VERO BEACH","Zip":"32963","COUNTY":"INDIAN RIVER","X":-80.408293569999998,"Y":27.76298104,"LONGLAT":"-80.40829357,27.76298104","USNG":"17R NL 58305 71087","OWNERSHIP":"COUNTY","PARCELID":"31392600000004000001.1","FACILITY_TYPE":"EMERGENCY MEDICAL SERVICE"}},{"type":"Feature","id":214,"geometry":{"type":"Point","coordinates":[-80.488520635660507,27.837949603465702]},"properties":{"OBJECTID":214,"Name":"INDIAN RIVER CO EMS ST 09","Address":"13550 ROSELAND DR","City":"SEBASTIAN","Zip":"32958","COUNTY":"INDIAN RIVER","X":-80.488520640000004,"Y":27.837949600000002,"LONGLAT":"-80.48852064,27.83794960","USNG":"17R NL 50365 79356","OWNERSHIP":"COUNTY","PARCELID":"30382100001000000011.5","FACILITY_TYPE":"EMERGENCY MEDICAL SERVICE"}},{"type":"Feature","id":215,"geometry":{"type":"Point","coordinates":[-80.370115236810605,27.652227468143362]},"properties":{"OBJECTID":215,"Name":"INDIAN RIVER CO EMS ST 02","Address":"3301 BRIDGE PLAZA DR","City":"VERO BEACH","Zip":"32963","COUNTY":"INDIAN RIVER","X":-80.370115240000004,"Y":27.65222747,"LONGLAT":"-80.37011524,27.65222747","USNG":"17R NL 62130 58837","OWNERSHIP":"COUNTY","PARCELID":"32403100000002000001.0","FACILITY_TYPE":"EMERGENCY MEDICAL SERVICE"}},{"type":"Feature","id":216,"geometry":{"type":"Point","coordinates":[-80.395591561655024,27.629607868878136]},"properties":{"OBJECTID":216,"Name":"INDIAN RIVER CO EMS ST 01","Address":"1500 OLD DIXIE HWY","City":"VERO BEACH","Zip":"32960","COUNTY":"INDIAN RIVER","X":-80.39559156,"Y":27.629607870000001,"LONGLAT":"-80.39559156,27.62960787","USNG":"17R NL 59629 56319","OWNERSHIP":"COUNTY","PARCELID":"33391200000300000014.0","FACILITY_TYPE":"EMERGENCY MEDICAL SERVICE"}},{"type":"Feature","id":217,"geometry":{"type":"Point","coordinates":[-80.520574166038557,27.74313757202275]},"properties":{"OBJECTID":217,"Name":"INDIAN RIVER CO EMS ST 50","Address":"9448 82ND ST","City":"VERO BEACH","Zip":"32967","COUNTY":"INDIAN RIVER","X":-80.520574170000003,"Y":27.743137569999998,"LONGLAT":"-80.52057417,27.74313757","USNG":"17R NL 47249 68840","OWNERSHIP":"COUNTY","PARCELID":"31383400000300000003.1","FACILITY_TYPE":"EMERGENCY MEDICAL SERVICE"}},{"type":"Feature","id":218,"geometry":{"type":"Point","coordinates":[-80.401336928341891,27.587732857981511]},"properties":{"OBJECTID":218,"Name":"INDIAN RIVER CO EMS ST 04","Address":"1500 9TH ST SW","City":"VERO BEACH","Zip":"32962","COUNTY":"INDIAN RIVER","X":-80.401336929999999,"Y":27.587732859999999,"LONGLAT":"-80.40133693,27.58773286","USNG":"17R NL 59085 51677","OWNERSHIP":"COUNTY","PARCELID":"33392300001016000001.0","FACILITY_TYPE":"EMERGENCY MEDICAL SERVICE"}},