{"type":"FeatureCollection","features":[{"type":"Feature","id":1,"geometry":{"type":"Point","coordinates":[-81.029591148404108,29.221767974349611]},"properties":{"OBJECTID":1,"Name":"SECOND HARVEST FOOD BANK OF CENTRAL FLORIDA - VOLUSIA (BRANCH)","Address":"320 NORTH ST","City":"DAYTONA BEACH","Zip":"32114","COUNTY":"VOLUSIA","X":-81.029591150000002,"Y":29.221767979999999,"LONGLAT":"-81.02959115,29.22176798","USNG":"17R MN 97123 32556","OWNERSHIP":null,"PARCELID":null,"FACILITY_TYPE":"FOOD BANK"}},{"type":"Feature","id":2,"geometry":{"type":"Point","coordinates":[-82.645109089199309,30.196464598853147]},"properties":{"OBJECTID":2,"Name":"FLORIDA GATEWAY FOOD BANK","Address":"553 NW RAILROAD ST","City":"LAKE CITY","Zip":"32055","COUNTY":"COLUMBIA","X":-82.645109090000005,"Y":30.196464599999999,"LONGLAT":"-82.64510909,30.19646460","USNG":"17R LP 41635 41699","OWNERSHIP":null,"PARCELID":null,"FACILITY_TYPE":"FOOD BANK"}},{"type":"Feature","id":3,"geometry":{"type":"Point","coordinates":[-81.429574316094872,28.548270150914696]},"properties":{"OBJECTID":3,"Name":"SECOND HARVEST FOOD BANK OF CENTRAL FLORIDA - ORLANDO","Address":"411 MERCY DR","City":"ORLANDO","Zip":"32805","COUNTY":"ORANGE","X":-81.42957432,"Y":28.54827015,"LONGLAT":"-81.42957432,28.54827015","USNG":"17R MM 57978 58014","OWNERSHIP":null,"PARCELID":null,"FACILITY_TYPE":"FOOD BANK"}},{"type":"Feature","id":4,"geometry":{"type":"Point","coordinates":[-80.17325752153323,25.987295073913497]},"properties":{"OBJECTID":4,"Name":"FEEDING SOUTH FLORIDA","Address":"2501 SW 32ND TER","City":"PEMBROKE PARK","Zip":"33023","COUNTY":"BROWARD","X":-80.173257520000007,"Y":25.987295069999998,"LONGLAT":"-80.17325752,25.98729507","USNG":"17R NJ 82749 74538","OWNERSHIP":null,"PARCELID":null,"FACILITY_TYPE":"FOOD BANK"}},{"type":"Feature","id":5,"geometry":{"type":"Point","coordinates":[-81.773962226021496,26.223172365198216]},"properties":{"OBJECTID":5,"Name":"NAPLES BRANCH OF HARRY CHAPIN","Address":"2221 CORPORATION BLVD","City":"NAPLES","Zip":"34109","COUNTY":"COLLIER","X":-81.773962229999995,"Y":26.22317237,"LONGLAT":"-81.77396223,26.22317237","USNG":"17R MK 22689 00629","OWNERSHIP":null,"PARCELID":null,"FACILITY_TYPE":"FOOD BANK"}},{"type":"Feature","id":6,"geometry":{"type":"Point","coordinates":[-82.402009399651689,27.347311123051455]},"properties":{"OBJECTID":6,"Name":"ALL FAITHS FOOD BANK","Address":"8171 BLAIKIE CT","City":"SARASOTA","Zip":"34240","COUNTY":"SARASOTA","X":-82.402009399999997,"Y":27.347311120000001,"LONGLAT":"-82.40200940,27.34731112","USNG":"17R LL 61321 25683","OWNERSHIP":null,"PARCELID":null,"FACILITY_TYPE":"FOOD BANK"}},{"type":"Feature","id":7,"geometry":{"type":"Point","coordinates":[-84.283867049362485,30.401084139449324]},"properties":{"OBJECTID":7,"Name":"AMERICA'S SECOND HARVEST FOOD BANK OF THE BIG BEND","Address":"110 FOUR POINTS WAY","City":"TALLAHASSEE","Zip":"32305","COUNTY":"LEON","X":-84.283867049999998,"Y":30.401084139999998,"LONGLAT":"-84.28386705,30.40108414","USNG":"16R GU 60952 66361","OWNERSHIP":null,"PARCELID":null,"FACILITY_TYPE":"FOOD BANK"}},{"type":"Feature","id":8,"geometry":{"type":"Point","coordinates":[-84.283442536436041,30.44090804993694]},"properties":{"OBJECTID":8,"Name":"FLORIDA ASSOCIATION OF FOOD BANKS  (FAFB - TALLAHASSEE OFFICE)","Address":"200 W COLLEGE AVE STE 120","City":"TALLAHASSEE","Zip":"32301","COUNTY":"LEON","X":-84.283442539999996,"Y":30.440908050000001,"LONGLAT":"-84.28344254,30.44090805","USNG":"16R GU 60887 70778","OWNERSHIP":null,"PARCELID":null,"FACILITY_TYPE":"FOOD BANK"}},{"type":"Feature","id":9,"geometry":{"type":"Point","coordinates":[-81.862435000136088,26.607329999158718]},"properties":{"OBJECTID":9,"Name":"HARRY CHAPIN FOOD BANK","Address":"3760 FOWLER ST","City":"FORT MYERS","Zip":"33901","COUNTY":"LEE","X":-81.862435000000005,"Y":26.607330000000001,"LONGLAT":"-81.86243500,26.60733000","USNG":"17R MK 14136 43234","OWNERSHIP":null,"PARCELID":null,"FACILITY_TYPE":"FOOD BANK"}},{"type":"Feature","id":10,"geometry":{"type":"Point","coordinates":[-80.335955076574834,27.446828232802517]},"properties":{"OBJECTID":10,"Name":"TREASURE COAST (OUTREACH CENTER)","Address":"1203 ORANGE AVE","City":"FORT PIERCE","Zip":"34946","COUNTY":"ST. LUCIE","X":-80.335955080000005,"Y":27.446828230000001,"LONGLAT":"-80.33595508,27.44682823","USNG":"17R NL 65621 36102","OWNERSHIP":null,"PARCELID":null,"FACILITY_TYPE":"FOOD BANK"}},{"type":"Feature","id":11,"geometry":{"type":"Point","coordinates":[-82.556053789221011,27.479718739660559]},"properties":{"OBJECTID":11,"Name":"FOOD BANK OF MANATEE (BY MEALS ON WHEELS PLUS OF MANATEE)","Address":"811 23RD AVE E","City":"BRADENTON","Zip":"34208","COUNTY":"MANATEE","X":-82.556053790000007,"Y":27.479718739999999,"LONGLAT":"-82.55605379,27.47971874","USNG":"17R LL 46265 40533","OWNERSHIP":null,"PARCELID":null,"FACILITY_TYPE":"FOOD BANK"}},{"type":"Feature","id":12,"geometry":{"type":"Point","coordinates":[-82.458800851612352,28.243024487412189]},"properties":{"OBJECTID":12,"Name":"FEEDING AMERICA TAMPA BAY (BRANCH)","Address":"5829 EHREN CUTOFF","City":"LAND O' LAKES","Zip":"34639","COUNTY":"PASCO","X":-82.458800850000003,"Y":28.24302449,"LONGLAT":"-82.45880085,28.24302449","USNG":"17R LM 56881 24986","OWNERSHIP":null,"PARCELID":null,"FACILITY_TYPE":"FOOD BANK"}},{"type":"Feature","id":13,"geometry":{"type":"Point","coordinates":[-80.36075254877808,27.450989419293276]},"properties":{"OBJECTID":13,"Name":"TREASURE COAST FOOD BANK","Address":"401 ANGLE RD","City":"FORT PIERCE","Zip":"34947","COUNTY":"ST. LUCIE","X":-80.360752550000001,"Y":27.450989419999999,"LONGLAT":"-80.36075255,27.45098942","USNG":"17R NL 63168 36550","OWNERSHIP":null,"PARCELID":null,"FACILITY_TYPE":"FOOD BANK"}},{"type":"Feature","id":14,"geometry":{"type":"Point","coordinates":[-81.480607507426342,27.483806434785521]},"properties":{"OBJECTID":14,"Name":"HEARTLAND FOOD RESIVOIR","Address":"227 US HWY 27 S","City":"SEBRING","Zip":"33872","COUNTY":"HIGHLANDS","X":-81.480607509999999,"Y":27.483806439999999,"LONGLAT":"-81.48060751,27.48380644","USNG":"17R ML 52521 40115","OWNERSHIP":null,"PARCELID":null,"FACILITY_TYPE":"FOOD BANK"}},{"type":"Feature","id":15,"geometry":{"type":"Point","coordinates":[-80.055406690917252,26.694331986522791]},"properties":{"OBJECTID":15,"Name":"FEEDING SOUTH FLORIDA (BRANCH)","Address":"426 CLAREMORE DR","City":"WEST PALM BEACH","Zip":"33401","COUNTY":"PALM BEACH","X":-80.055406689999998,"Y":26.694331989999998,"LONGLAT":"-80.05540669,26.69433199","USNG":"17R NK 93972 52928","OWNERSHIP":null,"PARCELID":null,"FACILITY_TYPE":"FOOD BANK"}},{"type":"Feature","id":16,"geometry":{"type":"Point","coordinates":[-82.407092758537118,27.959060759413713]},"properties":{"OBJECTID":16,"Name":"FEEDING AMERICA TAMPA BAY","Address":"4702 TRANSPORT DR BLDG 6","City":"TAMPA","Zip":"33605","COUNTY":"HILLSBOROUGH","X":-82.407092759999998,"Y":27.95906076,"LONGLAT":"-82.40709276,27.95906076","USNG":"17R LL 61590 93464","OWNERSHIP":null,"PARCELID":null,"FACILITY_TYPE":"FOOD BANK"}},{"type":"Feature","id":17,"geometry":{"type":"Point","coordinates":[-80.668755999864771,28.094437999379334]},"properties":{"OBJECTID":17,"Name":"SECOND HARVEST FOOD BANK OF CENTRAL FLORIDA - BREVARD (BRANCH)","Address":"6928A VICKIE CIR","City":"WEST MELBOURNE","Zip":"32904","COUNTY":"BREVARD","X":-80.668756000000002,"Y":28.094438,"LONGLAT":"-80.66875600,28.09443800","USNG":"17R NM 32540 07708","OWNERSHIP":null,"PARCELID":null,"FACILITY_TYPE":"FOOD BANK"}},{"type":"Feature","id":18,"geometry":{"type":"Point","coordinates":[-82.328527114496424,29.660758282870869]},"properties":{"OBJECTID":18,"Name":"BREAD OF THE MIGHTY","Address":"325 NW 10TH AVE","City":"GAINESVILLE","Zip":"32601","COUNTY":"ALACHUA","X":-82.328527109999996,"Y":29.66075828,"LONGLAT":"-82.32852711,29.66075828","USNG":"17R LN 71427 81933","OWNERSHIP":null,"PARCELID":null,"FACILITY_TYPE":"FOOD BANK"}},{"type":"Feature","id":19,"geometry":{"type":"Point","coordinates":[-82.034762000280224,28.035607999393086]},"properties":{"OBJECTID":19,"Name":"AGAPE FOOD BANK","Address":"625 MCCUE RD STE 2","City":"LAKELAND","Zip":"33815","COUNTY":"POLK","X":-82.034762000000001,"Y":28.035608,"LONGLAT":"-82.03476200,28.03560800","USNG":"17R LM 98289 01578","OWNERSHIP":null,"PARCELID":null,"FACILITY_TYPE":"FOOD BANK"}},{"type":"Feature","id":20,"geometry":{"type":"Point","coordinates":[-82.520766790906421,28.765201012838801]},"properties":{"OBJECTID":20,"Name":"COMM FOOD BANK OF CITRUS COUNTY","Address":"5259 W CARDINAL ST BLDG B","City":"HOMOSASSA","Zip":"34446","COUNTY":"CITRUS","X":-82.520766789999996,"Y":28.765201009999998,"LONGLAT":"-82.52076679,28.76520101","USNG":"17R LM 51534 82920","OWNERSHIP":null,"PARCELID":null,"FACILITY_TYPE":"FOOD BANK"}},{"type":"Feature","id":21,"geometry":{"type":"Point","coordinates":[-82.086463116824575,29.228366535141532]},"properties":{"OBJECTID":21,"Name":"FIRST STEP FOOD BANK","Address":"4045 NE 36TH AVE","City":"OCALA","Zip":"34479","COUNTY":"MARION","X":-82.086463120000005,"Y":29.22836654,"LONGLAT":"-82.08646312,29.22836654","USNG":"17R LN 94408 33775","OWNERSHIP":null,"PARCELID":null,"FACILITY_TYPE":"FOOD BANK"}},{"type":"Feature","id":22,"geometry":{"type":"Point","coordinates":[-86.98477179217052,30.641034035330016]},"properties":{"OBJECTID":22,"Name":"BAY AREA FOOD BANK","Address":"5709 INDUSTRIAL BLVD","City":"MILTON","Zip":"32583","COUNTY":"SANTA ROSA","X":-86.984771789999996,"Y":30.641034040000001,"LONGLAT":"-86.98477179,30.64103404","USNG":"16R EU 01459 89820","OWNERSHIP":null,"PARCELID":null,"FACILITY_TYPE":"FOOD BANK"}},{"type":"Feature","id":23,"geometry":{"type":"Point","coordinates":[-81.88521756937962,26.623006363481334]},"properties":{"OBJECTID":23,"Name":"FLORIDA ASSOCIATION OF FOOD BANKS  (FAFB)","Address":"1365 ALCAZAR AVE","City":"FORT MYERS","Zip":"33901","COUNTY":"LEE","X":-81.885217569999995,"Y":26.623006360000002,"LONGLAT":"-81.88521757,26.62300636","USNG":"17R MK 11879 44985","OWNERSHIP":null,"PARCELID":null,"FACILITY_TYPE":"FOOD BANK"}},{"type":"Feature","id":24,"geometry":{"type":"Point","coordinates":[-81.73280464594491,30.341060138614921]},"properties":{"OBJECTID":24,"Name":"FEEDING NE FLORIDA","Address":"1116 EDGEWOOD AVE N","City":"JACKSONVILLE","Zip":"32254","COUNTY":"DUVAL","X":-81.732804650000006,"Y":30.34106014,"LONGLAT":"-81.73280465,30.34106014","USNG":"17R MP 29564 56806","OWNERSHIP":null,"PARCELID":null,"FACILITY_TYPE":"FOOD BANK"}}]}