{"type":"FeatureCollection","features":[{"type":"Feature","id":1,"geometry":{"type":"Point","coordinates":[-82.436663363203508,29.69219136698074]},"properties":{"OBJECTID":1,"HAZUSID":null,"Name":"SHANDS REHAB HOSPITAL","Address":"4101 NW 89TH BLVD","City":"GAINESVILLE","Zip":"32606","COUNTY":"ALACHUA","X":-82.436663359999997,"Y":29.69219137,"LONGLAT":"-82.43666336,29.69219137","USNG":"17R LN 61004 85541","OWNERSHIP":null,"PARCELID":null,"FACILITY_TYPE":"HOSPITAL","TTL_BEDS":40,"EFCLASS":"EFHS"}},{"type":"Feature","id":2,"geometry":{"type":"Point","coordinates":[-82.436636531702987,29.691475850523375]},"properties":{"OBJECTID":2,"HAZUSID":null,"Name":"SHANDS AT VISTA","Address":"4101 NW 89TH BLVD","City":"GAINESVILLE","Zip":"32606","COUNTY":"ALACHUA","X":-82.436636530000001,"Y":29.69147585,"LONGLAT":"-82.43663653,29.69147585","USNG":"17R LN 61005 85462","OWNERSHIP":null,"PARCELID":null,"FACILITY_TYPE":"HOSPITAL","TTL_BEDS":81,"EFCLASS":"EFHM"}},{"type":"Feature","id":3,"geometry":{"type":"Point","coordinates":[-82.364320396121897,29.632116988479041]},"properties":{"OBJECTID":3,"HAZUSID":null,"Name":"SELECT SPECIALTY HOSPITAL - G'VILLE","Address":"2708 SW ARCHER RD","City":"GAINESVILLE","Zip":"32608","COUNTY":"ALACHUA","X":-82.364320399999997,"Y":29.63211699,"LONGLAT":"-82.36432040,29.63211699","USNG":"17R LN 67925 78799","OWNERSHIP":null,"PARCELID":null,"FACILITY_TYPE":"HOSPITAL","TTL_BEDS":44,"EFCLASS":"EFHS"}},{"type":"Feature","id":4,"geometry":{"type":"Point","coordinates":[-82.412200000198013,29.659755999871127]},"properties":{"OBJECTID":4,"HAZUSID":null,"Name":"NORTH FLORIDA REGIONAL MEDICAL CNTR","Address":"6500 NEWBERRY RD","City":"GAINESVILLE","Zip":"32605","COUNTY":"ALACHUA","X":-82.412199999999999,"Y":29.659756000000002,"LONGLAT":"-82.41220000,29.65975600","USNG":"17R LN 63327 81918","OWNERSHIP":null,"PARCELID":null,"FACILITY_TYPE":"HOSPITAL - ACUTE CARE","TTL_BEDS":432,"EFCLASS":"EFHL"}},{"type":"Feature","id":5,"geometry":{"type":"Point","coordinates":[-82.34326474169805,29.639753386729449]},"properties":{"OBJECTID":5,"HAZUSID":null,"Name":"SHANDS HOSPITAL AT U of F","Address":"1600 SW ARCHER RD ","City":"GAINESVILLE","Zip":"32610","COUNTY":"ALACHUA","X":-82.343264739999995,"Y":29.639753389999999,"LONGLAT":"-82.34326474,29.63975339","USNG":"17R LN 69973 79622","OWNERSHIP":null,"PARCELID":null,"FACILITY_TYPE":"HOSPITAL - TRAUMA","TTL_BEDS":875,"EFCLASS":"EFHL"}},{"type":"Feature","id":6,"geometry":{"type":"Point","coordinates":[-82.347189999871702,29.635949999164726]},"properties":{"OBJECTID":6,"HAZUSID":null,"Name":"MALCOM RANDALL VA MEDI CNTR","Address":"1601 S.W. ARCHER ROAD","City":"GAINESVILLE","Zip":"32608","COUNTY":"ALACHUA","X":-82.347189999999998,"Y":29.635950000000001,"LONGLAT":"-82.34719000,29.63595000","USNG":"17R LN 69588 79205","OWNERSHIP":null,"PARCELID":null,"FACILITY_TYPE":"HOSPITAL - VA","TTL_BEDS":240,"EFCLASS":"EFHL"}},{"type":"Feature","id":7,"geometry":{"type":"Point","coordinates":[-82.118996234144603,30.286099039714092]},"properties":{"OBJECTID":7,"HAZUSID":null,"Name":"ED FRASER MEMORIAL HOSP","Address":"159 N 3RD ST","City":"MACCLENNY","Zip":"32063","COUNTY":"BAKER","X":-82.118996229999993,"Y":30.28609904,"LONGLAT":"-82.11899623,30.28609904","USNG":"17R LP 92382 51018","OWNERSHIP":null,"PARCELID":null,"FACILITY_TYPE":"HOSPITAL - ACUTE CARE","TTL_BEDS":25,"EFCLASS":"EFHS"}},{"type":"Feature","id":8,"geometry":{"type":"Point","coordinates":[-82.144803838307467,30.227167504589183]},"properties":{"OBJECTID":8,"HAZUSID":null,"Name":"NORTHEAST FLORIDA STATE HOSP","Address":"7487 S STATE RD 121","City":"MACCLENNY","Zip":"32063","COUNTY":"BAKER","X":-82.144803839999994,"Y":30.227167510000001,"LONGLAT":"-82.14480384,30.22716751","USNG":"17R LP 89835 44511","OWNERSHIP":null,"PARCELID":null,"FACILITY_TYPE":"HOSPITAL","TTL_BEDS":1138,"EFCLASS":"EFHL"}},{"type":"Feature","id":9,"geometry":{"type":"Point","coordinates":[-85.6688570240524,30.182030653737741]},"properties":{"OBJECTID":9,"HAZUSID":null,"Name":"HEALTHSOUTH EMERALD COAST REHAB HOSP","Address":"1847 FLORIDA AVE","City":"PANAMA CITY","Zip":"32405","COUNTY":"BAY","X":-85.668857020000004,"Y":30.182030650000002,"LONGLAT":"-85.66885702,30.18203065","USNG":"16R FU 28156 39704","OWNERSHIP":null,"PARCELID":null,"FACILITY_TYPE":"HOSPITAL","TTL_BEDS":75,"EFCLASS":"EFHM"}},{"type":"Feature","id":10,"geometry":{"type":"Point","coordinates":[-85.658690643099789,30.184021234487577]},"properties":{"OBJECTID":10,"HAZUSID":null,"Name":"EMERALD COAST BEHAVIORAL HOSP","Address":"1940 HARRISON AVE","City":"PANAMA CITY","Zip":"32405","COUNTY":"BAY","X":-85.658690640000003,"Y":30.18402124,"LONGLAT":"-85.65869064,30.18402124","USNG":"16R FU 29132 39936","OWNERSHIP":null,"PARCELID":null,"FACILITY_TYPE":"HOSPITAL","TTL_BEDS":86,"EFCLASS":"EFHM"}},{"type":"Feature","id":11,"geometry":{"type":"Point","coordinates":[-85.665151999269014,30.18965299952314]},"properties":{"OBJECTID":11,"HAZUSID":null,"Name":"GULF COAST REGIONAL MED CENT","Address":"449 W 23RD ST","City":"PANAMA CITY","Zip":"32405","COUNTY":"BAY","X":-85.665152000000006,"Y":30.189653,"LONGLAT":"-85.66515200,30.18965300","USNG":"16R FU 28503 40553","OWNERSHIP":null,"PARCELID":null,"FACILITY_TYPE":"HOSPITAL - ACUTE CARE","TTL_BEDS":216,"EFCLASS":"EFHL"}},{"type":"Feature","id":12,"geometry":{"type":"Point","coordinates":[-85.603019999825591,30.07104999884438]},"properties":{"OBJECTID":12,"HAZUSID":null,"Name":"325TH MED GROUP USAF","Address":"340 MAGNOLIA CIRCLE","City":"TYNDALL AIR FORCE BASE ","Zip":"32403","COUNTY":"BAY","X":-85.603020000000001,"Y":30.07105,"LONGLAT":"-85.60302000,30.07105000","USNG":"16R FU 34646 27480","OWNERSHIP":null,"PARCELID":null,"FACILITY_TYPE":"HOSPITAL - VA","TTL_BEDS":null,"EFCLASS":"MDFLT"}},{"type":"Feature","id":13,"geometry":{"type":"Point","coordinates":[-85.758379999986744,30.176739999270637]},"properties":{"OBJECTID":13,"HAZUSID":null,"Name":"GULF COAST HLTH SYSTEM - PANAMA CTY ","Address":"101 VERNON AVE ","City":"PANAMA CITY BEACH ","Zip":"32407","COUNTY":"BAY","X":-85.758380000000002,"Y":30.176739999999999,"LONGLAT":"-85.75838000,30.17674000","USNG":"16R FU 19543 39020","OWNERSHIP":null,"PARCELID":null,"FACILITY_TYPE":"HOSPITAL - VA","TTL_BEDS":null,"EFCLASS":"MDFLT"}},{"type":"Feature","id":14,"geometry":{"type":"Point","coordinates":[-85.648395362013886,30.159764091772718]},"properties":{"OBJECTID":14,"HAZUSID":null,"Name":"BAY MED CENT/SACRED HEART HEALTH","Address":"615 N BONITA AVE","City":"PANAMA CITY","Zip":"32401","COUNTY":"BAY","X":-85.648395359999995,"Y":30.159764089999999,"LONGLAT":"-85.64839536,30.15976409","USNG":"16R FU 30155 37260","OWNERSHIP":null,"PARCELID":null,"FACILITY_TYPE":"HOSPITAL - TRAUMA","TTL_BEDS":323,"EFCLASS":"EFHL"}},{"type":"Feature","id":15,"geometry":{"type":"Point","coordinates":[-82.101596459965648,29.940131891805297]},"properties":{"OBJECTID":15,"HAZUSID":null,"Name":"SHANDS STARKE REGIONAL MEDICAL CNTR","Address":"922 E CALL ST","City":"STARKE","Zip":"32091","COUNTY":"BRADFORD","X":-82.101596459999996,"Y":29.94013189,"LONGLAT":"-82.10159646,29.94013189","USNG":"17R LP 93686 12661","OWNERSHIP":null,"PARCELID":null,"FACILITY_TYPE":"HOSPITAL - ACUTE CARE","TTL_BEDS":49,"EFCLASS":"EFHS"}},{"type":"Feature","id":16,"geometry":{"type":"Point","coordinates":[-80.623039514588299,28.360105520407803]},"properties":{"OBJECTID":16,"HAZUSID":null,"Name":"CAPE CANAVERAL HOSP","Address":"701 W COCOA BEACH CSWY","City":"COCOA BEACH","Zip":"32931","COUNTY":"BREVARD","X":-80.623039509999998,"Y":28.360105520000001,"LONGLAT":"-80.62303951,28.36010552","USNG":"17R NM 36939 37151","OWNERSHIP":null,"PARCELID":null,"FACILITY_TYPE":"HOSPITAL - ACUTE CARE","TTL_BEDS":150,"EFCLASS":"EFHL"}},{"type":"Feature","id":17,"geometry":{"type":"Point","coordinates":[-80.61167304480179,27.999867172207569]},"properties":{"OBJECTID":17,"HAZUSID":null,"Name":"PALM BAY HOSPITAL","Address":"1425 MALABAR RD NE","City":"PALM BAY","Zip":"32907","COUNTY":"BREVARD","X":-80.611673039999999,"Y":27.999867170000002,"LONGLAT":"-80.61167304,27.99986717","USNG":"17R NL 38181 97248","OWNERSHIP":null,"PARCELID":null,"FACILITY_TYPE":"HOSPITAL - ACUTE CARE","TTL_BEDS":152,"EFCLASS":"EFHL"}},{"type":"Feature","id":18,"geometry":{"type":"Point","coordinates":[-80.722798824520169,28.335115216544619]},"properties":{"OBJECTID":18,"HAZUSID":null,"Name":"WUESTHOFF MEDICAL CENTER - ROCKLEDGE","Address":"110 LONGWOOD AVE","City":"ROCKLEDGE","Zip":"32955","COUNTY":"BREVARD","X":-80.722798819999994,"Y":28.335115219999999,"LONGLAT":"-80.72279882,28.33511522","USNG":"17R NM 27170 34356","OWNERSHIP":null,"PARCELID":null,"FACILITY_TYPE":"HOSPITAL - ACUTE CARE","TTL_BEDS":298,"EFCLASS":"EFHL"}},{"type":"Feature","id":19,"geometry":{"type":"Point","coordinates":[-80.729334581801069,28.227971180248538]},"properties":{"OBJECTID":19,"HAZUSID":null,"Name":"VIERA HOSPITAL","Address":"8745 N WICKHAM RD","City":"MELBOURNE","Zip":"32940","COUNTY":"BREVARD","X":-80.72933458,"Y":28.227971180000001,"LONGLAT":"-80.72933458,28.22797118","USNG":"17R NM 26556 22485","OWNERSHIP":null,"PARCELID":null,"FACILITY_TYPE":"HOSPITAL - ACUTE CARE","TTL_BEDS":84.000839999999997,"EFCLASS":"EFHM"}},{"type":"Feature","id":20,"geometry":{"type":"Point","coordinates":[-80.824095658343353,28.630731555913595]},"properties":{"OBJECTID":20,"HAZUSID":null,"Name":"PARRISH MEDICAL CNTR","Address":"951 N WASHINGTON AVE","City":"TITUSVILLE","Zip":"32796","COUNTY":"BREVARD","X":-80.824095659999998,"Y":28.630731560000001,"LONGLAT":"-80.82409566,28.63073156","USNG":"17R NM 17193 67087","OWNERSHIP":null,"PARCELID":null,"FACILITY_TYPE":"HOSPITAL - ACUTE CARE","TTL_BEDS":210,"EFCLASS":"EFHL"}},{"type":"Feature","id":21,"geometry":{"type":"Point","coordinates":[-80.620139559037781,28.055564656516498]},"properties":{"OBJECTID":21,"HAZUSID":null,"Name":"HEALTHSOUTH SEA PINES REHAB HOSP","Address":"101 E FLORIDA AVE","City":"MELBOURNE","Zip":"32901","COUNTY":"BREVARD","X":-80.620139559999998,"Y":28.055564660000002,"LONGLAT":"-80.62013956,28.05556466","USNG":"17R NM 37329 03415","OWNERSHIP":null,"PARCELID":null,"FACILITY_TYPE":"HOSPITAL","TTL_BEDS":90,"EFCLASS":"EFHM"}},{"type":"Feature","id":22,"geometry":{"type":"Point","coordinates":[-80.63239371379855,28.092880672609745]},"properties":{"OBJECTID":22,"HAZUSID":null,"Name":"KINDRED HOSP - MELBOURNE","Address":"765 W NASA BLVD","City":"MELBOURNE","Zip":"32901","COUNTY":"BREVARD","X":-80.632393710000002,"Y":28.09288067,"LONGLAT":"-80.63239371,28.09288067","USNG":"17R NM 36113 07545","OWNERSHIP":null,"PARCELID":null,"FACILITY_TYPE":"HOSPITAL","TTL_BEDS":60,"EFCLASS":"EFHM"}},{"type":"Feature","id":23,"geometry":{"type":"Point","coordinates":[-80.615832654671806,28.089683319176437]},"properties":{"OBJECTID":23,"HAZUSID":null,"Name":"CIRCLES OF CARE HOSP","Address":"400 E SHERIDAN RD","City":"MELBOURNE","Zip":"32901","COUNTY":"BREVARD","X":-80.615832650000002,"Y":28.089683319999999,"LONGLAT":"-80.61583265,28.08968332","USNG":"17R NM 37741 07196","OWNERSHIP":null,"PARCELID":null,"FACILITY_TYPE":"HOSPITAL","TTL_BEDS":52,"EFCLASS":"EFHM"}},{"type":"Feature","id":24,"geometry":{"type":"Point","coordinates":[-80.708197541130389,28.234179077280327]},"properties":{"OBJECTID":24,"HAZUSID":null,"Name":"DEVEREUX FL","Address":"8000 DEVEREUX DR","City":"VIERA","Zip":"32940","COUNTY":"BREVARD","X":-80.70819754,"Y":28.234179080000001,"LONGLAT":"-80.70819754,28.23417908","USNG":"17R NM 28628 23178","OWNERSHIP":null,"PARCELID":null,"FACILITY_TYPE":"HOSPITAL","TTL_BEDS":100,"EFCLASS":"EFHM"}},{"type":"Feature","id":25,"geometry":{"type":"Point","coordinates":[-80.674813407006951,28.109365755782516]},"properties":{"OBJECTID":25,"HAZUSID":null,"Name":"WUESTHOFF MEDICAL CENTER - MELBOURNE","Address":"250 N WICKHAM RD","City":"MELBOURNE","Zip":"32935","COUNTY":"BREVARD","X":-80.674813409999999,"Y":28.109365759999999,"LONGLAT":"-80.67481341,28.10936576","USNG":"17R NM 31940 09360","OWNERSHIP":null,"PARCELID":null,"FACILITY_TYPE":"HOSPITAL - ACUTE CARE","TTL_BEDS":119,"EFCLASS":"EFHL"}},{"type":"Feature","id":26,"geometry":{"type":"Point","coordinates":[-80.614378715842705,28.088204496501131]},"properties":{"OBJECTID":26,"HAZUSID":null,"Name":"HOLMES REGION MED CNTR","Address":"1350 S HICKORY ST","City":"MELBOURNE","Zip":"32901","COUNTY":"BREVARD","X":-80.614378720000005,"Y":28.0882045,"LONGLAT":"-80.61437872,28.08820450","USNG":"17R NM 37884 07033","OWNERSHIP":null,"PARCELID":null,"FACILITY_TYPE":"HOSPITAL - TRAUMA","TTL_BEDS":514,"EFCLASS":"EFHL"}},{"type":"Feature","id":27,"geometry":{"type":"Point","coordinates":[-80.742902985798011,28.254980166453432]},"properties":{"OBJECTID":27,"HAZUSID":null,"Name":"VIERA OUTPATIENT CLIN","Address":"2900 VETERANS WAY ","City":"VIERA ","Zip":"32940","COUNTY":"BREVARD","X":-80.742902990000005,"Y":28.25498017,"LONGLAT":"-80.74290299,28.25498017","USNG":"17R NM 25218 25475","OWNERSHIP":null,"PARCELID":null,"FACILITY_TYPE":"HOSPITAL - VA","TTL_BEDS":null,"EFCLASS":"MDFLT"}},{"type":"Feature","id":28,"geometry":{"type":"Point","coordinates":[-80.605160000562577,28.216629999583866]},"properties":{"OBJECTID":28,"HAZUSID":null,"Name":"45TH MED GROUP","Address":"1381 S PATRICK DR ","City":"PATRICK AFB","Zip":"32925","COUNTY":"BREVARD","X":-80.605159999999998,"Y":28.216629999999999,"LONGLAT":"-80.60516000,28.21663000","USNG":"17R NM 38743 21263","OWNERSHIP":null,"PARCELID":null,"FACILITY_TYPE":"HOSPITAL - VA","TTL_BEDS":null,"EFCLASS":"MDFLT"}},{"type":"Feature","id":29,"geometry":{"type":"Point","coordinates":[-80.180007546190254,26.018916346504142]},"properties":{"OBJECTID":29,"HAZUSID":null,"Name":"MEMORIAL REGIONAL HOSPITAL","Address":"3501 JOHNSON ST","City":"HOLLYWOOD","Zip":"33021","COUNTY":"BROWARD","X":-80.180007549999999,"Y":26.018916350000001,"LONGLAT":"-80.18000755,26.01891635","USNG":"17R NJ 82051 78036","OWNERSHIP":null,"PARCELID":null,"FACILITY_TYPE":"HOSPITAL - TRAUMA","TTL_BEDS":777,"EFCLASS":"EFHL"}},{"type":"Feature","id":30,"geometry":{"type":"Point","coordinates":[-80.140224807304364,26.103556222711592]},"properties":{"OBJECTID":30,"HAZUSID":null,"Name":"BROWARD HEALTH MED CENT","Address":"1600 S ANDREWS AVE","City":"FORT LAUDERDALE","Zip":"33316","COUNTY":"BROWARD","X":-80.140224810000007,"Y":26.103556220000002,"LONGLAT":"-80.14022481,26.10355622","USNG":"17R NJ 85970 87435","OWNERSHIP":null,"PARCELID":null,"FACILITY_TYPE":"HOSPITAL - TRAUMA","TTL_BEDS":716,"EFCLASS":"EFHL"}},{"type":"Feature","id":31,"geometry":{"type":"Point","coordinates":[-80.122117562960426,26.27749613642645]},"properties":{"OBJECTID":31,"HAZUSID":null,"Name":"BROWARD HEALTH N","Address":"201 E SAMPLE RD","City":"POMPANO BEACH","Zip":"33064","COUNTY":"BROWARD","X":-80.122117560000007,"Y":26.27749614,"LONGLAT":"-80.12211756,26.27749614","USNG":"17R NK 87651 06712","OWNERSHIP":null,"PARCELID":null,"FACILITY_TYPE":"HOSPITAL - TRAUMA","TTL_BEDS":409,"EFCLASS":"EFHL"}},{"type":"Feature","id":32,"geometry":{"type":"Point","coordinates":[-80.254935856558717,26.212233786596549]},"properties":{"OBJECTID":32,"HAZUSID":null,"Name":"UNIVERSITY HOSPITAL AND MEDICAL CNTR","Address":"7201 N UNIVERSITY DR","City":"TAMARAC","Zip":"33321","COUNTY":"BROWARD","X":-80.254935860000003,"Y":26.212233789999999,"LONGLAT":"-80.25493586,26.21223379","USNG":"17R NJ 74431 99401","OWNERSHIP":null,"PARCELID":null,"FACILITY_TYPE":"HOSPITAL - ACUTE CARE","TTL_BEDS":317,"EFCLASS":"EFHL"}},{"type":"Feature","id":33,"geometry":{"type":"Point","coordinates":[-80.255746150108081,26.269217803205677]},"properties":{"OBJECTID":33,"HAZUSID":null,"Name":"BROWARD HEALTH CORAL SPRINGS","Address":"3000 CORAL HILLS DR","City":"CORAL SPRINGS","Zip":"33065","COUNTY":"BROWARD","X":-80.255746149999993,"Y":26.2692178,"LONGLAT":"-80.25574615,26.26921780","USNG":"17R NK 74313 05712","OWNERSHIP":null,"PARCELID":null,"FACILITY_TYPE":"HOSPITAL - ACUTE CARE","TTL_BEDS":200,"EFCLASS":"EFHL"}},{"type":"Feature","id":34,"geometry":{"type":"Point","coordinates":[-80.250705383942304,26.002829183866073]},"properties":{"OBJECTID":34,"HAZUSID":null,"Name":"SOUTH FLORIDA STATE HOSPITAL","Address":"800 E CYPRESS DR","City":"PEMBROKE PINES","Zip":"33025","COUNTY":"BROWARD","X":-80.250705379999999,"Y":26.002829179999999,"LONGLAT":"-80.25070538,26.00282918","USNG":"17R NJ 74987 76212","OWNERSHIP":null,"PARCELID":null,"FACILITY_TYPE":"HOSPITAL - ACUTE CARE","TTL_BEDS":350,"EFCLASS":"EFHL"}},{"type":"Feature","id":35,"geometry":{"type":"Point","coordinates":[-80.365354699216539,26.082247804606812]},"properties":{"OBJECTID":35,"HAZUSID":null,"Name":"CLEVELAND CLINIC HOSP","Address":"3100 WESTON RD","City":"WESTON","Zip":"33326","COUNTY":"BROWARD","X":-80.365354699999997,"Y":26.082247809999998,"LONGLAT":"-80.36535470,26.08224781","USNG":"17R NJ 63470 84946","OWNERSHIP":null,"PARCELID":null,"FACILITY_TYPE":"HOSPITAL - ACUTE CARE","TTL_BEDS":155,"EFCLASS":"EFHL"}},{"type":"Feature","id":36,"geometry":{"type":"Point","coordinates":[-80.118609487517475,26.186734589706258]},"properties":{"OBJECTID":36,"HAZUSID":null,"Name":"HOLY CROSS HOSP INC","Address":"4725 N FEDERAL HWY","City":"FORT LAUDERDALE","Zip":"33308","COUNTY":"BROWARD","X":-80.118609489999997,"Y":26.18673459,"LONGLAT":"-80.11860949,26.18673459","USNG":"17R NJ 88069 96662","OWNERSHIP":null,"PARCELID":null,"FACILITY_TYPE":"HOSPITAL - ACUTE CARE","TTL_BEDS":557,"EFCLASS":"EFHL"}},{"type":"Feature","id":37,"geometry":{"type":"Point","coordinates":[-80.202298387275604,26.263088371182619]},"properties":{"OBJECTID":37,"HAZUSID":null,"Name":"NORTHWEST MEDICAL CNTR","Address":"2801 N STATE RD 7","City":"MARGATE","Zip":"33063","COUNTY":"BROWARD","X":-80.202298389999996,"Y":26.263088369999998,"LONGLAT":"-80.20229839,26.26308837","USNG":"17R NK 79655 05065","OWNERSHIP":null,"PARCELID":null,"FACILITY_TYPE":"HOSPITAL - ACUTE CARE","TTL_BEDS":228,"EFCLASS":"EFHL"}},{"type":"Feature","id":38,"geometry":{"type":"Point","coordinates":[-80.218577364575708,26.163041062228256]},"properties":{"OBJECTID":38,"HAZUSID":null,"Name":"NORTH SHORE MED CNTR/FMC CAMPUS","Address":"5000 W OAKLAND PARK BLVD","City":"LAUDERDALE LAKES","Zip":"33313","COUNTY":"BROWARD","X":-80.218577359999998,"Y":26.163041060000001,"LONGLAT":"-80.21857736,26.16304106","USNG":"17R NJ 78096 93974","OWNERSHIP":null,"PARCELID":null,"FACILITY_TYPE":"HOSPITAL - ACUTE CARE","TTL_BEDS":459,"EFCLASS":"EFHL"}},{"type":"Feature","id":39,"geometry":{"type":"Point","coordinates":[-80.372762670251674,25.991658106078347]},"properties":{"OBJECTID":39,"HAZUSID":null,"Name":"MEMORIAL HOSPITAL MIRAMAR","Address":"1901 SW  172ND AVE","City":"MIRAMAR","Zip":"33029","COUNTY":"BROWARD","X":-80.37276267,"Y":25.991658109999999,"LONGLAT":"-80.37276267,25.99165811","USNG":"17R NJ 62777 74910","OWNERSHIP":null,"PARCELID":null,"FACILITY_TYPE":"HOSPITAL - ACUTE CARE","TTL_BEDS":178,"EFCLASS":"EFHL"}},{"type":"Feature","id":40,"geometry":{"type":"Point","coordinates":[-80.311288523471418,26.013073418700799]},"properties":{"OBJECTID":40,"HAZUSID":null,"Name":"MEMORIAL HOSPITAL WEST","Address":"703 N FLAMINGO RD","City":"PEMBROKE PINES","Zip":"33028","COUNTY":"BROWARD","X":-80.311288520000005,"Y":26.013073420000001,"LONGLAT":"-80.31128852,26.01307342","USNG":"17R NJ 68918 77313","OWNERSHIP":null,"PARCELID":null,"FACILITY_TYPE":"HOSPITAL - ACUTE CARE","TTL_BEDS":384,"EFCLASS":"EFHL"}},{"type":"Feature","id":41,"geometry":{"type":"Point","coordinates":[-80.111334320922808,26.206814225027063]},"properties":{"OBJECTID":41,"HAZUSID":null,"Name":"BROWARD HEALTH IMPERIAL POINT","Address":"6401 N FEDERAL HWY","City":"FORT LAUDERDALE","Zip":"33308","COUNTY":"BROWARD","X":-80.111334319999997,"Y":26.206814229999999,"LONGLAT":"-80.11133432,26.20681423","USNG":"17R NJ 88781 98891","OWNERSHIP":null,"PARCELID":null,"FACILITY_TYPE":"HOSPITAL - ACUTE CARE","TTL_BEDS":204,"EFCLASS":"EFHL"}},{"type":"Feature","id":42,"geometry":{"type":"Point","coordinates":[-80.118555310653036,26.184484255622053]},"properties":{"OBJECTID":42,"HAZUSID":null,"Name":"ATLANTIC SHORES HOSP","Address":"4545 N FEDERAL HWY","City":"FORT LAUDERDALE","Zip":"33308","COUNTY":"BROWARD","X":-80.118555310000005,"Y":26.184484260000001,"LONGLAT":"-80.11855531,26.18448426","USNG":"17R NJ 88076 96413","OWNERSHIP":null,"PARCELID":null,"FACILITY_TYPE":"HOSPITAL","TTL_BEDS":72,"EFCLASS":"EFHM"}},{"type":"Feature","id":43,"geometry":{"type":"Point","coordinates":[-80.180797000040016,26.020905999440341]},"properties":{"OBJECTID":43,"HAZUSID":null,"Name":"HOLLYWOOD PAVILION","Address":"1201 N 37TH AVE","City":"HOLLYWOOD","Zip":"33021","COUNTY":"BROWARD","X":-80.180796999999998,"Y":26.020906,"LONGLAT":"-80.18079700,26.02090600","USNG":"17R NJ 81971 78256","OWNERSHIP":null,"PARCELID":null,"FACILITY_TYPE":"HOSPITAL","TTL_BEDS":50,"EFCLASS":"EFHS"}},{"type":"Feature","id":44,"geometry":{"type":"Point","coordinates":[-80.127668018312534,26.11920950099103]},"properties":{"OBJECTID":44,"HAZUSID":null,"Name":"KINDRED HOSP/S FLORIDA/FT LAUD","Address":"1516 E LAS OLAS BLVD","City":"FORT LAUDERDALE","Zip":"33301","COUNTY":"BROWARD","X":-80.127668020000002,"Y":26.1192095,"LONGLAT":"-80.12766802,26.11920950","USNG":"17R NJ 87214 89177","OWNERSHIP":null,"PARCELID":null,"FACILITY_TYPE":"HOSPITAL","TTL_BEDS":70,"EFCLASS":"EFHM"}},{"type":"Feature","id":45,"geometry":{"type":"Point","coordinates":[-80.284699805993,26.177829733911622]},"properties":{"OBJECTID":45,"HAZUSID":null,"Name":"HEALTHSOUTH SUNRISE REHAB HOSP","Address":"4399 NOB HILL RD","City":"SUNRISE","Zip":"33351","COUNTY":"BROWARD","X":-80.284445030000001,"Y":26.177855139999998,"LONGLAT":"-80.28444503,26.17785514","USNG":"17R NJ 71504 95577","OWNERSHIP":null,"PARCELID":null,"FACILITY_TYPE":"HOSPITAL","TTL_BEDS":126,"EFCLASS":"EFHL"}},{"type":"Feature","id":46,"geometry":{"type":"Point","coordinates":[-80.144342999395732,26.009786687550864]},"properties":{"OBJECTID":46,"HAZUSID":null,"Name":"KINDRED HOSP/S FLORIDA/HOLLYWOOD","Address":"1859 VAN BUREN ST","City":"HOLLYWOOD","Zip":"33020","COUNTY":"BROWARD","X":-80.144343000000006,"Y":26.009786689999999,"LONGLAT":"-80.14434300,26.00978669","USNG":"17R NJ 85627 77048","OWNERSHIP":null,"PARCELID":null,"FACILITY_TYPE":"HOSPITAL","TTL_BEDS":119,"EFCLASS":"EFHL"}},{"type":"Feature","id":47,"geometry":{"type":"Point","coordinates":[-80.193496201229493,26.163704717473472]},"properties":{"OBJECTID":47,"HAZUSID":null,"Name":"ST ANTHONY'S REHABILITATION HOSPITAL","Address":"3487 NW 30TH ST","City":"LAUDERDALE LAKES","Zip":"33311","COUNTY":"BROWARD","X":-80.193496199999998,"Y":26.163704719999998,"LONGLAT":"-80.19349620,26.16370472","USNG":"17R NJ 80602 94063","OWNERSHIP":null,"PARCELID":null,"FACILITY_TYPE":"HOSPITAL","TTL_BEDS":26,"EFCLASS":"EFHS"}},{"type":"Feature","id":48,"geometry":{"type":"Point","coordinates":[-80.126746536097073,26.119658877887225]},"properties":{"OBJECTID":48,"HAZUSID":null,"Name":"FT LAUDERDALE HOSP","Address":"1601 E LAS OLAS BLVD","City":"FORT LAUDERDALE","Zip":"33301","COUNTY":"BROWARD","X":-80.126746539999999,"Y":26.119658879999999,"LONGLAT":"-80.12674654,26.11965888","USNG":"17R NJ 87306 89228","OWNERSHIP":null,"PARCELID":null,"FACILITY_TYPE":"HOSPITAL","TTL_BEDS":100,"EFCLASS":"EFHM"}},{"type":"Feature","id":49,"geometry":{"type":"Point","coordinates":[-80.24645802801102,26.029685222620287]},"properties":{"OBJECTID":49,"HAZUSID":null,"Name":"MEMORIAL HOSPITAL PEMBROKE","Address":"7800 SHERIDAN ST","City":"PEMBROKE PINES","Zip":"33024","COUNTY":"BROWARD","X":-80.246458029999999,"Y":26.029685220000001,"LONGLAT":"-80.24645803,26.02968522","USNG":"17R NJ 75395 79188","OWNERSHIP":null,"PARCELID":null,"FACILITY_TYPE":"HOSPITAL - ACUTE CARE","TTL_BEDS":301,"EFCLASS":"EFHL"}},{"type":"Feature","id":50,"geometry":{"type":"Point","coordinates":[-80.260176265455385,26.123614891649467]},"properties":{"OBJECTID":50,"HAZUSID":null,"Name":"WESTSIDE REGIONAL MEDICAL CENTER","Address":"8201 W BROWARD BLVD","City":"PLANTATION","Zip":"33324","COUNTY":"BROWARD","X":-80.260176270000002,"Y":26.123614889999999,"LONGLAT":"-80.26017627,26.12361489","USNG":"17R NJ 73963 89583","OWNERSHIP":null,"PARCELID":null,"FACILITY_TYPE":"HOSPITAL - ACUTE CARE","TTL_BEDS":224,"EFCLASS":"EFHL"}},{"type":"Feature","id":51,"geometry":{"type":"Point","coordinates":[-80.179910098688111,26.002436123903035]},"properties":{"OBJECTID":51,"HAZUSID":null,"Name":"MEMORIAL REGIONAL HOSPITAL SOUTH","Address":"3600 WASHINGTON ST","City":"HOLLYWOOD","Zip":"33021","COUNTY":"BROWARD","X":-80.179910100000001,"Y":26.002436119999999,"LONGLAT":"-80.17991010,26.00243612","USNG":"17R NJ 82072 76211","OWNERSHIP":null,"PARCELID":null,"FACILITY_TYPE":"HOSPITAL - ACUTE CARE","TTL_BEDS":267,"EFCLASS":"EFHL"}},{"type":"Feature","id":52,"geometry":{"type":"Point","coordinates":[-80.205780656521469,26.125918896933641]},"properties":{"OBJECTID":52,"HAZUSID":null,"Name":"PLANTATION GENERAL HOSPITAL","Address":"401 NW 42ND AVE","City":"PLANTATION","Zip":"33317","COUNTY":"BROWARD","X":-80.205780660000002,"Y":26.125918899999999,"LONGLAT":"-80.20578066,26.12591890","USNG":"17R NJ 79400 89871","OWNERSHIP":null,"PARCELID":null,"FACILITY_TYPE":"HOSPITAL - ACUTE CARE","TTL_BEDS":364,"EFCLASS":"EFHL"}},{"type":"Feature","id":53,"geometry":{"type":"Point","coordinates":[-85.050091105671783,30.458439034416628]},"properties":{"OBJECTID":53,"HAZUSID":null,"Name":"CALHOUN-LIBERTY HOSP","Address":"20370 NE BURNS AVE","City":"BLOUNTSTOWN","Zip":"32424","COUNTY":"CALHOUN","X":-85.050091109999997,"Y":30.458439039999998,"LONGLAT":"-85.05009111,30.45843904","USNG":"16R FU 87211 71201","OWNERSHIP":null,"PARCELID":null,"FACILITY_TYPE":"HOSPITAL - ACUTE CARE","TTL_BEDS":25,"EFCLASS":"EFHS"}},{"type":"Feature","id":54,"geometry":{"type":"Point","coordinates":[-82.098315087532129,26.988400685936039]},"properties":{"OBJECTID":54,"HAZUSID":null,"Name":"FAWCETT MEMORIAL HOSPITAL","Address":"21298 OLEAN BLVD","City":"PORT CHARLOTTE","Zip":"33952","COUNTY":"CHARLOTTE","X":-82.09831509,"Y":26.988400689999999,"LONGLAT":"-82.09831509,26.98840069","USNG":"17R LK 91015 85624","OWNERSHIP":null,"PARCELID":null,"FACILITY_TYPE":"HOSPITAL - ACUTE CARE","TTL_BEDS":237,"EFCLASS":"EFHL"}},{"type":"Feature","id":55,"geometry":{"type":"Point","coordinates":[-82.039857662450601,26.940830259389617]},"properties":{"OBJECTID":55,"HAZUSID":null,"Name":"CHARLOTTE REGIONAL MEDICAL CENTER","Address":"809 E MARION AVE","City":"PUNTA GORDA","Zip":"33950","COUNTY":"CHARLOTTE","X":-82.039857659999996,"Y":26.940830259999998,"LONGLAT":"-82.03985766,26.94083026","USNG":"17R LK 96773 80306","OWNERSHIP":null,"PARCELID":null,"FACILITY_TYPE":"HOSPITAL - ACUTE CARE","TTL_BEDS":208,"EFCLASS":"EFHL"}},{"type":"Feature","id":56,"geometry":{"type":"Point","coordinates":[-82.095752167464255,26.988943834497775]},"properties":{"OBJECTID":56,"HAZUSID":null,"Name":"PEACE RIVER REGIONAL MEDICAL CNTR","Address":"2500 HARBOR BLVD","City":"PORT CHARLOTTE","Zip":"33952","COUNTY":"CHARLOTTE","X":-82.095752169999997,"Y":26.988943840000001,"LONGLAT":"-82.09575217,26.98894384","USNG":"17R LK 91270 85682","OWNERSHIP":null,"PARCELID":null,"FACILITY_TYPE":"HOSPITAL - ACUTE CARE","TTL_BEDS":254,"EFCLASS":"EFHL"}},{"type":"Feature","id":57,"geometry":{"type":"Point","coordinates":[-82.335441649495792,28.833561993722324]},"properties":{"OBJECTID":57,"HAZUSID":null,"Name":"CITRUS MEMORIAL HOSP","Address":"502 HIGHLAND BLVD","City":"INVERNESS","Zip":"34452","COUNTY":"CITRUS","X":-82.335441650000007,"Y":28.83356199,"LONGLAT":"-82.33544165,28.83356199","USNG":"17R LM 69713 90278","OWNERSHIP":null,"PARCELID":null,"FACILITY_TYPE":"HOSPITAL - ACUTE CARE","TTL_BEDS":204,"EFCLASS":"EFHL"}},{"type":"Feature","id":58,"geometry":{"type":"Point","coordinates":[-82.624951175146137,28.951998865269665]},"properties":{"OBJECTID":58,"HAZUSID":null,"Name":"SEVEN RIVERS REGIONAL MEDICAL CNTR","Address":"6201 N SUNCOAST BLVD","City":"CRYSTAL RIVER","Zip":"34428","COUNTY":"CITRUS","X":-82.624951179999996,"Y":28.951998870000001,"LONGLAT":"-82.62495118,28.95199887","USNG":"17R LN 41645 03754","OWNERSHIP":null,"PARCELID":null,"FACILITY_TYPE":"HOSPITAL - ACUTE CARE","TTL_BEDS":128,"EFCLASS":"EFHL"}},{"type":"Feature","id":59,"geometry":{"type":"Point","coordinates":[-81.737519729961505,30.166159862740642]},"properties":{"OBJECTID":59,"HAZUSID":null,"Name":"ORANGE PARK MEDICAL CNTR","Address":"2001 KINGSLEY AVE","City":"ORANGE PARK","Zip":"32073","COUNTY":"CLAY","X":-81.737519730000002,"Y":30.16615986,"LONGLAT":"-81.73751973,30.16615986","USNG":"17R MP 28985 37427","OWNERSHIP":null,"PARCELID":null,"FACILITY_TYPE":"HOSPITAL - ACUTE CARE","TTL_BEDS":297,"EFCLASS":"EFHL"}},{"type":"Feature","id":60,"geometry":{"type":"Point","coordinates":[-81.832981223207099,30.10885498694045]},"properties":{"OBJECTID":60,"HAZUSID":null,"Name":"ST VINCENTS MEDICAL CNTR CLAY COUNTY ","Address":"1670 ST VINCENTS WAY","City":"MIDDLEBURG","Zip":"32068","COUNTY":"CLAY","X":-81.832981219999994,"Y":30.108854990000001,"LONGLAT":"-81.83298122,30.10885499","USNG":"17R MP 19747 31140","OWNERSHIP":null,"PARCELID":null,"FACILITY_TYPE":"HOSPITAL - ACUTE CARE","TTL_BEDS":null,"EFCLASS":"MDFLT"}},{"type":"Feature","id":61,"geometry":{"type":"Point","coordinates":[-81.710181884071247,30.079010603128598]},"properties":{"OBJECTID":61,"HAZUSID":null,"Name":"BAPTIST MED CENT","Address":"1771 BAPTIST CLAY DR","City":"FLEMING ISLAND","Zip":"32003","COUNTY":"CLAY","X":-81.710181879999993,"Y":30.0790106,"LONGLAT":"-81.71018188,30.07901060","USNG":"17R MP 31558 27753","OWNERSHIP":null,"PARCELID":null,"FACILITY_TYPE":"HOSPITAL","TTL_BEDS":null,"EFCLASS":"MDFLT"}},{"type":"Feature","id":62,"geometry":{"type":"Point","coordinates":[-81.682055842016226,29.987806001914905]},"properties":{"OBJECTID":62,"HAZUSID":null,"Name":"KINDRED HOSP - NORTH FLORIDA","Address":"801 OAK ST","City":"GREEN COVE SPRINGS","Zip":"32043","COUNTY":"CLAY","X":-81.682055840000004,"Y":29.987805999999999,"LONGLAT":"-81.68205584,29.98780600","USNG":"17R MP 34208 17629","OWNERSHIP":null,"PARCELID":null,"FACILITY_TYPE":"HOSPITAL","TTL_BEDS":80,"EFCLASS":"EFHM"}},{"type":"Feature","id":63,"geometry":{"type":"Point","coordinates":[-81.736332502033989,26.096016011649851]},"properties":{"OBJECTID":63,"HAZUSID":null,"Name":"WILLOUGH AT NAPLES (PRIVATE)","Address":"9001 TAMIAMI TRL E","City":"NAPLES","Zip":"34113","COUNTY":"COLLIER","X":-81.736332500000003,"Y":26.09601601,"LONGLAT":"-81.73633250,26.09601601","USNG":"17R MJ 26368 86525","OWNERSHIP":null,"PARCELID":null,"FACILITY_TYPE":"HOSPITAL","TTL_BEDS":87,"EFCLASS":"EFHM"}},{"type":"Feature","id":64,"geometry":{"type":"Point","coordinates":[-81.788647907416717,26.27445192216917]},"properties":{"OBJECTID":64,"HAZUSID":null,"Name":"NCH NORTH NAPLES HOSP","Address":"11190 HEALTH PARK BLVD","City":"NAPLES","Zip":"34110","COUNTY":"COLLIER","X":-81.788647909999995,"Y":26.274451920000001,"LONGLAT":"-81.78864791,26.27445192","USNG":"17R MK 21256 06318","OWNERSHIP":null,"PARCELID":null,"FACILITY_TYPE":"HOSPITAL - ACUTE CARE","TTL_BEDS":322,"EFCLASS":"EFHL"}},{"type":"Feature","id":65,"geometry":{"type":"Point","coordinates":[-81.788638473014004,26.270210707019086]},"properties":{"OBJECTID":65,"HAZUSID":null,"Name":"LANDMARK HOSP OF SW FL","Address":"1285 CREEKSIDE BLVD E ","City":"NAPLES ","Zip":"34109","COUNTY":"COLLIER","X":-81.788638469999995,"Y":26.270210710000001,"LONGLAT":"-81.78863847,26.27021071","USNG":"17R MK 21254 05848","OWNERSHIP":null,"PARCELID":null,"FACILITY_TYPE":"HOSPITAL - ACUTE CARE","TTL_BEDS":50,"EFCLASS":"EFHS"}},{"type":"Feature","id":66,"geometry":{"type":"Point","coordinates":[-81.732674938131495,26.213935946449421]},"properties":{"OBJECTID":66,"HAZUSID":null,"Name":"PHYSICIANS RGNL HOSPITAL/PINE RIDG","Address":"6101 PINE RIDGE RD ","City":"NAPLES","Zip":"34119","COUNTY":"COLLIER","X":-81.732674939999995,"Y":26.21393595,"LONGLAT":"-81.73267494,26.21393595","USNG":"17R MJ 26807 99582","OWNERSHIP":null,"PARCELID":null,"FACILITY_TYPE":"HOSPITAL - ACUTE CARE","TTL_BEDS":101,"EFCLASS":"EFHL"}},{"type":"Feature","id":67,"geometry":{"type":"Point","coordinates":[-81.798184498397475,26.150916825090981]},"properties":{"OBJECTID":67,"HAZUSID":null,"Name":"NAPLES COMMUNITY HOSPITAL ","Address":"350 7TH ST N","City":"NAPLES","Zip":"34102","COUNTY":"COLLIER","X":-81.798184500000005,"Y":26.15091683,"LONGLAT":"-81.79818450,26.15091683","USNG":"17R MJ 20220 92642","OWNERSHIP":null,"PARCELID":null,"FACILITY_TYPE":"HOSPITAL - ACUTE CARE","TTL_BEDS":391,"EFCLASS":"EFHL"}},{"type":"Feature","id":68,"geometry":{"type":"Point","coordinates":[-81.684758527192187,26.105637291435578]},"properties":{"OBJECTID":68,"HAZUSID":null,"Name":"PHYSICIANS RGNL HOSPITAL/ COLLIER BLVD","Address":"8300 COLLIER BLVD","City":"NAPLES","Zip":"34114","COUNTY":"COLLIER","X":-81.684758529999996,"Y":26.105637290000001,"LONGLAT":"-81.68475853,26.10563729","USNG":"17R MJ 31531 87562","OWNERSHIP":null,"PARCELID":null,"FACILITY_TYPE":"HOSPITAL - ACUTE CARE","TTL_BEDS":100,"EFCLASS":"EFHM"}},{"type":"Feature","id":69,"geometry":{"type":"Point","coordinates":[-82.63271100002197,30.193452999616571]},"properties":{"OBJECTID":69,"HAZUSID":null,"Name":"SHANDS LAKE SHORE RGNL MED CNTR","Address":"368 NE FRANKLIN ST","City":"LAKE CITY","Zip":"32055","COUNTY":"COLUMBIA","X":-82.632711,"Y":30.193453000000002,"LONGLAT":"-82.63271100,30.19345300","USNG":"17R LP 42824 41348","OWNERSHIP":null,"PARCELID":null,"FACILITY_TYPE":"HOSPITAL - ACUTE CARE","TTL_BEDS":99,"EFCLASS":"EFHM"}},{"type":"Feature","id":70,"geometry":{"type":"Point","coordinates":[-82.687399892934124,30.183918675775356]},"properties":{"OBJECTID":70,"HAZUSID":null,"Name":"LAKE CITY MED CNTR","Address":"340 NW COMMERCE DR","City":"LAKE CITY","Zip":"32055","COUNTY":"COLUMBIA","X":-82.687399889999995,"Y":30.183918680000001,"LONGLAT":"-82.68739989,30.18391868","USNG":"17R LP 37543 40368","OWNERSHIP":null,"PARCELID":null,"FACILITY_TYPE":"HOSPITAL - ACUTE CARE","TTL_BEDS":91,"EFCLASS":"EFHM"}},{"type":"Feature","id":71,"geometry":{"type":"Point","coordinates":[-82.636889999733299,30.181835999081621]},"properties":{"OBJECTID":71,"HAZUSID":null,"Name":"LAKE CITY VA MEDICAL CNTR","Address":"619 S. MARION AVE ","City":"LAKE CITY ","Zip":"32025","COUNTY":"COLUMBIA","X":-82.636889999999994,"Y":30.181836000000001,"LONGLAT":"-82.63689000,30.18183600","USNG":"17R LP 42403 40066","OWNERSHIP":null,"PARCELID":null,"FACILITY_TYPE":"HOSPITAL - VA","TTL_BEDS":47,"EFCLASS":"EFHS"}},{"type":"Feature","id":72,"geometry":{"type":"Point","coordinates":[-81.851066765040216,27.227408854240377]},"properties":{"OBJECTID":72,"HAZUSID":null,"Name":"DESOTO MEMORIAL HOSP","Address":"900 N ROBERT AVE","City":"ARCADIA","Zip":"34266","COUNTY":"DESOTO","X":-81.851066770000003,"Y":27.227408860000001,"LONGLAT":"-81.85106677,27.22740886","USNG":"17R ML 15729 11909","OWNERSHIP":null,"PARCELID":null,"FACILITY_TYPE":"HOSPITAL - ACUTE CARE","TTL_BEDS":49,"EFCLASS":"EFHS"}},{"type":"Feature","id":73,"geometry":{"type":"Point","coordinates":[-81.601028140172261,30.287893475518381]},"properties":{"OBJECTID":73,"HAZUSID":null,"Name":"MEMORIAL HOSP JACKSONVILLE","Address":"3625 UNIVERSITY BLVD S","City":"JACKSONVILLE","Zip":"32216","COUNTY":"DUVAL","X":-81.601028139999997,"Y":30.287893480000001,"LONGLAT":"-81.60102814,30.28789348","USNG":"17R MP 42199 50839","OWNERSHIP":null,"PARCELID":null,"FACILITY_TYPE":"HOSPITAL - ACUTE CARE","TTL_BEDS":418,"EFCLASS":"EFHL"}},{"type":"Feature","id":74,"geometry":{"type":"Point","coordinates":[-81.440513496253615,30.264878095216559]},"properties":{"OBJECTID":74,"HAZUSID":null,"Name":"MAYO CLINIC","Address":"4500 SAN PABLO RD","City":"JACKSONVILLE","Zip":"32224","COUNTY":"DUVAL","X":-81.440513499999994,"Y":30.264878100000001,"LONGLAT":"-81.44051350,30.26487810","USNG":"17R MP 57626 48218","OWNERSHIP":null,"PARCELID":null,"FACILITY_TYPE":"HOSPITAL - ACUTE CARE","TTL_BEDS":304,"EFCLASS":"EFHL"}},{"type":"Feature","id":75,"geometry":{"type":"Point","coordinates":[-81.690021084756992,30.307844494897715]},"properties":{"OBJECTID":75,"HAZUSID":null,"Name":"SAINT VINCENT'S MED CNTR RIVERSIDE","Address":"1 SHIRCLIFF WAY","City":"JACKSONVILLE","Zip":"32204","COUNTY":"DUVAL","X":-81.690021079999994,"Y":30.307844500000002,"LONGLAT":"-81.69002108,30.30784450","USNG":"17R MP 33654 53099","OWNERSHIP":null,"PARCELID":null,"FACILITY_TYPE":"HOSPITAL - ACUTE CARE","TTL_BEDS":528,"EFCLASS":"EFHL"}},{"type":"Feature","id":76,"geometry":{"type":"Point","coordinates":[-81.664722023878696,30.315615160740869]},"properties":{"OBJECTID":76,"HAZUSID":null,"Name":"BAPTIST MED CENT JAXS ","Address":"800 PRUDENTIAL DR","City":"JACKSONVILLE","Zip":"32207","COUNTY":"DUVAL","X":-81.664722019999999,"Y":30.31561516,"LONGLAT":"-81.66472202,30.31561516","USNG":"17R MP 36092 53946","OWNERSHIP":null,"PARCELID":null,"FACILITY_TYPE":"HOSPITAL - ACUTE CARE","TTL_BEDS":619,"EFCLASS":"EFHL"}},{"type":"Feature","id":77,"geometry":{"type":"Point","coordinates":[-81.535034818467253,30.13924705203948]},"properties":{"OBJECTID":77,"HAZUSID":null,"Name":"BAPTIST MED CENT S","Address":"14550 OLD ST AUGUSTINE ","City":"JACKSONVILLE","Zip":"32258","COUNTY":"DUVAL","X":-81.535034820000007,"Y":30.139247050000002,"LONGLAT":"-81.53503482,30.13924705","USNG":"17R MP 48468 34336","OWNERSHIP":null,"PARCELID":null,"FACILITY_TYPE":"HOSPITAL - ACUTE CARE","TTL_BEDS":269,"EFCLASS":"EFHL"}},{"type":"Feature","id":78,"geometry":{"type":"Point","coordinates":[-81.398204174694385,30.273312004207256]},"properties":{"OBJECTID":78,"HAZUSID":null,"Name":"BAPTIST MED CENT BEACHES","Address":"1350 13TH AVE S","City":"JACKSONVILLE BEACH","Zip":"32250","COUNTY":"DUVAL","X":-81.39820417,"Y":30.273312010000001,"LONGLAT":"-81.39820417,30.27331201","USNG":"17R MP 61699 49138","OWNERSHIP":null,"PARCELID":null,"FACILITY_TYPE":"HOSPITAL - ACUTE CARE","TTL_BEDS":146,"EFCLASS":"EFHL"}},{"type":"Feature","id":79,"geometry":{"type":"Point","coordinates":[-81.582870489121731,30.25387323956771]},"properties":{"OBJECTID":79,"HAZUSID":null,"Name":"ST VINCENT'S MEDICAL CNTR SOUTHSIDE","Address":"4201 BELFORT RD","City":"JACKSONVILLE","Zip":"32216","COUNTY":"DUVAL","X":-81.582870490000005,"Y":30.253873240000001,"LONGLAT":"-81.58287049,30.25387324","USNG":"17R MP 43926 47060","OWNERSHIP":null,"PARCELID":null,"FACILITY_TYPE":"HOSPITAL - ACUTE CARE","TTL_BEDS":311,"EFCLASS":"EFHL"}},{"type":"Feature","id":80,"geometry":{"type":"Point","coordinates":[-81.621815834500609,30.262454530768622]},"properties":{"OBJECTID":80,"HAZUSID":null,"Name":"LAKEWOOD ACUTE CARE CENTER","Address":"5978 POWERS AVENUE","City":"JACKSONVILLE","Zip":"32217","COUNTY":"DUVAL","X":-81.621815830000003,"Y":30.262454529999999,"LONGLAT":"-81.62181583,30.26245453","USNG":"17R MP 40185 48031","OWNERSHIP":null,"PARCELID":null,"FACILITY_TYPE":"HOSPITAL - ACUTE CARE","TTL_BEDS":null,"EFCLASS":"MDFLT"}},{"type":"Feature","id":81,"geometry":{"type":"Point","coordinates":[-81.663430431260068,30.347089408320574]},"properties":{"OBJECTID":81,"HAZUSID":null,"Name":"TRAUMA ONE AT SHANDS JACKSONVILLE","Address":"655 W 8TH ST","City":"JACKSONVILLE","Zip":"32209","COUNTY":"DUVAL","X":-81.663430430000005,"Y":30.347089409999999,"LONGLAT":"-81.66343043,30.34708941","USNG":"17R MP 36236 57433","OWNERSHIP":null,"PARCELID":null,"FACILITY_TYPE":"HOSPITAL - ACUTE CARE","TTL_BEDS":null,"EFCLASS":"MDFLT"}},{"type":"Feature","id":82,"geometry":{"type":"Point","coordinates":[-81.601171030184958,30.290254195379703]},"properties":{"OBJECTID":82,"HAZUSID":null,"Name":"BROOKS REHABILITATION HOSP","Address":"3599 UNIVERSITY BLVD S","City":"JACKSONVILLE","Zip":"32216","COUNTY":"DUVAL","X":-81.601171030000003,"Y":30.2902542,"LONGLAT":"-81.60117103,30.29025420","USNG":"17R MP 42187 51101","OWNERSHIP":null,"PARCELID":null,"FACILITY_TYPE":"HOSPITAL","TTL_BEDS":160,"EFCLASS":"EFHL"}},{"type":"Feature","id":83,"geometry":{"type":"Point","coordinates":[-81.61541819571525,30.271596490298357]},"properties":{"OBJECTID":83,"HAZUSID":null,"Name":"SPECIALTY HOSPITAL JACKSONVILLE","Address":"4901 RICHARD ST","City":"JACKSONVILLE","Zip":"32207","COUNTY":"DUVAL","X":-81.615418199999993,"Y":30.27159649,"LONGLAT":"-81.61541820,30.27159649","USNG":"17R MP 40806 49041","OWNERSHIP":null,"PARCELID":null,"FACILITY_TYPE":"HOSPITAL","TTL_BEDS":107,"EFCLASS":"EFHL"}},{"type":"Feature","id":84,"geometry":{"type":"Point","coordinates":[-81.597335474903574,30.290162923851891]},"properties":{"OBJECTID":84,"HAZUSID":null,"Name":"RIVER POINT BEHAVIORAL HEALTH","Address":"6300 BEACH BLVD","City":"JACKSONVILLE","Zip":"32216","COUNTY":"DUVAL","X":-81.597335470000004,"Y":30.29016292,"LONGLAT":"-81.59733547,30.29016292","USNG":"17R MP 42556 51089","OWNERSHIP":null,"PARCELID":null,"FACILITY_TYPE":"HOSPITAL","TTL_BEDS":84,"EFCLASS":"EFHM"}},{"type":"Feature","id":85,"geometry":{"type":"Point","coordinates":[-81.661973492904067,30.344527919977509]},"properties":{"OBJECTID":85,"HAZUSID":null,"Name":"DUVAL COUNTY HEALTH DEPT CENTER FOR WOME","Address":"515 W 6TH STREET","City":"JACKSONVILLE","Zip":"32206","COUNTY":"DUVAL","X":-81.661973489999994,"Y":30.344527920000001,"LONGLAT":"-81.66197349,30.34452792","USNG":"17R MP 36375 57148","OWNERSHIP":null,"PARCELID":null,"FACILITY_TYPE":"HOSPITAL","TTL_BEDS":null,"EFCLASS":"MDFLT"}},{"type":"Feature","id":86,"geometry":{"type":"Point","coordinates":[-81.594038152388677,30.257384955961829]},"properties":{"OBJECTID":86,"HAZUSID":null,"Name":"WEKIVA SPRINGS","Address":"3947 SALISBURY RD","City":"JACKSONVILLE","Zip":"32216","COUNTY":"DUVAL","X":-81.594038150000003,"Y":30.25738496,"LONGLAT":"-81.59403815,30.25738496","USNG":"17R MP 42854 47455","OWNERSHIP":null,"PARCELID":null,"FACILITY_TYPE":"HOSPITAL","TTL_BEDS":120,"EFCLASS":"EFHL"}},{"type":"Feature","id":87,"geometry":{"type":"Point","coordinates":[-81.661589254818651,30.347501113282068]},"properties":{"OBJECTID":87,"HAZUSID":null,"Name":"SHANDS JACKSONVILLE MEDICAL CNTR","Address":"655 W 8TH ST","City":"JACKSONVILLE","Zip":"32209","COUNTY":"DUVAL","X":-81.661589250000006,"Y":30.34750111,"LONGLAT":"-81.66158925,30.34750111","USNG":"17R MP 36414 57477","OWNERSHIP":null,"PARCELID":null,"FACILITY_TYPE":"HOSPITAL - TRAUMA","TTL_BEDS":695,"EFCLASS":"EFHL"}},{"type":"Feature","id":88,"geometry":{"type":"Point","coordinates":[-81.664388015860339,30.348129987918515]},"properties":{"OBJECTID":88,"HAZUSID":null,"Name":"UF HEALTH JAXS ","Address":"655 W 8TH ST","City":"JACKSONVILLE","Zip":"32209","COUNTY":"DUVAL","X":-81.664388020000004,"Y":30.34812999,"LONGLAT":"-81.66438802,30.34812999","USNG":"17R MP 36145 57549","OWNERSHIP":null,"PARCELID":null,"FACILITY_TYPE":"HOSPITAL - TRAUMA","TTL_BEDS":695,"EFCLASS":"EFHL"}},{"type":"Feature","id":89,"geometry":{"type":"Point","coordinates":[-87.211518134747251,30.475699375900334]},"properties":{"OBJECTID":89,"HAZUSID":null,"Name":"SACRED HEART HOSPITAL","Address":"5151 N 9TH AVE","City":"PENSACOLA","Zip":"32504","COUNTY":"ESCAMBIA","X":-87.211518130000002,"Y":30.475699379999998,"LONGLAT":"-87.21151813,30.47569938","USNG":"16R DU 79697 71517","OWNERSHIP":null,"PARCELID":null,"FACILITY_TYPE":"HOSPITAL - TRAUMA","TTL_BEDS":566,"EFCLASS":"EFHL"}},{"type":"Feature","id":90,"geometry":{"type":"Point","coordinates":[-87.292520000031118,30.398789998626778]},"properties":{"OBJECTID":90,"HAZUSID":null,"Name":"GULF COAST VET HEATLTH SYSTEM ","Address":"790 VETERANS WAY","City":"PENSACOLA ","Zip":"32507","COUNTY":"ESCAMBIA","X":-87.292519999999996,"Y":30.398790000000002,"LONGLAT":"-87.29252000,30.39879000","USNG":"16R DU 71900 63012","OWNERSHIP":null,"PARCELID":null,"FACILITY_TYPE":"HOSPITAL - VA","TTL_BEDS":null,"EFCLASS":"MDFLT"}},{"type":"Feature","id":91,"geometry":{"type":"Point","coordinates":[-87.23119083945501,30.428897718859993]},"properties":{"OBJECTID":91,"HAZUSID":null,"Name":"BAPTIST HOSP INC","Address":"1000 W MORENO ST","City":"PENSACOLA","Zip":"32501","COUNTY":"ESCAMBIA","X":-87.231190839999996,"Y":30.428897719999998,"LONGLAT":"-87.23119084,30.42889772","USNG":"16R DU 77798 66334","OWNERSHIP":null,"PARCELID":null,"FACILITY_TYPE":"HOSPITAL - TRAUMA","TTL_BEDS":492,"EFCLASS":"EFHL"}},{"type":"Feature","id":92,"geometry":{"type":"Point","coordinates":[-87.297500000009862,30.398499999132714]},"properties":{"OBJECTID":92,"HAZUSID":null,"Name":"NAVAL HOSP PENSACOLA ","Address":"6000 W HWY 98","City":"PENSACOLA ","Zip":"32512","COUNTY":"ESCAMBIA","X":-87.297499999999999,"Y":30.398499999999999,"LONGLAT":"-87.29750000,30.39850000","USNG":"16R DU 71422 62981","OWNERSHIP":null,"PARCELID":null,"FACILITY_TYPE":"HOSPITAL - VA","TTL_BEDS":null,"EFCLASS":"MDFLT"}},{"type":"Feature","id":93,"geometry":{"type":"Point","coordinates":[-87.215780297325352,30.478794432459374]},"properties":{"OBJECTID":93,"HAZUSID":null,"Name":"SELECT SPECIALTY HOSPITAL - PENSACOLA","Address":"7000 COBBLE CREEK DR","City":"PENSACOLA","Zip":"32504","COUNTY":"ESCAMBIA","X":-87.215780300000006,"Y":30.478794430000001,"LONGLAT":"-87.21578030,30.47879443","USNG":"16R DU 79289 71861","OWNERSHIP":null,"PARCELID":null,"FACILITY_TYPE":"HOSPITAL","TTL_BEDS":75,"EFCLASS":"EFHM"}},{"type":"Feature","id":94,"geometry":{"type":"Point","coordinates":[-87.217505210417841,30.515489190488431]},"properties":{"OBJECTID":94,"HAZUSID":null,"Name":"WEST FLORIDA HOSPITAL","Address":"8383 N DAVIS HWY","City":"PENSACOLA","Zip":"32514","COUNTY":"ESCAMBIA","X":-87.217505209999999,"Y":30.51548919,"LONGLAT":"-87.21750521,30.51548919","USNG":"16R DU 79131 75928","OWNERSHIP":null,"PARCELID":null,"FACILITY_TYPE":"HOSPITAL - ACUTE CARE","TTL_BEDS":515,"EFCLASS":"EFHL"}},{"type":"Feature","id":95,"geometry":{"type":"Point","coordinates":[-81.189900591457629,29.478989567684199]},"properties":{"OBJECTID":95,"HAZUSID":null,"Name":"FL HOSP FLAGLER","Address":"60 MEMORIAL MEDICAL PKWY","City":"PALM COAST","Zip":"32164","COUNTY":"FLAGLER","X":-81.189900589999993,"Y":29.47898957,"LONGLAT":"-81.18990059,29.47898957","USNG":"17R MN 81589 61070","OWNERSHIP":null,"PARCELID":null,"FACILITY_TYPE":"HOSPITAL - ACUTE CARE","TTL_BEDS":99,"EFCLASS":"EFHM"}},{"type":"Feature","id":96,"geometry":{"type":"Point","coordinates":[-84.992643226735012,29.724512716108769]},"properties":{"OBJECTID":96,"HAZUSID":null,"Name":"GEORGE E WEEMS MEMORIAL HOSP","Address":"135 AVENUE G","City":"APALACHICOLA","Zip":"32320","COUNTY":"FRANKLIN","X":-84.992643229999999,"Y":29.72451272,"LONGLAT":"-84.99264323,29.72451272","USNG":"16R FT 94157 89946","OWNERSHIP":null,"PARCELID":null,"FACILITY_TYPE":"HOSPITAL - ACUTE CARE","TTL_BEDS":25,"EFCLASS":"EFHS"}},{"type":"Feature","id":97,"geometry":{"type":"Point","coordinates":[-84.838571114948394,30.707453106145966]},"properties":{"OBJECTID":97,"HAZUSID":null,"Name":"FL ST HOSP","Address":"100 N MAIN ST","City":"CHATTAHOOCHEE","Zip":"32324","COUNTY":"GADSDEN","X":-84.838571110000004,"Y":30.707453109999999,"LONGLAT":"-84.83857111,30.70745311","USNG":"16R GU 06994 99175","OWNERSHIP":null,"PARCELID":null,"FACILITY_TYPE":"HOSPITAL","TTL_BEDS":1230,"EFCLASS":"EFHL"}},{"type":"Feature","id":98,"geometry":{"type":"Point","coordinates":[-84.5486186418795,30.568993514686092]},"properties":{"OBJECTID":98,"HAZUSID":null,"Name":"CAPITAL REGIONAL MED CENT/GADSDEN","Address":"23186 BLUE STAR HWY ","City":"QUINCY","Zip":"32353","COUNTY":"GADSDEN","X":-84.548618640000001,"Y":30.568993519999999,"LONGLAT":"-84.54861864,30.56899352","USNG":"16R GU 35104 84396","OWNERSHIP":null,"PARCELID":null,"FACILITY_TYPE":"HOSPITAL - ACUTE CARE","TTL_BEDS":4,"EFCLASS":"EFHS"}},{"type":"Feature","id":99,"geometry":{"type":"Point","coordinates":[-82.818833132498057,29.60753993434518]},"properties":{"OBJECTID":99,"HAZUSID":null,"Name":"TRENTON MEDICAL CENTER (PRIVATE)","Address":"911 S MAIN ST","City":"TRENTON","Zip":"32693","COUNTY":"GILCHRIST","X":-82.818833130000002,"Y":29.607539939999999,"LONGLAT":"-82.81883313,29.60753994","USNG":"17R LN 23876 76680","OWNERSHIP":null,"PARCELID":null,"FACILITY_TYPE":"HOSPITAL","TTL_BEDS":null,"EFCLASS":"MDFLT"}},{"type":"Feature","id":100,"geometry":{"type":"Point","coordinates":[-85.287982854982459,29.778915291243596]},"properties":{"OBJECTID":100,"HAZUSID":null,"Name":"SACRED HEART HOSPITAL ON THE GULF","Address":"3801 E HWY 98","City":"PORT SAINT JOE","Zip":"32456","COUNTY":"GULF","X":-85.287982850000006,"Y":29.77891529,"LONGLAT":"-85.28798285,29.77891529","USNG":"16R FT 65497 95516","OWNERSHIP":null,"PARCELID":null,"FACILITY_TYPE":"HOSPITAL - ACUTE CARE","TTL_BEDS":19,"EFCLASS":"EFHS"}},{"type":"Feature","id":101,"geometry":{"type":"Point","coordinates":[-81.816905274539394,27.535632133507406]},"properties":{"OBJECTID":101,"HAZUSID":null,"Name":"FL HOSP WAUCHULA","Address":"533 W CARLTON ST","City":"WAUCHULA","Zip":"33873","COUNTY":"HARDEE","X":-81.816905270000007,"Y":27.53563213,"LONGLAT":"-81.81690527,27.53563213","USNG":"17R ML 19336 46029","OWNERSHIP":null,"PARCELID":null,"FACILITY_TYPE":"HOSPITAL - ACUTE CARE","TTL_BEDS":25,"EFCLASS":"EFHS"}},{"type":"Feature","id":102,"geometry":{"type":"Point","coordinates":[-80.941249227149342,26.752817613568368]},"properties":{"OBJECTID":102,"HAZUSID":null,"Name":"HENDRY REGION MED CNTR","Address":"524 W SAGAMORE AVE","City":"CLEWISTON","Zip":"33440","COUNTY":"HENDRY","X":-80.941249229999997,"Y":26.752817610000001,"LONGLAT":"-80.94124923,26.75281761","USNG":"17R NK 05841 59059","OWNERSHIP":null,"PARCELID":null,"FACILITY_TYPE":"HOSPITAL - ACUTE CARE","TTL_BEDS":25,"EFCLASS":"EFHS"}},{"type":"Feature","id":103,"geometry":{"type":"Point","coordinates":[-82.540364545483357,28.437474639006346]},"properties":{"OBJECTID":103,"HAZUSID":null,"Name":"SPRING HILL REGIONAL HOSP","Address":"10461 QUALITY DR ","City":"SPRING HILL","Zip":"34609","COUNTY":"HERNANDO","X":-82.540364550000007,"Y":28.437474640000001,"LONGLAT":"-82.54036455,28.43747464","USNG":"17R LM 49153 46630","OWNERSHIP":null,"PARCELID":null,"FACILITY_TYPE":"HOSPITAL - ACUTE CARE","TTL_BEDS":124,"EFCLASS":"EFHL"}},{"type":"Feature","id":104,"geometry":{"type":"Point","coordinates":[-82.484219129170555,28.532772526493044]},"properties":{"OBJECTID":104,"HAZUSID":null,"Name":"SPRINGBROOK HOSPITAL ","Address":"7007 GROVE RD ","City":"BROOKSVILLE","Zip":"34609","COUNTY":"HERNANDO","X":-82.48421913,"Y":28.532772529999999,"LONGLAT":"-82.48421913,28.53277253","USNG":"17R LM 54782 57121","OWNERSHIP":null,"PARCELID":null,"FACILITY_TYPE":"HOSPITAL","TTL_BEDS":66,"EFCLASS":"EFHM"}},{"type":"Feature","id":105,"geometry":{"type":"Point","coordinates":[-82.534059609900012,28.536621234398869]},"properties":{"OBJECTID":105,"HAZUSID":null,"Name":"OAK HILL HOSP","Address":"11375 CORTEZ BLVD","City":"BROOKSVILLE","Zip":"34613","COUNTY":"HERNANDO","X":-82.53405961,"Y":28.536621239999999,"LONGLAT":"-82.53405961,28.53662124","USNG":"17R LM 49911 57608","OWNERSHIP":null,"PARCELID":null,"FACILITY_TYPE":"HOSPITAL - ACUTE CARE","TTL_BEDS":262,"EFCLASS":"EFHL"}},{"type":"Feature","id":106,"geometry":{"type":"Point","coordinates":[-82.442827590410189,28.538601235345329]},"properties":{"OBJECTID":106,"HAZUSID":null,"Name":"BAYFRNT HLTH BROOKSVILLE","Address":"17240 CORTEZ BLVD","City":"BROOKSVILLE","Zip":"34601","COUNTY":"HERNANDO","X":-82.442827589999993,"Y":28.538601239999998,"LONGLAT":"-82.44282759,28.53860124","USNG":"17R LM 58840 57717","OWNERSHIP":null,"PARCELID":null,"FACILITY_TYPE":"HOSPITAL - ACUTE CARE","TTL_BEDS":120,"EFCLASS":"EFHL"}},{"type":"Feature","id":107,"geometry":{"type":"Point","coordinates":[-81.433381560654595,27.465692118654569]},"properties":{"OBJECTID":107,"HAZUSID":null,"Name":"HIGHLANDS REGIONAL MEDICAL CNTR","Address":"3600 S HIGHLANDS AVE","City":"SEBRING","Zip":"33870","COUNTY":"HIGHLANDS","X":-81.433381560000001,"Y":27.46569212,"LONGLAT":"-81.43338156,27.46569212","USNG":"17R ML 57180 38091","OWNERSHIP":null,"PARCELID":null,"FACILITY_TYPE":"HOSPITAL - ACUTE CARE","TTL_BEDS":126,"EFCLASS":"EFHL"}},{"type":"Feature","id":108,"geometry":{"type":"Point","coordinates":[-81.505942000628536,27.539058999385084]},"properties":{"OBJECTID":108,"HAZUSID":null,"Name":"FL HOSP HEARTLAND MED. CENT","Address":"4200 SUN N LAKE BLVD","City":"SEBRING","Zip":"33872","COUNTY":"HIGHLANDS","X":-81.505942000000005,"Y":27.539059000000002,"LONGLAT":"-81.50594200,27.53905900","USNG":"17R ML 50044 46245","OWNERSHIP":null,"PARCELID":null,"FACILITY_TYPE":"HOSPITAL - ACUTE CARE","TTL_BEDS":147,"EFCLASS":"EFHL"}},{"type":"Feature","id":109,"geometry":{"type":"Point","coordinates":[-81.369802132747893,27.320555975579563]},"properties":{"OBJECTID":109,"HAZUSID":null,"Name":"FL HOSP HEARTLAND MEDI CNTR LAKE PLACID","Address":"1210 US 27 N","City":"LAKE PLACID","Zip":"33852","COUNTY":"HIGHLANDS","X":-81.369802129999997,"Y":27.320555980000002,"LONGLAT":"-81.36980213,27.32055598","USNG":"17R ML 63414 21994","OWNERSHIP":null,"PARCELID":null,"FACILITY_TYPE":"HOSPITAL - ACUTE CARE","TTL_BEDS":50,"EFCLASS":"EFHS"}},{"type":"Feature","id":110,"geometry":{"type":"Point","coordinates":[-82.574196703468644,28.002500975483564]},"properties":{"OBJECTID":110,"HAZUSID":null,"Name":"TAMPA COMMUNITY HOSP","Address":"6001 WEBB RD","City":"TAMPA","Zip":"33615","COUNTY":"HILLSBOROUGH","X":-82.574196700000002,"Y":28.002500980000001,"LONGLAT":"-82.57419670,28.00250098","USNG":"17R LL 45213 98477","OWNERSHIP":null,"PARCELID":null,"FACILITY_TYPE":"HOSPITAL - ACUTE CARE","TTL_BEDS":201,"EFCLASS":"EFHL"}},{"type":"Feature","id":111,"geometry":{"type":"Point","coordinates":[-82.422835895447392,28.061530237966739]},"properties":{"OBJECTID":111,"HAZUSID":null,"Name":"SHRINER'S HOSPITAL FOR CHILDREN/TAMPA","Address":"12502 N PINE DR","City":"TAMPA","Zip":"33612","COUNTY":"HILLSBOROUGH","X":-82.422835899999995,"Y":28.06153024,"LONGLAT":"-82.42283590,28.06153024","USNG":"17R LM 60174 04835","OWNERSHIP":null,"PARCELID":null,"FACILITY_TYPE":"HOSPITAL - PEDIATRIC","TTL_BEDS":60,"EFCLASS":"EFHM"}},{"type":"Feature","id":112,"geometry":{"type":"Point","coordinates":[-82.509681169742763,28.129597927145127]},"properties":{"OBJECTID":112,"HAZUSID":null,"Name":"ST JOSEPHS HOSPITAL - NORTH","Address":"4211 VAN DYKE RD","City":"LUTZ","Zip":"33558","COUNTY":"HILLSBOROUGH","X":-82.509681169999993,"Y":28.129597929999999,"LONGLAT":"-82.50968117,28.12959793","USNG":"17R LM 51732 12479","OWNERSHIP":null,"PARCELID":null,"FACILITY_TYPE":"HOSPITAL - ACUTE CARE","TTL_BEDS":76,"EFCLASS":"EFHM"}},{"type":"Feature","id":113,"geometry":{"type":"Point","coordinates":[-82.421356168347288,28.06410495305801]},"properties":{"OBJECTID":113,"HAZUSID":null,"Name":"LEE MOFFITT CANCER CNTR & RESEARCH INST","Address":"12902 MAGNOLIA DR","City":"TAMPA","Zip":"33612","COUNTY":"HILLSBOROUGH","X":-82.421356169999996,"Y":28.064104950000001,"LONGLAT":"-82.42135617,28.06410495","USNG":"17R LM 60323 05118","OWNERSHIP":null,"PARCELID":null,"FACILITY_TYPE":"HOSPITAL - ACUTE CARE","TTL_BEDS":206,"EFCLASS":"EFHL"}},{"type":"Feature","id":114,"geometry":{"type":"Point","coordinates":[-82.365292205477957,27.713499069411345]},"properties":{"OBJECTID":114,"HAZUSID":null,"Name":"SOUTH BAY HOSPITAL","Address":"4016 SUN CITY CENTER BLVD","City":"SUN CITY CENTER","Zip":"33573","COUNTY":"HILLSBOROUGH","X":-82.365292210000007,"Y":27.713499070000001,"LONGLAT":"-82.36529221,27.71349907","USNG":"17R LL 65400 66211","OWNERSHIP":null,"PARCELID":null,"FACILITY_TYPE":"HOSPITAL - ACUTE CARE","TTL_BEDS":112,"EFCLASS":"EFHL"}},{"type":"Feature","id":115,"geometry":{"type":"Point","coordinates":[-82.489705893709058,27.937916124232714]},"properties":{"OBJECTID":115,"HAZUSID":null,"Name":"MEMORIAL HOSPITAL OF TAMPA","Address":"2901 SWANN AVE","City":"TAMPA","Zip":"33609","COUNTY":"HILLSBOROUGH","X":-82.489705889999996,"Y":27.937916130000001,"LONGLAT":"-82.48970589,27.93791613","USNG":"17R LL 53435 91217","OWNERSHIP":null,"PARCELID":null,"FACILITY_TYPE":"HOSPITAL - ACUTE CARE","TTL_BEDS":183,"EFCLASS":"EFHL"}},{"type":"Feature","id":116,"geometry":{"type":"Point","coordinates":[-82.287746269349469,27.932811379264507]},"properties":{"OBJECTID":116,"HAZUSID":null,"Name":"BRANDON REG HOSP","Address":"119 OAKFIELD DR","City":"BRANDON","Zip":"33511","COUNTY":"HILLSBOROUGH","X":-82.28774627,"Y":27.93281138,"LONGLAT":"-82.28774627,27.93281138","USNG":"17R LL 73301 90426","OWNERSHIP":null,"PARCELID":null,"FACILITY_TYPE":"HOSPITAL - ACUTE CARE","TTL_BEDS":422,"EFCLASS":"EFHL"}},{"type":"Feature","id":117,"geometry":{"type":"Point","coordinates":[-82.518859999879837,27.898059998674007]},"properties":{"OBJECTID":117,"HAZUSID":null,"Name":"KINDRED HOSP - BAY AREA TAMPA","Address":"4555 S MANHATTAN AVE","City":"TAMPA","Zip":"33611","COUNTY":"HILLSBOROUGH","X":-82.518860000000004,"Y":27.898060000000001,"LONGLAT":"-82.51886000,27.89806000","USNG":"17R LL 50511 86837","OWNERSHIP":null,"PARCELID":null,"FACILITY_TYPE":"HOSPITAL","TTL_BEDS":73,"EFCLASS":"EFHM"}},{"type":"Feature","id":118,"geometry":{"type":"Point","coordinates":[-82.489279999958313,27.992079999079415]},"properties":{"OBJECTID":118,"HAZUSID":null,"Name":"ST JOSEPHS HOSP BEHAV CNTR ","Address":"4918 HABANA AVE","City":"TAMPA","Zip":"33607","COUNTY":"HILLSBOROUGH","X":-82.489279999999994,"Y":27.992080000000001,"LONGLAT":"-82.48928000,27.99208000","USNG":"17R LL 53550 97218","OWNERSHIP":null,"PARCELID":null,"FACILITY_TYPE":"HOSPITAL","TTL_BEDS":60,"EFCLASS":"EFHM"}},{"type":"Feature","id":119,"geometry":{"type":"Point","coordinates":[-82.139052997431463,28.015534095236454]},"properties":{"OBJECTID":119,"HAZUSID":null,"Name":"SOUTH FLORIDA BAPTIST HOSP","Address":"301 N ALEXANDER ST","City":"PLANT CITY","Zip":"33563","COUNTY":"HILLSBOROUGH","X":-82.139053000000004,"Y":28.0155341,"LONGLAT":"-82.13905300,28.01553410","USNG":"17R LL 88017 99446","OWNERSHIP":null,"PARCELID":null,"FACILITY_TYPE":"HOSPITAL - ACUTE CARE","TTL_BEDS":147,"EFCLASS":"EFHL"}},{"type":"Feature","id":120,"geometry":{"type":"Point","coordinates":[-82.34733400031071,27.789229999353392]},"properties":{"OBJECTID":120,"HAZUSID":null,"Name":"ST JOSEPHS HOSP S","Address":"6901 SIMMONS LOOP","City":"RIVERVIEW","Zip":"33578","COUNTY":"HILLSBOROUGH","X":-82.347334000000004,"Y":27.78923,"LONGLAT":"-82.34733400,27.78923000","USNG":"17R LL 67262 74582","OWNERSHIP":null,"PARCELID":null,"FACILITY_TYPE":"HOSPITAL - ACUTE CARE","TTL_BEDS":90,"EFCLASS":"EFHM"}},{"type":"Feature","id":121,"geometry":{"type":"Point","coordinates":[-82.481622055440738,27.989148184795891]},"properties":{"OBJECTID":121,"HAZUSID":null,"Name":"KINDRED HOSP - CENTRAL TAMPA","Address":"4801 N HOWARD AVE","City":"TAMPA","Zip":"33603","COUNTY":"HILLSBOROUGH","X":-82.481622060000007,"Y":27.989148190000002,"LONGLAT":"-82.48162206,27.98914819","USNG":"17R LL 54299 96884","OWNERSHIP":null,"PARCELID":null,"FACILITY_TYPE":"HOSPITAL","TTL_BEDS":102,"EFCLASS":"EFHL"}},{"type":"Feature","id":122,"geometry":{"type":"Point","coordinates":[-82.504055244469569,28.013526019887102]},"properties":{"OBJECTID":122,"HAZUSID":null,"Name":"FL HOSP CARROLLWOOD","Address":"7171 N DALE MABRY HWY","City":"TAMPA","Zip":"33614","COUNTY":"HILLSBOROUGH","X":-82.50405524,"Y":28.01352602,"LONGLAT":"-82.50405524,28.01352602","USNG":"17R LL 52126 99612","OWNERSHIP":null,"PARCELID":null,"FACILITY_TYPE":"HOSPITAL - ACUTE CARE","TTL_BEDS":120,"EFCLASS":"EFHL"}},{"type":"Feature","id":123,"geometry":{"type":"Point","coordinates":[-82.423319392595729,28.070617796496546]},"properties":{"OBJECTID":123,"HAZUSID":null,"Name":"FL HOSP TAMPA","Address":"3100 E FLETCHER AVE","City":"TAMPA","Zip":"33613","COUNTY":"HILLSBOROUGH","X":-82.423319390000003,"Y":28.070617800000001,"LONGLAT":"-82.42331939,28.07061780","USNG":"17R LM 60138 05842","OWNERSHIP":"PR","PARCELID":null,"FACILITY_TYPE":"HOSPITAL - ACUTE CARE","TTL_BEDS":517,"EFCLASS":"EFHL"}},{"type":"Feature","id":124,"geometry":{"type":"Point","coordinates":[-82.428057170499713,28.064443717217962]},"properties":{"OBJECTID":124,"HAZUSID":null,"Name":"JAMES A HALEY VA MED CNTRQ","Address":"13000 N BRUCE B DOWNS BLVD","City":"TAMPA","Zip":"33612","COUNTY":"HILLSBOROUGH","X":-82.428057170000002,"Y":28.06444372,"LONGLAT":"-82.42805717,28.06444372","USNG":"17R LM 59665 05164","OWNERSHIP":null,"PARCELID":null,"FACILITY_TYPE":"HOSPITAL - VA","TTL_BEDS":415,"EFCLASS":"EFHL"}},{"type":"Feature","id":125,"geometry":{"type":"Point","coordinates":[-82.500725626005746,27.859947834401666]},"properties":{"OBJECTID":125,"HAZUSID":null,"Name":"6TH MED GROUP","Address":"3250 ZEMKE AVE","City":"MACDILL AFB","Zip":"33621","COUNTY":"HILLSBOROUGH","X":-82.500725630000005,"Y":27.85994784,"LONGLAT":"-82.50072563,27.85994784","USNG":"17R LL 52244 82592","OWNERSHIP":null,"PARCELID":null,"FACILITY_TYPE":"HOSPITAL - VA","TTL_BEDS":null,"EFCLASS":"MDFLT"}},{"type":"Feature","id":126,"geometry":{"type":"Point","coordinates":[-82.490913349956685,27.982336676165485]},"properties":{"OBJECTID":126,"HAZUSID":null,"Name":"ST JOSEPH'S HOSPITAL","Address":"3001 W MARTIN LUTHER KING JR BLVD","City":"TAMPA","Zip":"33607","COUNTY":"HILLSBOROUGH","X":-82.49091335,"Y":27.98233668,"LONGLAT":"-82.49091335,27.98233668","USNG":"17R LL 53376 96140","OWNERSHIP":null,"PARCELID":null,"FACILITY_TYPE":"HOSPITAL - TRAUMA","TTL_BEDS":780,"EFCLASS":"EFHL"}},{"type":"Feature","id":127,"geometry":{"type":"Point","coordinates":[-82.458418121720399,27.938121263425007]},"properties":{"OBJECTID":127,"HAZUSID":null,"Name":"TAMPA GENERAL HOSPITAL","Address":"1 TAMPA GENERAL CIR","City":"TAMPA","Zip":"33606","COUNTY":"HILLSBOROUGH","X":-82.458418120000005,"Y":27.938121259999999,"LONGLAT":"-82.45841812,27.93812126","USNG":"17R LL 56514 91203","OWNERSHIP":"M","PARCELID":null,"FACILITY_TYPE":"HOSPITAL - TRAUMA","TTL_BEDS":1011,"EFCLASS":"EFHL"}},{"type":"Feature","id":128,"geometry":{"type":"Point","coordinates":[-82.326319999772934,27.94364999927058]},"properties":{"OBJECTID":128,"HAZUSID":null,"Name":"6TH MED GROUP USAF - BRANDON CLIN","Address":"22 0GRAND REGENCY BLVD ","City":"BRANDON","Zip":"33510","COUNTY":"HILLSBOROUGH","X":-82.326319999999996,"Y":27.943650000000002,"LONGLAT":"-82.32632000,27.94365000","USNG":"17R LL 69518 91668","OWNERSHIP":null,"PARCELID":null,"FACILITY_TYPE":"HOSPITAL - VA","TTL_BEDS":null,"EFCLASS":"MDFLT"}},{"type":"Feature","id":129,"geometry":{"type":"Point","coordinates":[-85.682844346836006,30.760960551127773]},"properties":{"OBJECTID":129,"HAZUSID":null,"Name":"DOCTORS MEMORIAL HOSP","Address":"2600 HOSPITAL DR","City":"BONIFAY","Zip":"32425","COUNTY":"HOLMES","X":-85.682844349999996,"Y":30.76096055,"LONGLAT":"-85.68284435,30.76096055","USNG":"16R FV 26061 03852","OWNERSHIP":null,"PARCELID":null,"FACILITY_TYPE":"HOSPITAL - ACUTE CARE","TTL_BEDS":20,"EFCLASS":"EFHS"}},{"type":"Feature","id":130,"geometry":{"type":"Point","coordinates":[-80.394517730480999,27.658576085146617]},"properties":{"OBJECTID":130,"HAZUSID":null,"Name":"INDIAN RIVER MED CNTR","Address":"1000 36TH ST","City":"VERO BEACH","Zip":"32960","COUNTY":"INDIAN RIVER","X":-80.394517730000004,"Y":27.65857609,"LONGLAT":"-80.39451773,27.65857609","USNG":"17R NL 59719 59528","OWNERSHIP":null,"PARCELID":null,"FACILITY_TYPE":"HOSPITAL - ACUTE CARE","TTL_BEDS":332,"EFCLASS":"EFHL"}},{"type":"Feature","id":131,"geometry":{"type":"Point","coordinates":[-80.489033740479627,27.843664460315861]},"properties":{"OBJECTID":131,"HAZUSID":null,"Name":"SEBASTIAN RIVER MEDICAL CNTR","Address":"13695 US HWY 1","City":"SEBASTIAN","Zip":"32958","COUNTY":"INDIAN RIVER","X":-80.489033739999996,"Y":27.843664459999999,"LONGLAT":"-80.48903374,27.84366446","USNG":"17R NL 50312 79989","OWNERSHIP":null,"PARCELID":null,"FACILITY_TYPE":"HOSPITAL - ACUTE CARE","TTL_BEDS":154,"EFCLASS":"EFHL"}},{"type":"Feature","id":132,"geometry":{"type":"Point","coordinates":[-80.400440505013805,27.661014373771341]},"properties":{"OBJECTID":132,"HAZUSID":null,"Name":"HEALTHSOUTH TREASURE COAST REHAB","Address":"1600 37TH ST","City":"VERO BEACH","Zip":"32960","COUNTY":"INDIAN RIVER","X":-80.400440509999996,"Y":27.66101437,"LONGLAT":"-80.40044051,27.66101437","USNG":"17R NL 59134 59795","OWNERSHIP":null,"PARCELID":null,"FACILITY_TYPE":"HOSPITAL","TTL_BEDS":80,"EFCLASS":"EFHM"}},{"type":"Feature","id":133,"geometry":{"type":"Point","coordinates":[-85.241546325568663,30.786875948675384]},"properties":{"OBJECTID":133,"HAZUSID":null,"Name":"JACKSON HOSP","Address":"4250 HOSPITAL DR","City":"MARIANNA","Zip":"32446","COUNTY":"JACKSON","X":-85.241546330000006,"Y":30.786875949999999,"LONGLAT":"-85.24154633,30.78687595","USNG":"16R FV 68257 07304","OWNERSHIP":null,"PARCELID":null,"FACILITY_TYPE":"HOSPITAL - ACUTE CARE","TTL_BEDS":100,"EFCLASS":"EFHM"}},{"type":"Feature","id":134,"geometry":{"type":"Point","coordinates":[-85.506800805148828,30.963144242559324]},"properties":{"OBJECTID":134,"HAZUSID":null,"Name":"CAMPBELLTON-GRACEVILLE HOSP","Address":"5429 COLLEGE DR","City":"GRACEVILLE","Zip":"32440","COUNTY":"JACKSON","X":-85.506800810000001,"Y":30.963144239999998,"LONGLAT":"-85.50680081,30.96314424","USNG":"16R FV 42612 26473","OWNERSHIP":null,"PARCELID":null,"FACILITY_TYPE":"HOSPITAL - ACUTE CARE","TTL_BEDS":25,"EFCLASS":"EFHS"}},{"type":"Feature","id":135,"geometry":{"type":"Point","coordinates":[-81.710698428904905,28.823450744949763]},"properties":{"OBJECTID":135,"HAZUSID":null,"Name":"FL HOSP WATERMAN","Address":"1000 WATERMAN WAY","City":"TAVARES","Zip":"32778","COUNTY":"LAKE","X":-81.710698429999994,"Y":28.823450749999999,"LONGLAT":"-81.71069843,28.82345075","USNG":"17R MM 30659 88633","OWNERSHIP":null,"PARCELID":null,"FACILITY_TYPE":"HOSPITAL - ACUTE CARE","TTL_BEDS":269,"EFCLASS":"EFHL"}},{"type":"Feature","id":136,"geometry":{"type":"Point","coordinates":[-81.87440305501336,28.817900444370924]},"properties":{"OBJECTID":136,"HAZUSID":null,"Name":"LEESBURG REHABILITATION HOSPITAL","Address":"700 N PALMETTO ST","City":"LEESBURG","Zip":"34748","COUNTY":"LAKE","X":-81.874403060000006,"Y":28.81790045,"LONGLAT":"-81.87440306,28.81790045","USNG":"17R MM 14682 88124","OWNERSHIP":null,"PARCELID":null,"FACILITY_TYPE":"HOSPITAL - ACUTE CARE","TTL_BEDS":2,"EFCLASS":"EFHS"}},{"type":"Feature","id":137,"geometry":{"type":"Point","coordinates":[-81.868321259090536,28.807493582918806]},"properties":{"OBJECTID":137,"HAZUSID":null,"Name":"LEESBURG REGIONAL MEDICAL CNTR","Address":"600 E DIXIE AVE","City":"LEESBURG","Zip":"34748","COUNTY":"LAKE","X":-81.868321260000002,"Y":28.807493579999999,"LONGLAT":"-81.86832126,28.80749358","USNG":"17R MM 15267 86967","OWNERSHIP":null,"PARCELID":null,"FACILITY_TYPE":"HOSPITAL - ACUTE CARE","TTL_BEDS":308,"EFCLASS":"EFHL"}},{"type":"Feature","id":138,"geometry":{"type":"Point","coordinates":[-81.72220692985367,28.551930579565166]},"properties":{"OBJECTID":138,"HAZUSID":null,"Name":"SOUTH LAKE HOSPITAL","Address":"1900 DON WICKHAM DR","City":"CLERMONT","Zip":"34711","COUNTY":"LAKE","X":-81.722206929999999,"Y":28.551930580000001,"LONGLAT":"-81.72220693,28.55193058","USNG":"17R MM 29354 58557","OWNERSHIP":null,"PARCELID":null,"FACILITY_TYPE":"HOSPITAL - ACUTE CARE","TTL_BEDS":170,"EFCLASS":"EFHL"}},{"type":"Feature","id":139,"geometry":{"type":"Point","coordinates":[-81.894608628659995,28.837941331313928]},"properties":{"OBJECTID":139,"HAZUSID":null,"Name":"LIFESTREAM BEHAVIORAL CNTR","Address":"2020 TALLY RD","City":"LEESBURG","Zip":"34748","COUNTY":"LAKE","X":-81.894608629999993,"Y":28.83794133,"LONGLAT":"-81.89460863,28.83794133","USNG":"17R MM 12727 90359","OWNERSHIP":null,"PARCELID":null,"FACILITY_TYPE":"HOSPITAL","TTL_BEDS":46,"EFCLASS":"EFHS"}},{"type":"Feature","id":140,"geometry":{"type":"Point","coordinates":[-81.849815034650476,26.544114703748139]},"properties":{"OBJECTID":140,"HAZUSID":null,"Name":"GULF COAST MEDICAL CNTR LMHS ","Address":"13681 DOCTORS WAY","City":"FORT MYERS","Zip":"33912","COUNTY":"LEE","X":-81.849815030000002,"Y":26.544114700000002,"LONGLAT":"-81.84981503,26.54411470","USNG":"17R MK 15346 36223","OWNERSHIP":null,"PARCELID":null,"FACILITY_TYPE":"HOSPITAL - ACUTE CARE","TTL_BEDS":356,"EFCLASS":"EFHL"}},{"type":"Feature","id":141,"geometry":{"type":"Point","coordinates":[-81.938007755655548,26.668540617067425]},"properties":{"OBJECTID":141,"HAZUSID":null,"Name":"LMHS LEE CONVENIENT CARE/PINE ISLAND RD","Address":"1682 NE PINE ISLAND RD","City":"CAPE CORAL","Zip":"33909","COUNTY":"LEE","X":-81.938007760000005,"Y":26.668540620000002,"LONGLAT":"-81.93800776,26.66854062","USNG":"17R MK 06661 50066","OWNERSHIP":null,"PARCELID":null,"FACILITY_TYPE":"HOSPITAL","TTL_BEDS":null,"EFCLASS":"MDFLT"}},{"type":"Feature","id":142,"geometry":{"type":"Point","coordinates":[-81.909539068956093,26.510403228547197]},"properties":{"OBJECTID":142,"HAZUSID":null,"Name":"PARK ROYAL HOSP","Address":"9241 PARK ROYAL DR","City":"FORT MYERS","Zip":"33908","COUNTY":"LEE","X":-81.909539069999994,"Y":26.510403230000001,"LONGLAT":"-81.90953907,26.51040323","USNG":"17R MK 09370 32530","OWNERSHIP":null,"PARCELID":null,"FACILITY_TYPE":"HOSPITAL","TTL_BEDS":103,"EFCLASS":"EFHL"}},{"type":"Feature","id":143,"geometry":{"type":"Point","coordinates":[-81.871349142607144,26.591866525072732]},"properties":{"OBJECTID":143,"HAZUSID":null,"Name":"LMHS LEE CONVENIENT CARE - PAGE FIELD","Address":"4741-4771 S CLEVELAND AVE","City":"FORT MYERS","Zip":"33907","COUNTY":"LEE","X":-81.871349140000007,"Y":26.591866530000001,"LONGLAT":"-81.87134914,26.59186653","USNG":"17R MK 13237 41527","OWNERSHIP":null,"PARCELID":null,"FACILITY_TYPE":"HOSPITAL","TTL_BEDS":null,"EFCLASS":"MDFLT"}},{"type":"Feature","id":144,"geometry":{"type":"Point","coordinates":[-81.942177117704816,26.639220273160632]},"properties":{"OBJECTID":144,"HAZUSID":null,"Name":"CAPE CORAL HOSP LMHS","Address":"636 DEL PRADO BLVD","City":"CAPE CORAL","Zip":"33990","COUNTY":"LEE","X":-81.942177119999997,"Y":26.639220269999999,"LONGLAT":"-81.94217712,26.63922027","USNG":"17R MK 06222 46822","OWNERSHIP":"PR","PARCELID":null,"FACILITY_TYPE":"HOSPITAL - ACUTE CARE","TTL_BEDS":291,"EFCLASS":"EFHL"}},{"type":"Feature","id":145,"geometry":{"type":"Point","coordinates":[-81.802718999783906,26.631077998849118]},"properties":{"OBJECTID":145,"HAZUSID":null,"Name":"PROMISE HOSP OF FORT MYERS ","Address":"3050 CHAMPION RING RD","City":"FORT MYERS","Zip":"33905","COUNTY":"LEE","X":-81.802718999999996,"Y":26.631077999999999,"LONGLAT":"-81.80271900,26.63107800","USNG":"17R MK 20098 45825","OWNERSHIP":null,"PARCELID":null,"FACILITY_TYPE":"HOSPITAL - ACUTE CARE","TTL_BEDS":60,"EFCLASS":"EFHM"}},{"type":"Feature","id":146,"geometry":{"type":"Point","coordinates":[-81.912976449742587,26.507292638281065]},"properties":{"OBJECTID":146,"HAZUSID":null,"Name":"HEALTHPARK MEDICAL CNTR","Address":"9981 HEALTHPARK CIR","City":"FORT MYERS","Zip":"33908","COUNTY":"LEE","X":-81.912976450000002,"Y":26.507292639999999,"LONGLAT":"-81.91297645,26.50729264","USNG":"17R MK 09025 32188","OWNERSHIP":null,"PARCELID":null,"FACILITY_TYPE":"HOSPITAL - ACUTE CARE","TTL_BEDS":368,"EFCLASS":"EFHL"}},{"type":"Feature","id":147,"geometry":{"type":"Point","coordinates":[-81.65929372592214,26.616082516843736]},"properties":{"OBJECTID":147,"HAZUSID":null,"Name":"LEHIGH REGIONAL MEDICAL CNTR","Address":"1500 LEE BLVD","City":"LEHIGH ACRES","Zip":"33936","COUNTY":"LEE","X":-81.659293730000002,"Y":26.616082519999999,"LONGLAT":"-81.65929373,26.61608252","USNG":"17R MK 34366 44083","OWNERSHIP":null,"PARCELID":null,"FACILITY_TYPE":"HOSPITAL - ACUTE CARE","TTL_BEDS":88,"EFCLASS":"EFHM"}},{"type":"Feature","id":148,"geometry":{"type":"Point","coordinates":[-81.920117643055221,26.685783869528905]},"properties":{"OBJECTID":148,"HAZUSID":null,"Name":"LEE COUNY VA HEALTHCARE CENTER","Address":"2489 DIPLOMAT PKWY E","City":"CAPE CORAL","Zip":"33909","COUNTY":"LEE","X":-81.920117640000001,"Y":26.685783870000002,"LONGLAT":"-81.92011764,26.68578387","USNG":"17R MK 08455 51963","OWNERSHIP":null,"PARCELID":null,"FACILITY_TYPE":"HOSPITAL - VA","TTL_BEDS":null,"EFCLASS":"MDFLT"}},{"type":"Feature","id":149,"geometry":{"type":"Point","coordinates":[-81.874047738240122,26.628390385936616]},"properties":{"OBJECTID":149,"HAZUSID":null,"Name":"LEE MEMORIAL HOSP","Address":"2776 CLEVELAND AVE","City":"FORT MYERS","Zip":"33901","COUNTY":"LEE","X":-81.874047739999995,"Y":26.62839039,"LONGLAT":"-81.87404774,26.62839039","USNG":"17R MK 12995 45574","OWNERSHIP":"PR","PARCELID":null,"FACILITY_TYPE":"HOSPITAL - TRAUMA","TTL_BEDS":411,"EFCLASS":"EFHL"}},{"type":"Feature","id":150,"geometry":{"type":"Point","coordinates":[-81.849480871153858,26.605504100229144]},"properties":{"OBJECTID":150,"HAZUSID":"0","Name":"VA CLINIC","Address":"3033 WINKLER AVE EXT","City":"FORT MYERS","Zip":" ","COUNTY":"LEE","X":-81.849480869999994,"Y":26.605504100000001,"LONGLAT":"-81.84948087,26.60550410","USNG":"17R MK 15424 43023","OWNERSHIP":null,"PARCELID":null,"FACILITY_TYPE":"HOSPITAL - VA","TTL_BEDS":null,"EFCLASS":"MDFLT"}},{"type":"Feature","id":151,"geometry":{"type":"Point","coordinates":[-84.240290000033212,30.456519999202374]},"properties":{"OBJECTID":151,"HAZUSID":null,"Name":"TALLAHASSEE OUTPATIENT CLIN","Address":"1607 ST JAMES CT","City":"TALLAHASSEE","Zip":"32308","COUNTY":"LEON","X":-84.240290000000002,"Y":30.456520000000001,"LONGLAT":"-84.24029000,30.45652000","USNG":"16R GU 64991 72609","OWNERSHIP":null,"PARCELID":null,"FACILITY_TYPE":"HOSPITAL - VA","TTL_BEDS":null,"EFCLASS":"MDFLT"}},{"type":"Feature","id":152,"geometry":{"type":"Point","coordinates":[-84.248045131823673,30.40998059772701]},"properties":{"OBJECTID":152,"HAZUSID":null,"Name":"TALLAHASSEE OUTPATIENT CLINIC","Address":"2181 E. ORANGE AVE.","City":"TALLAHASSEE","Zip":"32311","COUNTY":"LEON","X":-84.248045129999994,"Y":30.409980600000001,"LONGLAT":"-84.24804513,30.40998060","USNG":"16R GU 64371 67431","OWNERSHIP":null,"PARCELID":null,"FACILITY_TYPE":"HOSPITAL - VA","TTL_BEDS":null,"EFCLASS":"MDFLT"}},{"type":"Feature","id":153,"geometry":{"type":"Point","coordinates":[-84.262105977256496,30.456246316416646]},"properties":{"OBJECTID":153,"HAZUSID":null,"Name":"TALLAHASSEE MEMORIAL HOSPITAL","Address":"1300 MICCOSUKEE RD","City":"TALLAHASSEE","Zip":"32308","COUNTY":"LEON","X":-84.262105980000001,"Y":30.456246320000002,"LONGLAT":"-84.26210598,30.45624632","USNG":"16R GU 62896 72528","OWNERSHIP":null,"PARCELID":null,"FACILITY_TYPE":"HOSPITAL - TRAUMA","TTL_BEDS":772,"EFCLASS":"EFHL"}},{"type":"Feature","id":154,"geometry":{"type":"Point","coordinates":[-84.231197845577242,30.475809379353858]},"properties":{"OBJECTID":154,"HAZUSID":null,"Name":"CAPITAL REGIONAL MED CENT","Address":"2626 CAPITAL MEDICAL BLVD","City":"TALLAHASSEE","Zip":"32308","COUNTY":"LEON","X":-84.231197850000001,"Y":30.475809380000001,"LONGLAT":"-84.23119785,30.47580938","USNG":"16R GU 65812 74769","OWNERSHIP":null,"PARCELID":null,"FACILITY_TYPE":"HOSPITAL - ACUTE CARE","TTL_BEDS":266,"EFCLASS":"EFHL"}},{"type":"Feature","id":155,"geometry":{"type":"Point","coordinates":[-84.237501835174868,30.459506735381488]},"properties":{"OBJECTID":155,"HAZUSID":null,"Name":"HEALTHSOUTH REHAB HOSP OF TAL","Address":"1675 RIGGINS RD","City":"TALLAHASSEE","Zip":"32308","COUNTY":"LEON","X":-84.237501839999993,"Y":30.459506739999998,"LONGLAT":"-84.23750184,30.45950674","USNG":"16R GU 65250 72947","OWNERSHIP":null,"PARCELID":null,"FACILITY_TYPE":"HOSPITAL","TTL_BEDS":76,"EFCLASS":"EFHM"}},{"type":"Feature","id":156,"geometry":{"type":"Point","coordinates":[-84.239328120269491,30.487749512642303]},"properties":{"OBJECTID":156,"HAZUSID":null,"Name":"EASTSIDE PSYCH HOSP","Address":"2634B CAPITAL CIRCLE NE, 2ND FLR","City":"TALLAHASSEE","Zip":"32308","COUNTY":"LEON","X":-84.239328119999996,"Y":30.48774951,"LONGLAT":"-84.23932812,30.48774951","USNG":"16R GU 64998 76074","OWNERSHIP":null,"PARCELID":null,"FACILITY_TYPE":"HOSPITAL","TTL_BEDS":46,"EFCLASS":"EFHS"}},{"type":"Feature","id":157,"geometry":{"type":"Point","coordinates":[-84.253074670305992,30.461536576217611]},"properties":{"OBJECTID":157,"HAZUSID":null,"Name":"SELECT SPECIALTY HOSPITAL - TAL","Address":"1554 SURGEONS DR","City":"TALLAHASSEE","Zip":"32308","COUNTY":"LEON","X":-84.253074670000004,"Y":30.461536580000001,"LONGLAT":"-84.25307467,30.46153658","USNG":"16R GU 63749 73135","OWNERSHIP":null,"PARCELID":null,"FACILITY_TYPE":"HOSPITAL","TTL_BEDS":29,"EFCLASS":"EFHS"}},{"type":"Feature","id":158,"geometry":{"type":"Point","coordinates":[-82.454916545660723,29.384350336723866]},"properties":{"OBJECTID":158,"HAZUSID":null,"Name":"REGIONAL GENERAL HOSPITAL WILLISTON","Address":"125 SW 7TH ST","City":"WILLISTON","Zip":"32696","COUNTY":"LEVY","X":-82.454916549999993,"Y":29.384350340000001,"LONGLAT":"-82.45491655,29.38435034","USNG":"17R LN 58810 51449","OWNERSHIP":null,"PARCELID":null,"FACILITY_TYPE":"HOSPITAL - ACUTE CARE","TTL_BEDS":40,"EFCLASS":"EFHS"}},{"type":"Feature","id":159,"geometry":{"type":"Point","coordinates":[-83.418817545607411,30.471333646208947]},"properties":{"OBJECTID":159,"HAZUSID":null,"Name":"MADISON COUNTY MEMORIAL HOSPITAL","Address":"224 NW CRANE AVE","City":"MADISON","Zip":"32340","COUNTY":"MADISON","X":-83.41881755,"Y":30.471333649999998,"LONGLAT":"-83.41881755,30.47133365","USNG":"17R KP 67787 73501","OWNERSHIP":null,"PARCELID":null,"FACILITY_TYPE":"HOSPITAL - ACUTE CARE","TTL_BEDS":25,"EFCLASS":"EFHS"}},{"type":"Feature","id":160,"geometry":{"type":"Point","coordinates":[-82.435468301255526,27.3910690421657]},"properties":{"OBJECTID":160,"HAZUSID":null,"Name":"LAKEWOOD RANCH MEDICAL CNTR","Address":"8330 LAKEWOOD RANCH BLVD","City":"BRADENTON","Zip":"34202","COUNTY":"MANATEE","X":-82.435468299999997,"Y":27.391069040000001,"LONGLAT":"-82.43546830,27.39106904","USNG":"17R LL 58067 30569","OWNERSHIP":null,"PARCELID":null,"FACILITY_TYPE":"HOSPITAL - ACUTE CARE","TTL_BEDS":120,"EFCLASS":"EFHL"}},{"type":"Feature","id":161,"geometry":{"type":"Point","coordinates":[-82.623769103536333,27.48212916149398]},"properties":{"OBJECTID":161,"HAZUSID":null,"Name":"BLAKE MED CENT","Address":"2020 59TH ST W","City":"BRADENTON","Zip":"34209","COUNTY":"MANATEE","X":-82.623769100000004,"Y":27.48212916,"LONGLAT":"-82.62376910,27.48212916","USNG":"17R LL 39577 40886","OWNERSHIP":null,"PARCELID":null,"FACILITY_TYPE":"HOSPITAL - TRAUMA","TTL_BEDS":383,"EFCLASS":"EFHL"}},{"type":"Feature","id":162,"geometry":{"type":"Point","coordinates":[-82.562150834544909,27.497392898402197]},"properties":{"OBJECTID":162,"HAZUSID":null,"Name":"MANATEE MEMORIAL HOSPITAL","Address":"206 2ND ST E","City":"BRADENTON","Zip":"34208","COUNTY":"MANATEE","X":-82.562150829999993,"Y":27.497392900000001,"LONGLAT":"-82.56215083,27.49739290","USNG":"17R LL 45687 42499","OWNERSHIP":null,"PARCELID":null,"FACILITY_TYPE":"HOSPITAL - ACUTE CARE","TTL_BEDS":295,"EFCLASS":"EFHL"}},{"type":"Feature","id":163,"geometry":{"type":"Point","coordinates":[-82.539684620552691,27.475661431816825]},"properties":{"OBJECTID":163,"HAZUSID":null,"Name":"MANATEE GLENS HOSP & ADDICTION CNTR","Address":"2020 26TH AVE E","City":"BRADENTON","Zip":"34208","COUNTY":"MANATEE","X":-82.539684620000003,"Y":27.475661429999999,"LONGLAT":"-82.53968462,27.47566143","USNG":"17R LL 47877 40064","OWNERSHIP":null,"PARCELID":null,"FACILITY_TYPE":"HOSPITAL","TTL_BEDS":27,"EFCLASS":"EFHS"}},{"type":"Feature","id":164,"geometry":{"type":"Point","coordinates":[-82.612964243331518,27.45973540455487]},"properties":{"OBJECTID":164,"HAZUSID":null,"Name":"SUNCOAST BEHAVIORAL HEALTH CNTR","Address":"4480 51ST ST W","City":"BRADENTON","Zip":"34210","COUNTY":"MANATEE","X":-82.612964239999997,"Y":27.45973541,"LONGLAT":"-82.61296424,27.45973541","USNG":"17R LL 40613 38391","OWNERSHIP":null,"PARCELID":null,"FACILITY_TYPE":"HOSPITAL","TTL_BEDS":60,"EFCLASS":"EFHM"}},{"type":"Feature","id":165,"geometry":{"type":"Point","coordinates":[-82.170063770054071,29.155608835406316]},"properties":{"OBJECTID":165,"HAZUSID":null,"Name":"VINES HOSPITAL","Address":"3130 SW 27TH AVE","City":"OCALA","Zip":"34474","COUNTY":"MARION","X":-82.170063769999999,"Y":29.155608839999999,"LONGLAT":"-82.17006377,29.15560884","USNG":"17R LN 86202 25792","OWNERSHIP":null,"PARCELID":null,"FACILITY_TYPE":"HOSPITAL","TTL_BEDS":64,"EFCLASS":"EFHM"}},{"type":"Feature","id":166,"geometry":{"type":"Point","coordinates":[-82.138979483967702,29.174918276657646]},"properties":{"OBJECTID":166,"HAZUSID":null,"Name":"MUNROE REGIONAL MEDICAL CNTR","Address":"1500 SW 1ST AVE","City":"OCALA","Zip":"34471","COUNTY":"MARION","X":-82.138979480000003,"Y":29.17491828,"LONGLAT":"-82.13897948,29.17491828","USNG":"17R LN 89246 27901","OWNERSHIP":null,"PARCELID":null,"FACILITY_TYPE":"HOSPITAL","TTL_BEDS":421,"EFCLASS":"EFHL"}},{"type":"Feature","id":167,"geometry":{"type":"Point","coordinates":[-82.219194510605973,29.130709173039094]},"properties":{"OBJECTID":167,"HAZUSID":null,"Name":"THE CENTERS INC","Address":"5664 SW 60TH AVE","City":"OCALA","Zip":"34474","COUNTY":"MARION","X":-82.219194509999994,"Y":29.130709169999999,"LONGLAT":"-82.21919451,29.13070917","USNG":"17R LN 81395 23081","OWNERSHIP":null,"PARCELID":null,"FACILITY_TYPE":"HOSPITAL","TTL_BEDS":15,"EFCLASS":"EFHS"}},{"type":"Feature","id":168,"geometry":{"type":"Point","coordinates":[-82.138186404604141,29.173426359140169]},"properties":{"OBJECTID":168,"HAZUSID":null,"Name":"KINDRED HOSP - OCALA","Address":"1500 SW 1ST AVE, 5TH FLR","City":"OCALA","Zip":"34474","COUNTY":"MARION","X":-82.138186399999995,"Y":29.173426360000001,"LONGLAT":"-82.13818640,29.17342636","USNG":"17R LN 89322 27735","OWNERSHIP":null,"PARCELID":null,"FACILITY_TYPE":"HOSPITAL","TTL_BEDS":31,"EFCLASS":"EFHS"}},{"type":"Feature","id":169,"geometry":{"type":"Point","coordinates":[-82.395589999688198,29.166641999152315]},"properties":{"OBJECTID":169,"HAZUSID":null,"Name":"HEALTHSOUTH REHAB HOSP OF OCALA","Address":"2275 SW 22ND LANE","City":"OCALA","Zip":"34471","COUNTY":"MARION","X":-82.395589999999999,"Y":29.166642,"LONGLAT":"-82.39559000,29.16664200","USNG":"17R LN 64281 27253","OWNERSHIP":null,"PARCELID":null,"FACILITY_TYPE":"HOSPITAL","TTL_BEDS":50,"EFCLASS":"EFHS"}},{"type":"Feature","id":170,"geometry":{"type":"Point","coordinates":[-82.200089120766393,29.141092951821737]},"properties":{"OBJECTID":170,"HAZUSID":null,"Name":"WEST MARION COMMUNITY HOSPITAL","Address":"4600 SW 46TH CT","City":"OCALA","Zip":"34474","COUNTY":"MARION","X":-82.200089120000001,"Y":29.141092950000001,"LONGLAT":"-82.20008912,29.14109295","USNG":"17R LN 83265 24213","OWNERSHIP":null,"PARCELID":null,"FACILITY_TYPE":"HOSPITAL - ACUTE CARE","TTL_BEDS":94,"EFCLASS":"EFHM"}},{"type":"Feature","id":171,"geometry":{"type":"Point","coordinates":[-82.136834134367632,29.175353593316053]},"properties":{"OBJECTID":171,"HAZUSID":null,"Name":"OCALA REGIONAL MEDICAL CNTR","Address":"1431 SW 1ST AVE","City":"OCALA","Zip":"34474","COUNTY":"MARION","X":-82.136834129999997,"Y":29.17535359,"LONGLAT":"-82.13683413,29.17535359","USNG":"17R LN 89455 27948","OWNERSHIP":null,"PARCELID":null,"FACILITY_TYPE":"HOSPITAL - TRAUMA","TTL_BEDS":222,"EFCLASS":"EFHL"}},{"type":"Feature","id":172,"geometry":{"type":"Point","coordinates":[-82.005199999924315,28.980309999507252]},"properties":{"OBJECTID":172,"HAZUSID":null,"Name":"THE VILLAGES OUTPATIENT CLIN","Address":"8900 SE 165TH MULBERRY LN","City":"THE VILLAGES ","Zip":"32162","COUNTY":"MARION","X":-82.005200000000002,"Y":28.980309999999999,"LONGLAT":"-82.00520000,28.98031000","USNG":"17R MN 02072 06220","OWNERSHIP":null,"PARCELID":null,"FACILITY_TYPE":"HOSPITAL - VA","TTL_BEDS":null,"EFCLASS":"MDFLT"}},{"type":"Feature","id":173,"geometry":{"type":"Point","coordinates":[-80.224176956507876,27.133868089887926]},"properties":{"OBJECTID":173,"HAZUSID":null,"Name":"MARTIN HOSP SOUTH","Address":"2100 SE SALERNO RD","City":"STUART","Zip":"34997","COUNTY":"MARTIN","X":-80.224176959999994,"Y":27.13386809,"LONGLAT":"-80.22417696,27.13386809","USNG":"17R NL 76883 01499","OWNERSHIP":null,"PARCELID":null,"FACILITY_TYPE":"HOSPITAL - ACUTE CARE","TTL_BEDS":100,"EFCLASS":"EFHM"}},{"type":"Feature","id":174,"geometry":{"type":"Point","coordinates":[-80.242743049412994,27.200020445599492]},"properties":{"OBJECTID":174,"HAZUSID":null,"Name":"MARTIN MEDICAL CNTR","Address":"200 SE HOSPITAL AVE","City":"STUART","Zip":"34994","COUNTY":"MARTIN","X":-80.242743050000001,"Y":27.20002045,"LONGLAT":"-80.24274305,27.20002045","USNG":"17R NL 74999 08816","OWNERSHIP":null,"PARCELID":null,"FACILITY_TYPE":"HOSPITAL - ACUTE CARE","TTL_BEDS":244,"EFCLASS":"EFHL"}},{"type":"Feature","id":175,"geometry":{"type":"Point","coordinates":[-80.101642605941905,26.977015571085989]},"properties":{"OBJECTID":175,"HAZUSID":null,"Name":"SANDY PINES RESI TREATMENT CNTR","Address":"11301 SE TEQUESTA TER","City":"TEQUESTA","Zip":"33469","COUNTY":"MARTIN","X":-80.101642609999999,"Y":26.977015569999999,"LONGLAT":"-80.10164261,26.97701557","USNG":"17R NK 89150 84206","OWNERSHIP":null,"PARCELID":null,"FACILITY_TYPE":"HOSPITAL","TTL_BEDS":null,"EFCLASS":"MDFLT"}},{"type":"Feature","id":176,"geometry":{"type":"Point","coordinates":[-80.222007288859871,27.132763332798842]},"properties":{"OBJECTID":176,"HAZUSID":null,"Name":"HEALTHSOUTH REHAB HOSP/MARTIN HEAL","Address":"5850 SE COMMUNITY DR","City":"STUART","Zip":"34997","COUNTY":"MARTIN","X":-80.222007289999993,"Y":27.13276333,"LONGLAT":"-80.22200729,27.13276333","USNG":"17R NL 77099 01378","OWNERSHIP":null,"PARCELID":null,"FACILITY_TYPE":"HOSPITAL","TTL_BEDS":44,"EFCLASS":"EFHS"}},{"type":"Feature","id":177,"geometry":{"type":"Point","coordinates":[-80.214583820014738,25.788197330877562]},"properties":{"OBJECTID":177,"HAZUSID":null,"Name":"U OF M HOSPITAL AND CLINICS","Address":"1475 NW 12TH AVE","City":"MIAMI","Zip":"33136","COUNTY":"MIAMI-DADE","X":-80.214583820000001,"Y":25.788197329999999,"LONGLAT":"-80.21458382,25.78819733","USNG":"17R NJ 78744 52463","OWNERSHIP":null,"PARCELID":null,"FACILITY_TYPE":"HOSPITAL","TTL_BEDS":10,"EFCLASS":"EFHS"}},{"type":"Feature","id":178,"geometry":{"type":"Point","coordinates":[-80.278914192687296,25.763664663647756]},"properties":{"OBJECTID":178,"HAZUSID":null,"Name":"KINDRED HOSP/S FLORIDA/CORAL GABLES","Address":"5190 SW 8TH ST","City":"CORAL GABLES","Zip":"33134","COUNTY":"MIAMI-DADE","X":-80.278914189999995,"Y":25.76366466,"LONGLAT":"-80.27891419,25.76366466","USNG":"17R NJ 72309 49709","OWNERSHIP":null,"PARCELID":null,"FACILITY_TYPE":"HOSPITAL","TTL_BEDS":55,"EFCLASS":"EFHM"}},{"type":"Feature","id":179,"geometry":{"type":"Point","coordinates":[-80.2036956517654,25.930268428398993]},"properties":{"OBJECTID":179,"HAZUSID":null,"Name":"JACKSON NORTH MED CNTR","Address":"160 NW 170TH ST","City":"NORTH MIAMI BEACH","Zip":"33169","COUNTY":"MIAMI-DADE","X":-80.20369565,"Y":25.930268430000002,"LONGLAT":"-80.20369565,25.93026843","USNG":"17R NJ 79740 68203","OWNERSHIP":null,"PARCELID":null,"FACILITY_TYPE":"HOSPITAL - ACUTE CARE","TTL_BEDS":382,"EFCLASS":"EFHL"}},{"type":"Feature","id":180,"geometry":{"type":"Point","coordinates":[-80.339372866643174,25.684130686358877]},"properties":{"OBJECTID":180,"HAZUSID":null,"Name":"BAPTIST HOSP OF MIA","Address":"8900 N KENDALL DR","City":"MIAMI","Zip":"33176","COUNTY":"MIAMI-DADE","X":-80.339372870000005,"Y":25.68413069,"LONGLAT":"-80.33937287,25.68413069","USNG":"17R NJ 66290 40869","OWNERSHIP":null,"PARCELID":null,"FACILITY_TYPE":"HOSPITAL - ACUTE CARE","TTL_BEDS":728,"EFCLASS":"EFHL"}},{"type":"Feature","id":181,"geometry":{"type":"Point","coordinates":[-80.317632927672605,25.747354826521264]},"properties":{"OBJECTID":181,"HAZUSID":null,"Name":"WESTCHESTER GENERAL HOSPITAL","Address":"2500 SW 75TH AVE","City":"MIAMI","Zip":"33155","COUNTY":"MIAMI-DADE","X":-80.317632930000002,"Y":25.747354829999999,"LONGLAT":"-80.31763293,25.74735483","USNG":"17R NJ 68436 47882","OWNERSHIP":null,"PARCELID":null,"FACILITY_TYPE":"HOSPITAL - ACUTE CARE","TTL_BEDS":125,"EFCLASS":"EFHL"}},{"type":"Feature","id":182,"geometry":{"type":"Point","coordinates":[-80.491420425134976,25.419438021891658]},"properties":{"OBJECTID":182,"HAZUSID":null,"Name":"SOUTH FL EVALUATION AND TREATMENT CNTR","Address":"18680 SW 376 ST","City":"FLORIDA CITY","Zip":"33034","COUNTY":"MIAMI-DADE","X":-80.491420430000005,"Y":25.419438020000001,"LONGLAT":"-80.49142043,25.41943802","USNG":"17R NJ 51145 11490","OWNERSHIP":null,"PARCELID":null,"FACILITY_TYPE":"HOSPITAL","TTL_BEDS":249,"EFCLASS":"EFHL"}},{"type":"Feature","id":183,"geometry":{"type":"Point","coordinates":[-80.213387363424076,25.740461332708659]},"properties":{"OBJECTID":183,"HAZUSID":null,"Name":"SISTER EMMANUEL HOSPITAL","Address":"3663 S MIAMI AVE","City":"MIAMI","Zip":"33133","COUNTY":"MIAMI-DADE","X":-80.213387359999999,"Y":25.740461329999999,"LONGLAT":"-80.21338736,25.74046133","USNG":"17R NJ 78896 47177","OWNERSHIP":null,"PARCELID":null,"FACILITY_TYPE":"HOSPITAL","TTL_BEDS":29,"EFCLASS":"EFHS"}},{"type":"Feature","id":184,"geometry":{"type":"Point","coordinates":[-80.316743179866094,25.746994537540978]},"properties":{"OBJECTID":184,"HAZUSID":null,"Name":"WEST GABLES REHABILITATION HOSPITAL","Address":"2525 SW 75TH AVE","City":"MIAMI","Zip":"33155","COUNTY":"MIAMI-DADE","X":-80.316743180000003,"Y":25.746994539999999,"LONGLAT":"-80.31674318,25.74699454","USNG":"17R NJ 68525 47843","OWNERSHIP":null,"PARCELID":null,"FACILITY_TYPE":"HOSPITAL","TTL_BEDS":60,"EFCLASS":"EFHM"}},{"type":"Feature","id":185,"geometry":{"type":"Point","coordinates":[-80.210849369873955,25.777015102273641]},"properties":{"OBJECTID":185,"HAZUSID":null,"Name":"SELECT SPECIALTY HOSPITAL - MIAMI","Address":"955 NW 3RD ST SUITE #736","City":"MIAMI","Zip":"33128","COUNTY":"MIAMI-DADE","X":-80.210849370000005,"Y":25.7770151,"LONGLAT":"-80.21084937,25.77701510","USNG":"17R NJ 79126 51227","OWNERSHIP":null,"PARCELID":null,"FACILITY_TYPE":"HOSPITAL","TTL_BEDS":47,"EFCLASS":"EFHS"}},{"type":"Feature","id":186,"geometry":{"type":"Point","coordinates":[-80.21070602232507,25.791024019156279]},"properties":{"OBJECTID":186,"HAZUSID":null,"Name":"BASCOM PALMER EYE INSTITUTE","Address":"900 NW 17TH ST","City":"MIAMI","Zip":"33136","COUNTY":"MIAMI-DADE","X":-80.210706020000003,"Y":25.791024019999998,"LONGLAT":"-80.21070602,25.79102402","USNG":"17R NJ 79131 52778","OWNERSHIP":null,"PARCELID":null,"FACILITY_TYPE":"HOSPITAL","TTL_BEDS":100,"EFCLASS":"EFHM"}},{"type":"Feature","id":187,"geometry":{"type":"Point","coordinates":[-80.192505738144618,25.822825870087954]},"properties":{"OBJECTID":187,"HAZUSID":null,"Name":"DOUGLAS GARDENS HOSP","Address":"5200 NE 2ND AVE","City":"MIAMI","Zip":"33137","COUNTY":"MIAMI-DADE","X":-80.192505740000001,"Y":25.822825869999999,"LONGLAT":"-80.19250574,25.82282587","USNG":"17R NJ 80934 56311","OWNERSHIP":null,"PARCELID":null,"FACILITY_TYPE":"HOSPITAL","TTL_BEDS":32,"EFCLASS":"EFHS"}},{"type":"Feature","id":188,"geometry":{"type":"Point","coordinates":[-80.342979565609085,25.883656488199531]},"properties":{"OBJECTID":188,"HAZUSID":null,"Name":"ST CATHERINE'S WEST REHAB HOSPITAL","Address":"8850 NW 122 ST","City":"HIALEAH GARDENS","Zip":"33018","COUNTY":"MIAMI-DADE","X":-80.342979569999997,"Y":25.88365649,"LONGLAT":"-80.34297957,25.88365649","USNG":"17R NJ 65818 62964","OWNERSHIP":null,"PARCELID":null,"FACILITY_TYPE":"HOSPITAL","TTL_BEDS":40,"EFCLASS":"EFHS"}},{"type":"Feature","id":189,"geometry":{"type":"Point","coordinates":[-80.341340143337405,25.574757293601397]},"properties":{"OBJECTID":189,"HAZUSID":null,"Name":"HEALTHSOUTH REHAB HOSP OF MIA","Address":"20601 OLD CUTLER RD","City":"MIAMI","Zip":"33189","COUNTY":"MIAMI-DADE","X":-80.34134014,"Y":25.574757290000001,"LONGLAT":"-80.34134014,25.57475729","USNG":"17R NJ 66153 28756","OWNERSHIP":null,"PARCELID":null,"FACILITY_TYPE":"HOSPITAL","TTL_BEDS":60,"EFCLASS":"EFHM"}},{"type":"Feature","id":190,"geometry":{"type":"Point","coordinates":[-80.177318379972846,25.889903748885622]},"properties":{"OBJECTID":190,"HAZUSID":null,"Name":"ST CATHERINE'S REHABILITATION HOSPITAL","Address":"1050 NE 125TH ST","City":"NORTH MIAMI","Zip":"33161","COUNTY":"MIAMI-DADE","X":-80.177318380000003,"Y":25.889903749999998,"LONGLAT":"-80.17731838,25.88990375","USNG":"17R NJ 82410 63749","OWNERSHIP":null,"PARCELID":null,"FACILITY_TYPE":"HOSPITAL","TTL_BEDS":22,"EFCLASS":"EFHS"}},{"type":"Feature","id":191,"geometry":{"type":"Point","coordinates":[-80.269352621064144,25.845563108473996]},"properties":{"OBJECTID":191,"HAZUSID":null,"Name":"HIALEAH HOSP","Address":"651 E 25TH ST","City":"HIALEAH","Zip":"33013","COUNTY":"MIAMI-DADE","X":-80.269352620000006,"Y":25.845563110000001,"LONGLAT":"-80.26935262,25.84556311","USNG":"17R NJ 73218 58784","OWNERSHIP":null,"PARCELID":null,"FACILITY_TYPE":"HOSPITAL - ACUTE CARE","TTL_BEDS":378,"EFCLASS":"EFHL"}},{"type":"Feature","id":192,"geometry":{"type":"Point","coordinates":[-80.455955946653347,25.678167268105071]},"properties":{"OBJECTID":192,"HAZUSID":null,"Name":"WEST KENDALL BAPTIST HOSPITAL","Address":"9555 SW 162 AVE","City":"MIAMI","Zip":"33196","COUNTY":"MIAMI-DADE","X":-80.455955950000003,"Y":25.678167269999999,"LONGLAT":"-80.45595595,25.67816727","USNG":"17R NJ 54594 40156","OWNERSHIP":null,"PARCELID":null,"FACILITY_TYPE":"HOSPITAL - ACUTE CARE","TTL_BEDS":133,"EFCLASS":"EFHL"}},{"type":"Feature","id":193,"geometry":{"type":"Point","coordinates":[-80.138299457032431,25.815399982081239]},"properties":{"OBJECTID":193,"HAZUSID":null,"Name":"MOUNT SINAI MEDIAL CENTER","Address":"4300 ALTON ROAD","City":"MIAMI BEACH","Zip":"33140","COUNTY":"MIAMI-DADE","X":-80.138299459999999,"Y":25.815399979999999,"LONGLAT":"-80.13829946,25.81539998","USNG":"17R NJ 86373 55523","OWNERSHIP":null,"PARCELID":null,"FACILITY_TYPE":"HOSPITAL - ACUTE CARE","TTL_BEDS":955,"EFCLASS":"EFHL"}},{"type":"Feature","id":194,"geometry":{"type":"Point","coordinates":[-80.140451321644349,25.813433066676115]},"properties":{"OBJECTID":194,"HAZUSID":null,"Name":"MOUNT SINAI MEDICAL CNTR","Address":"4300 ALTON RD","City":"MIAMI BEACH","Zip":"33140","COUNTY":"MIAMI-DADE","X":-80.140451319999997,"Y":25.813433069999999,"LONGLAT":"-80.14045132,25.81343307","USNG":"17R NJ 86159 55304","OWNERSHIP":null,"PARCELID":null,"FACILITY_TYPE":"HOSPITAL - ACUTE CARE","TTL_BEDS":672,"EFCLASS":"EFHL"}},{"type":"Feature","id":195,"geometry":{"type":"Point","coordinates":[-80.31228601416646,25.868681280517563]},"properties":{"OBJECTID":195,"HAZUSID":null,"Name":"LARKIN COMM HOSP PALM SPRINGS CAMPUS ","Address":"1475 W 49TH ST","City":"HIALEAH","Zip":"33012","COUNTY":"MIAMI-DADE","X":-80.312286009999994,"Y":25.868681280000001,"LONGLAT":"-80.31228601,25.86868128","USNG":"17R NJ 68902 61321","OWNERSHIP":null,"PARCELID":null,"FACILITY_TYPE":"HOSPITAL - ACUTE CARE","TTL_BEDS":247,"EFCLASS":"EFHL"}},{"type":"Feature","id":196,"geometry":{"type":"Point","coordinates":[-80.430021509792411,25.480038852339334]},"properties":{"OBJECTID":196,"HAZUSID":null,"Name":"HOMESTEAD HOSP","Address":"975 BAPTIST WAY","City":"HOMESTEAD","Zip":"33033","COUNTY":"MIAMI-DADE","X":-80.430021510000003,"Y":25.48003885,"LONGLAT":"-80.43002151,25.48003885","USNG":"17R NJ 57291 18226","OWNERSHIP":null,"PARCELID":null,"FACILITY_TYPE":"HOSPITAL - ACUTE CARE","TTL_BEDS":142,"EFCLASS":"EFHL"}},{"type":"Feature","id":197,"geometry":{"type":"Point","coordinates":[-80.332345999740483,25.89927699955043]},"properties":{"OBJECTID":197,"HAZUSID":null,"Name":"PROMISE HOSP OF MIAMI","Address":"14001 NW 82ND AVE","City":"MIAMI LAKES","Zip":"33016","COUNTY":"MIAMI-DADE","X":-80.332346000000001,"Y":25.899277000000001,"LONGLAT":"-80.33234600,25.89927700","USNG":"17R NJ 66875 64699","OWNERSHIP":null,"PARCELID":null,"FACILITY_TYPE":"HOSPITAL - ACUTE CARE","TTL_BEDS":60,"EFCLASS":"EFHM"}},{"type":"Feature","id":198,"geometry":{"type":"Point","coordinates":[-80.273882018159497,25.724420753217306]},"properties":{"OBJECTID":198,"HAZUSID":null,"Name":"HEALTH SOUTH DOCTOR'S HOSP","Address":"5000 UNIVERSITY DR","City":"CORAL GABLES","Zip":"33146","COUNTY":"MIAMI-DADE","X":-80.273882020000002,"Y":25.72442075,"LONGLAT":"-80.27388202,25.72442075","USNG":"17R NJ 72838 45366","OWNERSHIP":null,"PARCELID":null,"FACILITY_TYPE":"HOSPITAL - ACUTE CARE","TTL_BEDS":281,"EFCLASS":"EFHL"}},{"type":"Feature","id":199,"geometry":{"type":"Point","coordinates":[-80.214373177239708,25.859493280001594]},"properties":{"OBJECTID":199,"HAZUSID":null,"Name":"NORTH SHORE MEDICAL CNTR","Address":"1100 NW 95TH ST","City":"MIAMI","Zip":"33150","COUNTY":"MIAMI-DADE","X":-80.214373179999996,"Y":25.859493279999999,"LONGLAT":"-80.21437318,25.85949328","USNG":"17R NJ 78718 60359","OWNERSHIP":null,"PARCELID":null,"FACILITY_TYPE":"HOSPITAL - ACUTE CARE","TTL_BEDS":337,"EFCLASS":"EFHL"}},{"type":"Feature","id":200,"geometry":{"type":"Point","coordinates":[-80.293485160919047,25.778342700146208]},"properties":{"OBJECTID":200,"HAZUSID":null,"Name":"MIAMI MEDICAL CNTR, THE","Address":"5959 NW 7TH ST","City":"MIAMI","Zip":"33126","COUNTY":"MIAMI-DADE","X":-80.293485160000003,"Y":25.7783427,"LONGLAT":"-80.29348516,25.77834270","USNG":"17R NJ 70839 51327","OWNERSHIP":null,"PARCELID":null,"FACILITY_TYPE":"HOSPITAL - ACUTE CARE","TTL_BEDS":69,"EFCLASS":"EFHM"}},{"type":"Feature","id":201,"geometry":{"type":"Point","coordinates":[-80.321522855791514,25.860370723063351]},"properties":{"OBJECTID":201,"HAZUSID":null,"Name":"SOUTHERN WINDS HOSPITAL","Address":"4225 W 20TH AVE","City":"HIALEAH","Zip":"33012","COUNTY":"MIAMI-DADE","X":-80.321522860000002,"Y":25.860370719999999,"LONGLAT":"-80.32152286,25.86037072","USNG":"17R NJ 67981 60396","OWNERSHIP":null,"PARCELID":null,"FACILITY_TYPE":"HOSPITAL - ACUTE CARE","TTL_BEDS":72,"EFCLASS":"EFHM"}},{"type":"Feature","id":202,"geometry":{"type":"Point","coordinates":[-80.386059665443724,25.730836850585661]},"properties":{"OBJECTID":202,"HAZUSID":null,"Name":"KENDALL REGIONAL MED CNTR","Address":"11750 BIRD RD","City":"MIAMI","Zip":"33175","COUNTY":"MIAMI-DADE","X":-80.386059669999995,"Y":25.730836849999999,"LONGLAT":"-80.38605967,25.73083685","USNG":"17R NJ 61581 46019","OWNERSHIP":null,"PARCELID":null,"FACILITY_TYPE":"HOSPITAL - TRAUMA","TTL_BEDS":417,"EFCLASS":"EFHL"}},{"type":"Feature","id":203,"geometry":{"type":"Point","coordinates":[-80.34467450698952,25.62990566497432]},"properties":{"OBJECTID":203,"HAZUSID":null,"Name":"JACKSON SOUTH COMM HOSP","Address":"9333 SW 152ND ST","City":"MIAMI","Zip":"33157","COUNTY":"MIAMI-DADE","X":-80.344674510000004,"Y":25.629905669999999,"LONGLAT":"-80.34467451,25.62990567","USNG":"17R NJ 65788 34862","OWNERSHIP":null,"PARCELID":null,"FACILITY_TYPE":"HOSPITAL - ACUTE CARE","TTL_BEDS":226,"EFCLASS":"EFHL"}},{"type":"Feature","id":204,"geometry":{"type":"Point","coordinates":[-80.340511362350028,25.87619665205483]},"properties":{"OBJECTID":204,"HAZUSID":null,"Name":"HELPING HANDS EXTENDED CARE","Address":"11300 NW 87TH CT SUITE 162-164","City":"HIALEH GARDENS","Zip":"33018","COUNTY":"MIAMI-DADE","X":-80.340511359999994,"Y":25.876196650000001,"LONGLAT":"-80.34051136,25.87619665","USNG":"17R NJ 66070 62139","OWNERSHIP":null,"PARCELID":null,"FACILITY_TYPE":"HOSPITAL - PEDIATRIC","TTL_BEDS":20,"EFCLASS":"EFHS"}},{"type":"Feature","id":205,"geometry":{"type":"Point","coordinates":[-80.254804043879872,25.743605473178697]},"properties":{"OBJECTID":205,"HAZUSID":null,"Name":"CORAL GABLES HOSPI","Address":"3100 DOUGLAS RD","City":"CORAL GABLES","Zip":"33134","COUNTY":"MIAMI-DADE","X":-80.254804039999996,"Y":25.743605469999999,"LONGLAT":"-80.25480404,25.74360547","USNG":"17R NJ 74739 47501","OWNERSHIP":null,"PARCELID":null,"FACILITY_TYPE":"HOSPITAL - ACUTE CARE","TTL_BEDS":245,"EFCLASS":"EFHL"}},{"type":"Feature","id":206,"geometry":{"type":"Point","coordinates":[-80.293154230824015,25.705612344753497]},"properties":{"OBJECTID":206,"HAZUSID":null,"Name":"LARKIN COMMUNITY HOSPITAL","Address":"7031 SW 62ND AVE","City":"SOUTH MIAMI","Zip":"33143","COUNTY":"MIAMI-DADE","X":-80.293154229999999,"Y":25.705612349999999,"LONGLAT":"-80.29315423,25.70561235","USNG":"17R NJ 70915 43272","OWNERSHIP":null,"PARCELID":null,"FACILITY_TYPE":"HOSPITAL - ACUTE CARE","TTL_BEDS":146,"EFCLASS":"EFHL"}},{"type":"Feature","id":207,"geometry":{"type":"Point","coordinates":[-80.215944595929983,25.788695850036408]},"properties":{"OBJECTID":207,"HAZUSID":null,"Name":"U OF M HOSPITAL","Address":"1400 NW 12TH AVE","City":"MIAMI","Zip":"33136","COUNTY":"MIAMI-DADE","X":-80.2159446,"Y":25.78869585,"LONGLAT":"-80.21594460,25.78869585","USNG":"17R NJ 78607 52517","OWNERSHIP":null,"PARCELID":null,"FACILITY_TYPE":"HOSPITAL - ACUTE CARE","TTL_BEDS":560,"EFCLASS":"EFHL"}},{"type":"Feature","id":208,"geometry":{"type":"Point","coordinates":[-80.213387363424076,25.740461332708659]},"properties":{"OBJECTID":208,"HAZUSID":null,"Name":"MERCY HOSP/CAMPUS OF PLANTATION GEN","Address":"3663 S MIAMI AVE","City":"MIAMI","Zip":"33133","COUNTY":"MIAMI-DADE","X":-80.213387359999999,"Y":25.740461329999999,"LONGLAT":"-80.21338736,25.74046133","USNG":"17R NJ 78896 47177","OWNERSHIP":null,"PARCELID":null,"FACILITY_TYPE":"HOSPITAL - ACUTE CARE","TTL_BEDS":488,"EFCLASS":"EFHL"}},{"type":"Feature","id":209,"geometry":{"type":"Point","coordinates":[-80.293903171593243,25.703321164246635]},"properties":{"OBJECTID":209,"HAZUSID":null,"Name":"SOUTH MIAMI HOSPITAL","Address":"6200 SW 73RD ST","City":"SOUTH MIAMI","Zip":"33143","COUNTY":"MIAMI-DADE","X":-80.293903169999993,"Y":25.703321160000002,"LONGLAT":"-80.29390317,25.70332116","USNG":"17R NJ 70842 43018","OWNERSHIP":null,"PARCELID":null,"FACILITY_TYPE":"HOSPITAL - ACUTE CARE","TTL_BEDS":453,"EFCLASS":"EFHL"}},{"type":"Feature","id":210,"geometry":{"type":"Point","coordinates":[-80.326704213352286,25.886042082253624]},"properties":{"OBJECTID":210,"HAZUSID":null,"Name":"PALMETTO GENERAL HOSP","Address":"2001 W 68TH ST","City":"HIALEAH","Zip":"33016","COUNTY":"MIAMI-DADE","X":-80.326704210000003,"Y":25.886042079999999,"LONGLAT":"-80.32670421,25.88604208","USNG":"17R NJ 67447 63236","OWNERSHIP":null,"PARCELID":null,"FACILITY_TYPE":"HOSPITAL - ACUTE CARE","TTL_BEDS":368,"EFCLASS":"EFHL"}},{"type":"Feature","id":211,"geometry":{"type":"Point","coordinates":[-80.216756934170803,25.791244858473686]},"properties":{"OBJECTID":211,"HAZUSID":null,"Name":"MIAMI VA MEDICAL CENTER ","Address":"1201 NW 16TH ST","City":"MIAMI","Zip":"33744","COUNTY":"MIAMI-DADE","X":-80.216756930000003,"Y":25.791244859999999,"LONGLAT":"-80.21675693,25.79124486","USNG":"17R NJ 78524 52799","OWNERSHIP":null,"PARCELID":null,"FACILITY_TYPE":"HOSPITAL - VA","TTL_BEDS":432,"EFCLASS":"EFHL"}},{"type":"Feature","id":212,"geometry":{"type":"Point","coordinates":[-80.145320022485222,25.96960936537517]},"properties":{"OBJECTID":212,"HAZUSID":null,"Name":"AVENTURA HOSP AND MED CENT","Address":"20900 BISCAYNE BLVD","City":"AVENTURA","Zip":"33180","COUNTY":"MIAMI-DADE","X":-80.14532002,"Y":25.969609370000001,"LONGLAT":"-80.14532002,25.96960937","USNG":"17R NJ 85558 72597","OWNERSHIP":null,"PARCELID":null,"FACILITY_TYPE":"HOSPITAL - TRAUMA","TTL_BEDS":407,"EFCLASS":"EFHL"}},{"type":"Feature","id":213,"geometry":{"type":"Point","coordinates":[-80.294461111579523,25.741425642980616]},"properties":{"OBJECTID":213,"HAZUSID":null,"Name":"NICKLAUS CHILDREN'S HOSP","Address":"3100 SW 62ND AVE","City":"MIAMI","Zip":"33155","COUNTY":"MIAMI-DADE","X":-80.29446111,"Y":25.741425639999999,"LONGLAT":"-80.29446111,25.74142564","USNG":"17R NJ 70763 47238","OWNERSHIP":null,"PARCELID":null,"FACILITY_TYPE":"HOSPITAL - TRAUMA","TTL_BEDS":289,"EFCLASS":"EFHL"}},{"type":"Feature","id":214,"geometry":{"type":"Point","coordinates":[-80.213257449447241,25.791842690995765]},"properties":{"OBJECTID":214,"HAZUSID":null,"Name":"Jackson Memorial Hospital","Address":"1611 NW 12TH AVE","City":"MIAMI","Zip":"33136","COUNTY":"MIAMI-DADE","X":-80.21325745,"Y":25.791842689999999,"LONGLAT":"-80.21325745,25.79184269","USNG":"17R NJ 78875 52867","OWNERSHIP":null,"PARCELID":null,"FACILITY_TYPE":"HOSPITAL - TRAUMA","TTL_BEDS":1493,"EFCLASS":"EFHL"}},{"type":"Feature","id":215,"geometry":{"type":"Point","coordinates":[-81.750737000053761,24.568532999520599]},"properties":{"OBJECTID":215,"HAZUSID":null,"Name":"NAVAL BRANCH HEALTH CLINIC KEY WEST ","Address":"1300 DOUGLAS CIRCLE","City":"KEY WEST","Zip":"33040","COUNTY":"MONROE","X":-81.750737000000001,"Y":24.568532999999999,"LONGLAT":"-81.75073700,24.56853300","USNG":"17R MH 23979 17380","OWNERSHIP":null,"PARCELID":null,"FACILITY_TYPE":"HOSPITAL - VA","TTL_BEDS":null,"EFCLASS":"MDFLT"}},{"type":"Feature","id":216,"geometry":{"type":"Point","coordinates":[-81.742367928331817,24.580968596539591]},"properties":{"OBJECTID":216,"HAZUSID":null,"Name":"LOWER KEYS MEDICAL CENTER","Address":"5900 COLLEGE RD","City":"KEY WEST","Zip":"33040","COUNTY":"MONROE","X":-81.74236793,"Y":24.580968599999999,"LONGLAT":"-81.74236793,24.58096860","USNG":"17R MH 24834 18752","OWNERSHIP":null,"PARCELID":null,"FACILITY_TYPE":"HOSPITAL - ACUTE CARE","TTL_BEDS":118,"EFCLASS":"EFHL"}},{"type":"Feature","id":217,"geometry":{"type":"Point","coordinates":[-81.767354784976575,24.564429328202333]},"properties":{"OBJECTID":217,"HAZUSID":null,"Name":"DEPOO HOSP","Address":"1200 KENNEDY DR","City":"KEY WEST","Zip":"33040","COUNTY":"MONROE","X":-81.767354780000005,"Y":24.564429329999999,"LONGLAT":"-81.76735478,24.56442933","USNG":"17R MH 22294 16935","OWNERSHIP":null,"PARCELID":null,"FACILITY_TYPE":"HOSPITAL - ACUTE CARE","TTL_BEDS":49,"EFCLASS":"EFHS"}},{"type":"Feature","id":218,"geometry":{"type":"Point","coordinates":[-80.52152565813951,25.005751656486854]},"properties":{"OBJECTID":218,"HAZUSID":null,"Name":"MARINERS HOSPITAL","Address":"91500 OVERSEAS HWY","City":"TAVERNIER","Zip":"33070","COUNTY":"MONROE","X":-80.521525659999995,"Y":25.005751660000001,"LONGLAT":"-80.52152566,25.00575166","USNG":"17R NH 48280 65669","OWNERSHIP":null,"PARCELID":null,"FACILITY_TYPE":"HOSPITAL - ACUTE CARE","TTL_BEDS":25,"EFCLASS":"EFHS"}},{"type":"Feature","id":219,"geometry":{"type":"Point","coordinates":[-81.094461821074503,24.710723970463182]},"properties":{"OBJECTID":219,"HAZUSID":null,"Name":"FISHERMEN'S HOSP","Address":"3301 OVERSEAS HWY","City":"MARATHON","Zip":"33050","COUNTY":"MONROE","X":-81.094461820000006,"Y":24.71072397,"LONGLAT":"-81.09446182,24.71072397","USNG":"17R MH 90445 32920","OWNERSHIP":null,"PARCELID":null,"FACILITY_TYPE":"HOSPITAL - ACUTE CARE","TTL_BEDS":25,"EFCLASS":"EFHS"}},{"type":"Feature","id":220,"geometry":{"type":"Point","coordinates":[-81.448498309598492,30.653623948877804]},"properties":{"OBJECTID":220,"HAZUSID":null,"Name":"BAPTIST MED CENT NASSAU","Address":"1250 S 18TH ST","City":"FERNANDINA BEACH","Zip":"32034","COUNTY":"NASSAU","X":-81.448498310000005,"Y":30.65362395,"LONGLAT":"-81.44849831,30.65362395","USNG":"17R MP 57029 91301","OWNERSHIP":null,"PARCELID":null,"FACILITY_TYPE":"HOSPITAL - ACUTE CARE","TTL_BEDS":62,"EFCLASS":"EFHM"}},{"type":"Feature","id":221,"geometry":{"type":"Point","coordinates":[-86.566145151731078,30.737002909727046]},"properties":{"OBJECTID":221,"HAZUSID":null,"Name":"NORTH OKALOOSA MEDICAL CNTR","Address":"151 REDSTONE AVE SE","City":"CRESTVIEW","Zip":"32539","COUNTY":"OKALOOSA","X":-86.566145149999997,"Y":30.737002910000001,"LONGLAT":"-86.56614515,30.73700291","USNG":"16R EV 41531 00536","OWNERSHIP":null,"PARCELID":null,"FACILITY_TYPE":"HOSPITAL - ACUTE CARE","TTL_BEDS":110,"EFCLASS":"EFHL"}},{"type":"Feature","id":222,"geometry":{"type":"Point","coordinates":[-86.495466189663944,30.533131533849371]},"properties":{"OBJECTID":222,"HAZUSID":null,"Name":"TWIN CITIES HOSPITAL","Address":"2190 HWY 85 N","City":"NICEVILLE","Zip":"32578","COUNTY":"OKALOOSA","X":-86.495466190000002,"Y":30.533131529999999,"LONGLAT":"-86.49546619,30.53313153","USNG":"16R EU 48399 77971","OWNERSHIP":null,"PARCELID":null,"FACILITY_TYPE":"HOSPITAL - ACUTE CARE","TTL_BEDS":65,"EFCLASS":"EFHM"}},{"type":"Feature","id":223,"geometry":{"type":"Point","coordinates":[-86.472202988937156,30.394116994621363]},"properties":{"OBJECTID":223,"HAZUSID":null,"Name":"REHABILITATION INST OF NORTHWEST FL","Address":"996 AIRPORT RD","City":"DESTIN","Zip":"32547","COUNTY":"OKALOOSA","X":-86.47220299,"Y":30.394117000000001,"LONGLAT":"-86.47220299,30.39411700","USNG":"16R EU 50702 62576","OWNERSHIP":null,"PARCELID":null,"FACILITY_TYPE":"HOSPITAL","TTL_BEDS":20,"EFCLASS":"EFHS"}},{"type":"Feature","id":224,"geometry":{"type":"Point","coordinates":[-86.636060999845725,30.454997999091322]},"properties":{"OBJECTID":224,"HAZUSID":null,"Name":"GULF COAST TREATMENT CENT","Address":"1015 MAR WALT DR","City":"FORT WALTON BEACH","Zip":"32547","COUNTY":"OKALOOSA","X":-86.636060999999998,"Y":30.454998,"LONGLAT":"-86.63606100,30.45499800","USNG":"16R EU 34939 69260","OWNERSHIP":null,"PARCELID":null,"FACILITY_TYPE":"HOSPITAL","TTL_BEDS":24,"EFCLASS":"EFHS"}},{"type":"Feature","id":225,"geometry":{"type":"Point","coordinates":[-86.632849578363135,30.454621999849174]},"properties":{"OBJECTID":225,"HAZUSID":null,"Name":"FT WALTON BEACH MED CENT","Address":"1000 MAR-WALT DR","City":"FORT WALTON BEACH","Zip":"32547","COUNTY":"OKALOOSA","X":-86.632849579999998,"Y":30.454622000000001,"LONGLAT":"-86.63284958,30.45462200","USNG":"16R EU 35248 69220","OWNERSHIP":null,"PARCELID":null,"FACILITY_TYPE":"HOSPITAL - ACUTE CARE","TTL_BEDS":237,"EFCLASS":"EFHL"}},{"type":"Feature","id":226,"geometry":{"type":"Point","coordinates":[-86.552720000249025,30.458829999278326]},"properties":{"OBJECTID":226,"HAZUSID":null,"Name":"96TH MEDICAL GROUP USAF ","Address":"307 BOATNER ROAD","City":"EGLIN AFB","Zip":"32542","COUNTY":"OKALOOSA","X":-86.552719999999994,"Y":30.458829999999999,"LONGLAT":"-86.55272000,30.45883000","USNG":"16R EU 42939 69714","OWNERSHIP":null,"PARCELID":null,"FACILITY_TYPE":"HOSPITAL - VA","TTL_BEDS":null,"EFCLASS":"MDFLT"}},{"type":"Feature","id":227,"geometry":{"type":"Point","coordinates":[-80.829129448144897,27.259843142763316]},"properties":{"OBJECTID":227,"HAZUSID":null,"Name":"RAULERSON HOSPITAL","Address":"1796 HWY 441 NORTH","City":"OKEECHOBEE","Zip":"34972","COUNTY":"OKEECHOBEE","X":-80.829129449999996,"Y":27.259843140000001,"LONGLAT":"-80.82912945,27.25984314","USNG":"17R NL 16913 15227","OWNERSHIP":null,"PARCELID":null,"FACILITY_TYPE":"HOSPITAL - ACUTE CARE","TTL_BEDS":100,"EFCLASS":"EFHM"}},{"type":"Feature","id":228,"geometry":{"type":"Point","coordinates":[-81.378162000481893,28.525990998651654]},"properties":{"OBJECTID":228,"HAZUSID":null,"Name":"ORLANDO REGIONAL MEDICAL CNTR","Address":"52 W UNDERWOOD ST ","City":"ORLANDO","Zip":"32806","COUNTY":"ORANGE","X":-81.378162000000003,"Y":28.525991000000001,"LONGLAT":"-81.37816200,28.52599100","USNG":"17R MM 63000 55529","OWNERSHIP":null,"PARCELID":null,"FACILITY_TYPE":"HOSPITAL - ACUTE CARE","TTL_BEDS":794,"EFCLASS":"EFHL"}},{"type":"Feature","id":229,"geometry":{"type":"Point","coordinates":[-81.369568647067609,28.575563280183424]},"properties":{"OBJECTID":229,"HAZUSID":null,"Name":"FL HOSP","Address":"601 E ROLLINS ST","City":"ORLANDO","Zip":"32803","COUNTY":"ORANGE","X":-81.369568650000005,"Y":28.575563280000001,"LONGLAT":"-81.36956865,28.57556328","USNG":"17R MM 63857 61018","OWNERSHIP":null,"PARCELID":null,"FACILITY_TYPE":"HOSPITAL - ACUTE CARE","TTL_BEDS":1289,"EFCLASS":"EFHL"}},{"type":"Feature","id":230,"geometry":{"type":"Point","coordinates":[-81.272973549104378,28.376739920886248]},"properties":{"OBJECTID":230,"HAZUSID":null,"Name":"NEMOURS CHILDRENS HOSP","Address":"13535 NEMOURS PKWY","City":"ORLANDO","Zip":"32827","COUNTY":"ORANGE","X":-81.272973550000003,"Y":28.376739919999999,"LONGLAT":"-81.27297355,28.37673992","USNG":"17R MM 73254 38967","OWNERSHIP":null,"PARCELID":null,"FACILITY_TYPE":"HOSPITAL - ACUTE CARE","TTL_BEDS":100,"EFCLASS":"EFHM"}},{"type":"Feature","id":231,"geometry":{"type":"Point","coordinates":[-81.326368707386109,28.59832363808686]},"properties":{"OBJECTID":231,"HAZUSID":null,"Name":"WINTER PARK MEMORIAL HOSPITAL","Address":"200 N LAKEMONT AVE ","City":"WINTER PARK","Zip":"32792","COUNTY":"ORANGE","X":-81.326368709999997,"Y":28.59832364,"LONGLAT":"-81.32636871,28.59832364","USNG":"17R MM 68089 63528","OWNERSHIP":null,"PARCELID":null,"FACILITY_TYPE":"HOSPITAL - ACUTE CARE","TTL_BEDS":320,"EFCLASS":"EFHL"}},{"type":"Feature","id":232,"geometry":{"type":"Point","coordinates":[-81.527315349538426,28.550151496902718]},"properties":{"OBJECTID":232,"HAZUSID":null,"Name":"HEALTH CENTRAL","Address":"10000 W COLONIAL DR","City":"OCOEE","Zip":"34761","COUNTY":"ORANGE","X":-81.527315349999995,"Y":28.550151499999998,"LONGLAT":"-81.52731535,28.55015150","USNG":"17R MM 48418 58261","OWNERSHIP":null,"PARCELID":null,"FACILITY_TYPE":"HOSPITAL - ACUTE CARE","TTL_BEDS":171,"EFCLASS":"EFHL"}},{"type":"Feature","id":233,"geometry":{"type":"Point","coordinates":[-81.508649474488735,28.680908966001173]},"properties":{"OBJECTID":233,"HAZUSID":null,"Name":"FL HOSP APOPKA","Address":"201 N PARK AV","City":"APOPKA","Zip":"32703","COUNTY":"ORANGE","X":-81.508649469999995,"Y":28.680908970000001,"LONGLAT":"-81.50864947,28.68090897","USNG":"17R MM 50305 72739","OWNERSHIP":null,"PARCELID":null,"FACILITY_TYPE":"HOSPITAL - ACUTE CARE","TTL_BEDS":50,"EFCLASS":"EFHS"}},{"type":"Feature","id":234,"geometry":{"type":"Point","coordinates":[-81.192688878464864,28.58171411695379]},"properties":{"OBJECTID":234,"HAZUSID":null,"Name":"UNIVERSITY BEHAVIORAL CENTER","Address":"2500 DISCOVERY DR","City":"ORLANDO","Zip":"32826","COUNTY":"ORANGE","X":-81.192688880000006,"Y":28.581714120000001,"LONGLAT":"-81.19268888,28.58171412","USNG":"17R MM 81157 61659","OWNERSHIP":null,"PARCELID":null,"FACILITY_TYPE":"HOSPITAL","TTL_BEDS":112,"EFCLASS":"EFHL"}},{"type":"Feature","id":235,"geometry":{"type":"Point","coordinates":[-81.378310475765659,28.5272198049087]},"properties":{"OBJECTID":235,"HAZUSID":null,"Name":"ORLANDO HEALTH","Address":"52 W UNDERWOOD ST","City":"ORLANDO","Zip":"32806","COUNTY":"ORANGE","X":null,"Y":null,"LONGLAT":null,"USNG":null,"OWNERSHIP":null,"PARCELID":null,"FACILITY_TYPE":"HOSPITAL","TTL_BEDS":null,"EFCLASS":"MDFLT"}},{"type":"Feature","id":236,"geometry":{"type":"Point","coordinates":[-81.364993308494718,28.613021999644126]},"properties":{"OBJECTID":236,"HAZUSID":null,"Name":"LA AMISTAD RESIDENTIAL TREATMENT CNTR","Address":"1650 PARK AVE N","City":"MAITLAND","Zip":"32751","COUNTY":"ORANGE","X":-81.364993310000003,"Y":28.613022000000001,"LONGLAT":"-81.36499331,28.61302200","USNG":"17R MM 64317 65167","OWNERSHIP":null,"PARCELID":null,"FACILITY_TYPE":"HOSPITAL","TTL_BEDS":40,"EFCLASS":"EFHS"}},{"type":"Feature","id":237,"geometry":{"type":"Point","coordinates":[-81.469813523641008,28.408885924240877]},"properties":{"OBJECTID":237,"HAZUSID":null,"Name":"CENTRAL FLORIDA BEHAVIORAL HOSP","Address":"6601 CENTRAL FLORIDA PKWY","City":"ORLANDO","Zip":"32821","COUNTY":"ORANGE","X":-81.469813520000002,"Y":28.40888593,"LONGLAT":"-81.46981352,28.40888593","USNG":"17R MM 53982 42587","OWNERSHIP":null,"PARCELID":null,"FACILITY_TYPE":"HOSPITAL","TTL_BEDS":126,"EFCLASS":"EFHL"}},{"type":"Feature","id":238,"geometry":{"type":"Point","coordinates":[-81.370273691303623,28.571947471998669]},"properties":{"OBJECTID":238,"HAZUSID":null,"Name":"SELECT SPECIALTY HOSPITAL - ORLANDO N.","Address":"2250 BEDFORD RD","City":"ORLANDO","Zip":"32803","COUNTY":"ORANGE","X":-81.370273690000005,"Y":28.571947470000001,"LONGLAT":"-81.37027369,28.57194747","USNG":"17R MM 63787 60618","OWNERSHIP":null,"PARCELID":null,"FACILITY_TYPE":"HOSPITAL","TTL_BEDS":35,"EFCLASS":"EFHS"}},{"type":"Feature","id":239,"geometry":{"type":"Point","coordinates":[-81.434459173701555,28.567176035822023]},"properties":{"OBJECTID":239,"HAZUSID":null,"Name":"LAKESIDE BEHAVIORAL HEALTHCARE,INC","Address":"1800 MERCY DR","City":"ORLANDO","Zip":"32808","COUNTY":"ORANGE","X":-81.434459169999997,"Y":28.56717604,"LONGLAT":"-81.43445917,28.56717604","USNG":"17R MM 57508 60111","OWNERSHIP":null,"PARCELID":null,"FACILITY_TYPE":"HOSPITAL","TTL_BEDS":56,"EFCLASS":"EFHM"}},{"type":"Feature","id":240,"geometry":{"type":"Point","coordinates":[-81.379221370590884,28.523263343703317]},"properties":{"OBJECTID":240,"HAZUSID":null,"Name":"ARNOLD PALMER MED CENT","Address":"92 W MILLER ST","City":"ORLANDO","Zip":"32806","COUNTY":"ORANGE","X":-81.379221369999996,"Y":28.52326334,"LONGLAT":"-81.37922137,28.52326334","USNG":"17R MM 62895 55227","OWNERSHIP":null,"PARCELID":null,"FACILITY_TYPE":"HOSPITAL","TTL_BEDS":473,"EFCLASS":"EFHL"}},{"type":"Feature","id":241,"geometry":{"type":"Point","coordinates":[-81.477303026356068,28.429171331772949]},"properties":{"OBJECTID":241,"HAZUSID":null,"Name":"DR P PHILLIPS HOSP","Address":"9400 TURKEY LAKE RD ","City":"ORLANDO","Zip":"32819","COUNTY":"ORANGE","X":-81.477303030000002,"Y":28.429171329999999,"LONGLAT":"-81.47730303,28.42917133","USNG":"17R MM 53257 44838","OWNERSHIP":null,"PARCELID":null,"FACILITY_TYPE":"HOSPITAL - ACUTE CARE","TTL_BEDS":237,"EFCLASS":"EFHL"}},{"type":"Feature","id":242,"geometry":{"type":"Point","coordinates":[-81.280176755728803,28.540937121428193]},"properties":{"OBJECTID":242,"HAZUSID":null,"Name":"FL HOSP E ORLANDO","Address":"7727 LAKE UNDERHILL RD ","City":"ORLANDO","Zip":"32822","COUNTY":"ORANGE","X":-81.280176760000003,"Y":28.540937119999999,"LONGLAT":"-81.28017676,28.54093712","USNG":"17R MM 72591 57159","OWNERSHIP":null,"PARCELID":null,"FACILITY_TYPE":"HOSPITAL - ACUTE CARE","TTL_BEDS":295,"EFCLASS":"EFHL"}},{"type":"Feature","id":243,"geometry":{"type":"Point","coordinates":[-81.370394178022778,28.477369347369432]},"properties":{"OBJECTID":243,"HAZUSID":null,"Name":"SELECT SPECIALTY HOSPITAL - ORLANDO S.","Address":"5579 S ORANGE AVE ","City":"ORLANDO","Zip":"32809","COUNTY":"ORANGE","X":-81.370394180000005,"Y":28.47736935,"LONGLAT":"-81.37039418,28.47736935","USNG":"17R MM 63743 50140","OWNERSHIP":null,"PARCELID":null,"FACILITY_TYPE":"HOSPITAL","TTL_BEDS":40,"EFCLASS":"EFHS"}},{"type":"Feature","id":244,"geometry":{"type":"Point","coordinates":[-81.379092774404484,28.524517549498725]},"properties":{"OBJECTID":244,"HAZUSID":null,"Name":"WP HOSPITAL FOR WOMEN & BABIES","Address":"83 W MILLER STREET","City":"ORLANDO","Zip":"32806","COUNTY":"ORANGE","X":-81.37909277,"Y":28.524517549999999,"LONGLAT":"-81.37909277,28.52451755","USNG":"17R MM 62908 55366","OWNERSHIP":null,"PARCELID":null,"FACILITY_TYPE":"HOSPITAL","TTL_BEDS":null,"EFCLASS":"MDFLT"}},{"type":"Feature","id":245,"geometry":{"type":"Point","coordinates":[-81.321059156839397,28.580006305507556]},"properties":{"OBJECTID":245,"HAZUSID":null,"Name":"ORLANDO VA HLTHCARE CNTR","Address":"5201 RAYMOND STREET","City":"ORLANDO","Zip":"32803","COUNTY":"ORANGE","X":-81.321059160000004,"Y":28.580006310000002,"LONGLAT":"-81.32105916,28.58000631","USNG":"17R MM 68603 61497","OWNERSHIP":null,"PARCELID":null,"FACILITY_TYPE":"HOSPITAL - VA","TTL_BEDS":100,"EFCLASS":"EFHM"}},{"type":"Feature","id":246,"geometry":{"type":"Point","coordinates":[-81.276053220011008,28.366191132453253]},"properties":{"OBJECTID":246,"HAZUSID":null,"Name":"ORLANDO VA MEDICAL CENTER AT LAKE NONA","Address":"13800 VETERANS WAY","City":"ORLANDO","Zip":"32827","COUNTY":"ORANGE","X":null,"Y":null,"LONGLAT":null,"USNG":null,"OWNERSHIP":null,"PARCELID":null,"FACILITY_TYPE":"HOSPITAL - VA","TTL_BEDS":null,"EFCLASS":"MDFLT"}},{"type":"Feature","id":247,"geometry":{"type":"Point","coordinates":[-81.408966016289966,28.299512517554476]},"properties":{"OBJECTID":247,"HAZUSID":null,"Name":"OSCEOLA REGIONAL MEDICAL CNTR","Address":"700 W OAK ST","City":"KISSIMMEE","Zip":"34741","COUNTY":"OSCEOLA","X":-81.408966019999994,"Y":28.29951252,"LONGLAT":"-81.40896602,28.29951252","USNG":"17R MM 59900 30449","OWNERSHIP":null,"PARCELID":null,"FACILITY_TYPE":"HOSPITAL - TRAUMA","TTL_BEDS":332,"EFCLASS":"EFHL"}},{"type":"Feature","id":248,"geometry":{"type":"Point","coordinates":[-81.302835800829769,28.243609319478683]},"properties":{"OBJECTID":248,"HAZUSID":null,"Name":"ST CLOUD REGIONAL MEDICAL CENTER","Address":"2906 17TH ST","City":"SAINT CLOUD","Zip":"34769","COUNTY":"OSCEOLA","X":-81.302835799999997,"Y":28.243609320000001,"LONGLAT":"-81.30283580,28.24360932","USNG":"17R MM 70291 24225","OWNERSHIP":null,"PARCELID":null,"FACILITY_TYPE":"HOSPITAL - ACUTE CARE","TTL_BEDS":84,"EFCLASS":"EFHM"}},{"type":"Feature","id":249,"geometry":{"type":"Point","coordinates":[-81.476457866167692,28.144738024970241]},"properties":{"OBJECTID":249,"HAZUSID":null,"Name":"POINCIANA MEDI CNTR","Address":"325 CYPRESS PKWY","City":"KISSIMMEE ","Zip":"34758","COUNTY":"OSCEOLA","X":-81.476457870000004,"Y":28.144738029999999,"LONGLAT":"-81.47645787,28.14473803","USNG":"17R MM 53215 13327","OWNERSHIP":null,"PARCELID":null,"FACILITY_TYPE":"HOSPITAL - ACUTE CARE","TTL_BEDS":76,"EFCLASS":"EFHM"}},{"type":"Feature","id":250,"geometry":{"type":"Point","coordinates":[-81.541467465506685,28.32855921169568]},"properties":{"OBJECTID":250,"HAZUSID":null,"Name":"FL HOSP CELEBRATION HEALTH","Address":"400 CELEBRATION PL","City":"CELEBRATION","Zip":"34747","COUNTY":"OSCEOLA","X":-81.541467470000001,"Y":28.328559210000002,"LONGLAT":"-81.54146747,28.32855921","USNG":"17R MM 46923 33718","OWNERSHIP":null,"PARCELID":null,"FACILITY_TYPE":"HOSPITAL - ACUTE CARE","TTL_BEDS":227,"EFCLASS":"EFHL"}},{"type":"Feature","id":251,"geometry":{"type":"Point","coordinates":[-81.405930255480257,28.316090240022177]},"properties":{"OBJECTID":251,"HAZUSID":null,"Name":"FL HOSP KISSIMMEE","Address":"2450 N ORANGE BLOSSOM TRL","City":"KISSIMMEE","Zip":"34744","COUNTY":"OSCEOLA","X":-81.405930260000005,"Y":28.316090240000001,"LONGLAT":"-81.40593026,28.31609024","USNG":"17R MM 60204 32284","OWNERSHIP":null,"PARCELID":null,"FACILITY_TYPE":"HOSPITAL - ACUTE CARE","TTL_BEDS":162,"EFCLASS":"EFHL"}},{"type":"Feature","id":252,"geometry":{"type":"Point","coordinates":[-80.092131937729349,26.597666943938776]},"properties":{"OBJECTID":252,"HAZUSID":null,"Name":"JFK MED CNTR","Address":"5301 S CONGRESS AVE","City":"ATLANTIS","Zip":"33462","COUNTY":"PALM BEACH","X":-80.092131940000002,"Y":26.59766694,"LONGLAT":"-80.09213194,26.59766694","USNG":"17R NK 90394 42195","OWNERSHIP":null,"PARCELID":null,"FACILITY_TYPE":"HOSPITAL - ACUTE CARE","TTL_BEDS":472,"EFCLASS":"EFHL"}},{"type":"Feature","id":253,"geometry":{"type":"Point","coordinates":[-80.102842944194933,26.35884766886323]},"properties":{"OBJECTID":253,"HAZUSID":null,"Name":"BOCA RATON REG HOSP","Address":"800 MEADOWS RD","City":"BOCA RATON","Zip":"33486","COUNTY":"PALM BEACH","X":-80.102842940000002,"Y":26.358847669999999,"LONGLAT":"-80.10284294,26.35884767","USNG":"17R NK 89513 15736","OWNERSHIP":null,"PARCELID":null,"FACILITY_TYPE":"HOSPITAL - ACUTE CARE","TTL_BEDS":400,"EFCLASS":"EFHL"}},{"type":"Feature","id":254,"geometry":{"type":"Point","coordinates":[-80.19976691357806,26.529792927453087]},"properties":{"OBJECTID":254,"HAZUSID":null,"Name":"BETHESDA HOSP W","Address":"9655 W BOYNTON BEACH BLVD ","City":"BOYNTON BEACH","Zip":"33472","COUNTY":"PALM BEACH","X":-80.199766909999994,"Y":26.529792929999999,"LONGLAT":"-80.19976691,26.52979293","USNG":"17R NK 79724 34605","OWNERSHIP":null,"PARCELID":null,"FACILITY_TYPE":"HOSPITAL - ACUTE CARE","TTL_BEDS":80,"EFCLASS":"EFHM"}},{"type":"Feature","id":255,"geometry":{"type":"Point","coordinates":[-80.097074804990356,26.922896454727699]},"properties":{"OBJECTID":255,"HAZUSID":null,"Name":"JUPITER MEDICAL CNTR","Address":"1210 S OLD DIXIE HWY","City":"JUPITER","Zip":"33458","COUNTY":"PALM BEACH","X":-80.097074800000001,"Y":26.92289646,"LONGLAT":"-80.09707480,26.92289646","USNG":"17R NK 89647 78215","OWNERSHIP":null,"PARCELID":null,"FACILITY_TYPE":"HOSPITAL - ACUTE CARE","TTL_BEDS":207,"EFCLASS":"EFHL"}},{"type":"Feature","id":256,"geometry":{"type":"Point","coordinates":[-80.671791529984247,26.724221647357393]},"properties":{"OBJECTID":256,"HAZUSID":null,"Name":"LAKESIDE MEDICAL CNTR","Address":"39200 HOOKER HWY","City":"BELLE GLADE","Zip":"33430","COUNTY":"PALM BEACH","X":-80.671791529999993,"Y":26.72422165,"LONGLAT":"-80.67179153,26.72422165","USNG":"17R NK 32642 55932","OWNERSHIP":null,"PARCELID":null,"FACILITY_TYPE":"HOSPITAL - ACUTE CARE","TTL_BEDS":70,"EFCLASS":"EFHM"}},{"type":"Feature","id":257,"geometry":{"type":"Point","coordinates":[-80.087860575342475,26.761410754226119]},"properties":{"OBJECTID":257,"HAZUSID":null,"Name":"JFK MDCL CNTR N CAMPUS ","Address":"2201 45TH ST","City":"WEST PALM BEACH","Zip":"33407","COUNTY":"PALM BEACH","X":-80.087860579999997,"Y":26.76141075,"LONGLAT":"-80.08786058,26.76141075","USNG":"17R NK 90690 60334","OWNERSHIP":"P","PARCELID":"74434306000001030","FACILITY_TYPE":"HOSPITAL - ACUTE CARE","TTL_BEDS":245,"EFCLASS":"EFHL"}},{"type":"Feature","id":258,"geometry":{"type":"Point","coordinates":[-80.199761595814692,26.356452843405119]},"properties":{"OBJECTID":258,"HAZUSID":null,"Name":"WEST BOCA MEDICAL CNTR","Address":"21644 STATE RD 7","City":"BOCA RATON","Zip":"33428","COUNTY":"PALM BEACH","X":-80.199761600000002,"Y":26.356452839999999,"LONGLAT":"-80.19976160,26.35645284","USNG":"17R NK 79844 15407","OWNERSHIP":null,"PARCELID":null,"FACILITY_TYPE":"HOSPITAL - ACUTE CARE","TTL_BEDS":195,"EFCLASS":"EFHL"}},{"type":"Feature","id":259,"geometry":{"type":"Point","coordinates":[-80.086051587203826,26.829204497632986]},"properties":{"OBJECTID":259,"HAZUSID":null,"Name":"PALM BEACH GARDENS MEDICAL CNTR","Address":"3360 BURNS RD","City":"PALM BEACH GARDENS","Zip":"33410","COUNTY":"PALM BEACH","X":-80.086051589999997,"Y":26.829204499999999,"LONGLAT":"-80.08605159,26.82920450","USNG":"17R NK 90816 67845","OWNERSHIP":null,"PARCELID":null,"FACILITY_TYPE":"HOSPITAL - ACUTE CARE","TTL_BEDS":199,"EFCLASS":"EFHL"}},{"type":"Feature","id":260,"geometry":{"type":"Point","coordinates":[-80.070710607662591,26.505302297823938]},"properties":{"OBJECTID":260,"HAZUSID":null,"Name":"BETHESDA HOSP E","Address":"2815 S SEACREST BLVD","City":"BOYNTON BEACH","Zip":"33435","COUNTY":"PALM BEACH","X":-80.070710610000006,"Y":26.5053023,"LONGLAT":"-80.07071061,26.50530230","USNG":"17R NK 92602 31979","OWNERSHIP":null,"PARCELID":null,"FACILITY_TYPE":"HOSPITAL - ACUTE CARE","TTL_BEDS":401,"EFCLASS":"EFHL"}},{"type":"Feature","id":261,"geometry":{"type":"Point","coordinates":[-80.2058658789107,26.651717464251664]},"properties":{"OBJECTID":261,"HAZUSID":null,"Name":"WELLINGTON REGIONAL MEDICAL CNTR","Address":"10101 FOREST HILL BLVD","City":"WELLINGTON","Zip":"33414","COUNTY":"PALM BEACH","X":-80.205865880000005,"Y":26.651717470000001,"LONGLAT":"-80.20586588,26.65171747","USNG":"17R NK 79032 48106","OWNERSHIP":null,"PARCELID":null,"FACILITY_TYPE":"HOSPITAL - ACUTE CARE","TTL_BEDS":233,"EFCLASS":"EFHL"}},{"type":"Feature","id":262,"geometry":{"type":"Point","coordinates":[-80.051163475323563,26.72540108866113]},"properties":{"OBJECTID":262,"HAZUSID":null,"Name":"GOOD SAMARITAN MED CENT","Address":"1309 N FLAGLER DR","City":"WEST PALM BEACH","Zip":"33401","COUNTY":"PALM BEACH","X":-80.05116348,"Y":26.725401089999998,"LONGLAT":"-80.05116348,26.72540109","USNG":"17R NK 94369 56372","OWNERSHIP":null,"PARCELID":null,"FACILITY_TYPE":"HOSPITAL - ACUTE CARE","TTL_BEDS":333,"EFCLASS":"EFHL"}},{"type":"Feature","id":263,"geometry":{"type":"Point","coordinates":[-80.252585410078481,26.683756315409447]},"properties":{"OBJECTID":263,"HAZUSID":null,"Name":"PALMS WEST HOSP","Address":"13001 SOUTHERN BLVD","City":"LOXAHATCHEE","Zip":"33470","COUNTY":"PALM BEACH","X":-80.252585409999995,"Y":26.683756320000001,"LONGLAT":"-80.25258541,26.68375632","USNG":"17R NK 74362 51626","OWNERSHIP":null,"PARCELID":null,"FACILITY_TYPE":"HOSPITAL - ACUTE CARE","TTL_BEDS":204,"EFCLASS":"EFHL"}},{"type":"Feature","id":264,"geometry":{"type":"Point","coordinates":[-80.091439895745296,26.609208895212099]},"properties":{"OBJECTID":264,"HAZUSID":null,"Name":"SELECT SPECIALTY HOSPITAL - PALM BEACH","Address":"3060 MELALEUCA LANE","City":"LAKE WORTH","Zip":"33461","COUNTY":"PALM BEACH","X":-80.091439899999997,"Y":26.609208899999999,"LONGLAT":"-80.09143990,26.60920890","USNG":"17R NK 90454 43473","OWNERSHIP":"PR","PARCELID":"00434430220000000","FACILITY_TYPE":"HOSPITAL","TTL_BEDS":60,"EFCLASS":"EFHM"}},{"type":"Feature","id":265,"geometry":{"type":"Point","coordinates":[-80.110404644937063,26.782934390311461]},"properties":{"OBJECTID":265,"HAZUSID":null,"Name":"KINDRED HOSP - PALM BEACHES","Address":"5555 W BLUE HERON BLVD","City":"RIVIERA BEACH","Zip":"33418","COUNTY":"PALM BEACH","X":-80.110404639999999,"Y":26.782934390000001,"LONGLAT":"-80.11040464,26.78293439","USNG":"17R NK 88432 62702","OWNERSHIP":"PR","PARCELID":"56424225410000010","FACILITY_TYPE":"HOSPITAL","TTL_BEDS":70,"EFCLASS":"EFHM"}},{"type":"Feature","id":266,"geometry":{"type":"Point","coordinates":[-80.067468064609557,26.754010260123081]},"properties":{"OBJECTID":266,"HAZUSID":null,"Name":"JEROME GOLDEN CNTR/BEHAVIORAL HLTH","Address":"1041 45TH ST","City":"WEST PALM BEACH","Zip":"33407","COUNTY":"PALM BEACH","X":-80.067468059999996,"Y":26.754010260000001,"LONGLAT":"-80.06746806,26.75401026","USNG":"17R NK 92724 59529","OWNERSHIP":null,"PARCELID":null,"FACILITY_TYPE":"HOSPITAL","TTL_BEDS":44,"EFCLASS":"EFHS"}},{"type":"Feature","id":267,"geometry":{"type":"Point","coordinates":[-80.149564353760113,26.515039204673329]},"properties":{"OBJECTID":267,"HAZUSID":null,"Name":"JFK ER BOYNTON BEACH","Address":"10921 S JOG RD","City":"BOYNTON BEACH","Zip":"33437","COUNTY":"PALM BEACH","X":-80.149564350000006,"Y":26.515039210000001,"LONGLAT":"-80.14956435,26.51503921","USNG":"17R NK 84736 33003","OWNERSHIP":null,"PARCELID":null,"FACILITY_TYPE":"HOSPITAL - TRAUMA","TTL_BEDS":null,"EFCLASS":"MDFLT"}},{"type":"Feature","id":268,"geometry":{"type":"Point","coordinates":[-80.12708353388264,26.43717470469824]},"properties":{"OBJECTID":268,"HAZUSID":null,"Name":"DELRAY MED CENT","Address":"5352 LINTON BLVD","City":"DELRAY BEACH","Zip":"33484","COUNTY":"PALM BEACH","X":-80.127083529999993,"Y":26.437174710000001,"LONGLAT":"-80.12708353,26.43717471","USNG":"17R NK 87035 24394","OWNERSHIP":null,"PARCELID":null,"FACILITY_TYPE":"HOSPITAL - TRAUMA","TTL_BEDS":493,"EFCLASS":"EFHL"}},{"type":"Feature","id":269,"geometry":{"type":"Point","coordinates":[-80.061874246445029,26.755915503603209]},"properties":{"OBJECTID":269,"HAZUSID":null,"Name":"ST MARY'S MEDICAL CNTR","Address":"901 45TH ST","City":"WEST PALM BEACH","Zip":"33407","COUNTY":"PALM BEACH","X":-80.061874250000002,"Y":26.7559155,"LONGLAT":"-80.06187425,26.75591550","USNG":"17R NK 93278 59744","OWNERSHIP":null,"PARCELID":null,"FACILITY_TYPE":"HOSPITAL - TRAUMA","TTL_BEDS":464,"EFCLASS":"EFHL"}},{"type":"Feature","id":270,"geometry":{"type":"Point","coordinates":[-80.112125338685559,26.785275765647224]},"properties":{"OBJECTID":270,"HAZUSID":null,"Name":"WEST PALM BEACH VA MEDICAL CNTR","Address":"7305 N. MILITARY TRAIL","City":"WEST PALM BEACH","Zip":"33410","COUNTY":"PALM BEACH","X":-80.112125340000006,"Y":26.785275769999998,"LONGLAT":"-80.11212534,26.78527577","USNG":"17R NK 88259 62961","OWNERSHIP":"F","PARCELID":"56424225000007070","FACILITY_TYPE":"HOSPITAL - VA","TTL_BEDS":270,"EFCLASS":"EFHL"}},{"type":"Feature","id":271,"geometry":{"type":"Point","coordinates":[-82.668909999724349,28.300529999532003]},"properties":{"OBJECTID":271,"HAZUSID":null,"Name":"NEW PORTRICHEY CLIN","Address":"9912 LITTLE ROAD ","City":"NEW PORT RICHEY ","Zip":"34654","COUNTY":"PASCO","X":-82.668909999999997,"Y":28.300529999999998,"LONGLAT":"-82.66891000,28.30053000","USNG":"17R LM 36353 31624","OWNERSHIP":null,"PARCELID":null,"FACILITY_TYPE":"HOSPITAL - VA","TTL_BEDS":null,"EFCLASS":"MDFLT"}},{"type":"Feature","id":272,"geometry":{"type":"Point","coordinates":[-82.691736025122779,28.223988336754285]},"properties":{"OBJECTID":272,"HAZUSID":null,"Name":"ALL CHILDRENS HOSPITAL","Address":"4443 ROWAN RD","City":"NEW PORT RICHEY","Zip":"34653","COUNTY":"PASCO","X":-82.691736030000001,"Y":28.223988339999998,"LONGLAT":"-82.69173603,28.22398834","USNG":"17R LM 33996 23174","OWNERSHIP":null,"PARCELID":null,"FACILITY_TYPE":"HOSPITAL","TTL_BEDS":null,"EFCLASS":"MDFLT"}},{"type":"Feature","id":273,"geometry":{"type":"Point","coordinates":[-82.489961770717329,28.295282607162321]},"properties":{"OBJECTID":273,"HAZUSID":null,"Name":"FLORIDA HOSPITAL AT CONNERTON","Address":"9441 HEALTH CENTER DR","City":"LAND O LAKES","Zip":"34637","COUNTY":"PASCO","X":-82.489961769999994,"Y":28.295282610000001,"LONGLAT":"-82.48996177,28.29528261","USNG":"17R LM 53895 30813","OWNERSHIP":null,"PARCELID":null,"FACILITY_TYPE":"HOSPITAL","TTL_BEDS":50,"EFCLASS":"EFHS"}},{"type":"Feature","id":274,"geometry":{"type":"Point","coordinates":[-82.351128750077379,28.195572210437444]},"properties":{"OBJECTID":274,"HAZUSID":null,"Name":"FLORIDA HOSPITAL OF WESLEY CHAPEL","Address":"2600 BRUCE B DOWNS BLVD","City":"WESLEY CHAPEL","Zip":"33544","COUNTY":"PASCO","X":-82.351128750000001,"Y":28.195572210000002,"LONGLAT":"-82.35112875,28.19557221","USNG":"17R LM 67387 19606","OWNERSHIP":null,"PARCELID":null,"FACILITY_TYPE":"HOSPITAL - ACUTE CARE","TTL_BEDS":83,"EFCLASS":"EFHM"}},{"type":"Feature","id":275,"geometry":{"type":"Point","coordinates":[-82.344500000156174,28.18929999914954]},"properties":{"OBJECTID":275,"HAZUSID":null,"Name":"N TAMPA BEHAVIORAL HEALTH","Address":"29910 SR 56","City":"WESLEY CHAPEL","Zip":"33543","COUNTY":"PASCO","X":-82.344499999999996,"Y":28.189299999999999,"LONGLAT":"-82.34450000,28.18930000","USNG":"17R LM 68030 18903","OWNERSHIP":null,"PARCELID":null,"FACILITY_TYPE":"HOSPITAL","TTL_BEDS":75,"EFCLASS":"EFHM"}},{"type":"Feature","id":276,"geometry":{"type":"Point","coordinates":[-82.455150737414044,28.186832006706332]},"properties":{"OBJECTID":276,"HAZUSID":null,"Name":"MORTON PLANT NORTH BAY HOSPITAL RECOVERY","Address":"21808 STATE ROAD 54","City":"LUTZ","Zip":"33549","COUNTY":"PASCO","X":-82.455150739999993,"Y":28.18683201,"LONGLAT":"-82.45515074,28.18683201","USNG":"17R LM 57164 18755","OWNERSHIP":null,"PARCELID":null,"FACILITY_TYPE":"HOSPITAL","TTL_BEDS":72,"EFCLASS":"EFHM"}},{"type":"Feature","id":277,"geometry":{"type":"Point","coordinates":[-82.185195534166652,28.260880095872775]},"properties":{"OBJECTID":277,"HAZUSID":null,"Name":"FLORIDA HOSPITAL OF ZEPHYRHILLS","Address":"7050 GALL BLVD","City":"ZEPHYRHILLS","Zip":"33541","COUNTY":"PASCO","X":-82.185195530000001,"Y":28.260880100000001,"LONGLAT":"-82.18519553,28.26088010","USNG":"17R LM 83745 26671","OWNERSHIP":null,"PARCELID":null,"FACILITY_TYPE":"HOSPITAL - ACUTE CARE","TTL_BEDS":140,"EFCLASS":"EFHL"}},{"type":"Feature","id":278,"geometry":{"type":"Point","coordinates":[-82.660062263095867,28.203786107809236]},"properties":{"OBJECTID":278,"HAZUSID":null,"Name":"MEDICAL CENTER OF TRINITY","Address":"9330 STATE ROAD 54","City":"TRINITY","Zip":"34655","COUNTY":"PASCO","X":-82.660062260000004,"Y":28.203786109999999,"LONGLAT":"-82.66006226,28.20378611","USNG":"17R LM 37073 20892","OWNERSHIP":null,"PARCELID":null,"FACILITY_TYPE":"HOSPITAL - ACUTE CARE","TTL_BEDS":242,"EFCLASS":"EFHL"}},{"type":"Feature","id":279,"geometry":{"type":"Point","coordinates":[-82.714460227739991,28.254072251622578]},"properties":{"OBJECTID":279,"HAZUSID":null,"Name":"MORTON PLANT NORTH BAY HOSPITAL","Address":"6600 MADISON ST","City":"NEW PORT RICHEY","Zip":"34652","COUNTY":"PASCO","X":-82.71446023,"Y":28.25407225,"LONGLAT":"-82.71446023,28.25407225","USNG":"17R LM 31813 26539","OWNERSHIP":null,"PARCELID":null,"FACILITY_TYPE":"HOSPITAL - ACUTE CARE","TTL_BEDS":156,"EFCLASS":"EFHL"}},{"type":"Feature","id":280,"geometry":{"type":"Point","coordinates":[-82.688238228373734,28.361274041957767]},"properties":{"OBJECTID":280,"HAZUSID":null,"Name":"REGIONAL MEDICAL CENTER BAYONET POINT","Address":"14000 FIVAY RD","City":"HUDSON","Zip":"34667","COUNTY":"PASCO","X":-82.688238229999996,"Y":28.361274040000001,"LONGLAT":"-82.68823823,28.36127404","USNG":"17R LM 34551 38381","OWNERSHIP":null,"PARCELID":null,"FACILITY_TYPE":"HOSPITAL - ACUTE CARE","TTL_BEDS":290,"EFCLASS":"EFHL"}},{"type":"Feature","id":281,"geometry":{"type":"Point","coordinates":[-82.20071840470483,28.347992490817706]},"properties":{"OBJECTID":281,"HAZUSID":null,"Name":"BAYFRONT HEALTH DADE CTY ","Address":"13100 FORT KING RD","City":"DADE CITY","Zip":"33525","COUNTY":"PASCO","X":-82.2007184,"Y":28.347992489999999,"LONGLAT":"-82.20071840,28.34799249","USNG":"17R LM 82319 36337","OWNERSHIP":null,"PARCELID":null,"FACILITY_TYPE":"HOSPITAL - ACUTE CARE","TTL_BEDS":120,"EFCLASS":"EFHL"}},{"type":"Feature","id":282,"geometry":{"type":"Point","coordinates":[-82.720760088707593,28.23570978029715]},"properties":{"OBJECTID":282,"HAZUSID":null,"Name":"MDCL CNTR OF TRINITY W PASCO CAMPUS ","Address":"5637 MARINE PKWY","City":"NEW PORT RICHEY","Zip":"34652","COUNTY":"PASCO","X":-82.720760089999999,"Y":28.235709780000001,"LONGLAT":"-82.72076009,28.23570978","USNG":"17R LM 31165 24513","OWNERSHIP":null,"PARCELID":null,"FACILITY_TYPE":"HOSPITAL - ACUTE CARE","TTL_BEDS":46,"EFCLASS":"EFHS"}},{"type":"Feature","id":283,"geometry":{"type":"Point","coordinates":[-82.702331302893555,27.825230070262936]},"properties":{"OBJECTID":283,"HAZUSID":null,"Name":"NORTHSIDE HOSP","Address":"6000 49TH ST N","City":"SAINT PETERSBURG","Zip":"33709","COUNTY":"PINELLAS","X":-82.702331299999997,"Y":27.82523007,"LONGLAT":"-82.70233130,27.82523007","USNG":"17R LL 32339 79005","OWNERSHIP":null,"PARCELID":null,"FACILITY_TYPE":"HOSPITAL - ACUTE CARE","TTL_BEDS":288,"EFCLASS":"EFHL"}},{"type":"Feature","id":284,"geometry":{"type":"Point","coordinates":[-82.664264527704731,27.781666719468479]},"properties":{"OBJECTID":284,"HAZUSID":null,"Name":"EDWARD WHTE HOSP","Address":"2323 9TH AVE N","City":"SAINT PETERSBURG","Zip":"33713","COUNTY":"PINELLAS","X":-82.664264529999997,"Y":27.78166672,"LONGLAT":"-82.66426453,27.78166672","USNG":"17R LL 36023 74127","OWNERSHIP":null,"PARCELID":null,"FACILITY_TYPE":"HOSPITAL - ACUTE CARE","TTL_BEDS":162,"EFCLASS":"EFHL"}},{"type":"Feature","id":285,"geometry":{"type":"Point","coordinates":[-82.740691449332104,27.752256158372241]},"properties":{"OBJECTID":285,"HAZUSID":null,"Name":"PALMS OF PASADENA HOSP","Address":"1501 PASADENA AVE S","City":"SAINT PETERSBURG","Zip":"33707","COUNTY":"PINELLAS","X":-82.74069145,"Y":27.752256160000002,"LONGLAT":"-82.74069145,27.75225616","USNG":"17R LL 28445 70972","OWNERSHIP":null,"PARCELID":null,"FACILITY_TYPE":"HOSPITAL - ACUTE CARE","TTL_BEDS":307,"EFCLASS":"EFHL"}},{"type":"Feature","id":286,"geometry":{"type":"Point","coordinates":[-82.727814471244628,27.805536144787265]},"properties":{"OBJECTID":286,"HAZUSID":null,"Name":"ST PETERSBURG GENERAL HOSPITAL","Address":"6500 38TH AVE N","City":"SAINT PETERSBURG","Zip":"33710","COUNTY":"PINELLAS","X":-82.727814469999998,"Y":27.805536149999998,"LONGLAT":"-82.72781447,27.80553615","USNG":"17R LL 29798 76858","OWNERSHIP":null,"PARCELID":null,"FACILITY_TYPE":"HOSPITAL - ACUTE CARE","TTL_BEDS":215,"EFCLASS":"EFHL"}},{"type":"Feature","id":287,"geometry":{"type":"Point","coordinates":[-82.650773781019893,27.778969997451536]},"properties":{"OBJECTID":287,"HAZUSID":null,"Name":"ST ANTHONYS HOSP","Address":"1200 7TH AVE N","City":"SAINT PETERSBURG","Zip":"33705","COUNTY":"PINELLAS","X":-82.650773779999994,"Y":27.778970000000001,"LONGLAT":"-82.65077378,27.77897000","USNG":"17R LL 37348 73810","OWNERSHIP":null,"PARCELID":null,"FACILITY_TYPE":"HOSPITAL - ACUTE CARE","TTL_BEDS":393,"EFCLASS":"EFHL"}},{"type":"Feature","id":288,"geometry":{"type":"Point","coordinates":[-82.825314248961348,27.898457265236964]},"properties":{"OBJECTID":288,"HAZUSID":null,"Name":"LARGO MEDICAL CENTER - INDIAN ROCKS","Address":"2025 INDIAN ROCKS RD ","City":"LARGO","Zip":"33774","COUNTY":"PINELLAS","X":-82.825314250000005,"Y":27.898457270000002,"LONGLAT":"-82.82531425,27.89845727","USNG":"17R LL 20345 87293","OWNERSHIP":null,"PARCELID":null,"FACILITY_TYPE":"HOSPITAL - ACUTE CARE","TTL_BEDS":169,"EFCLASS":"EFHL"}},{"type":"Feature","id":289,"geometry":{"type":"Point","coordinates":[-82.783035472667095,28.012882860437426]},"properties":{"OBJECTID":289,"HAZUSID":null,"Name":"MEASE DUNEDIN HOSP","Address":"601 MAIN ST ","City":"DUNEDIN","Zip":"34698","COUNTY":"PINELLAS","X":-82.783035470000002,"Y":28.012882860000001,"LONGLAT":"-82.78303547,28.01288286","USNG":"17R LL 24692 99910","OWNERSHIP":null,"PARCELID":null,"FACILITY_TYPE":"HOSPITAL - ACUTE CARE","TTL_BEDS":120,"EFCLASS":"EFHL"}},{"type":"Feature","id":290,"geometry":{"type":"Point","coordinates":[-82.803791582208277,27.913704180147899]},"properties":{"OBJECTID":290,"HAZUSID":null,"Name":"LARGO MEDICAL CNTR","Address":"201 14TH ST SW","City":"LARGO","Zip":"33770","COUNTY":"PINELLAS","X":-82.803791579999995,"Y":27.91370418,"LONGLAT":"-82.80379158,27.91370418","USNG":"17R LL 22488 88951","OWNERSHIP":null,"PARCELID":null,"FACILITY_TYPE":"HOSPITAL - ACUTE CARE","TTL_BEDS":256,"EFCLASS":"EFHL"}},{"type":"Feature","id":291,"geometry":{"type":"Point","coordinates":[-82.70843516003147,28.038759559094263]},"properties":{"OBJECTID":291,"HAZUSID":null,"Name":"MEASE COUNTRYSIDE HOSP","Address":"3231 MCMULLEN BOOTH RD","City":"SAFETY HARBOR","Zip":"34695","COUNTY":"PINELLAS","X":-82.708435159999993,"Y":28.038759559999999,"LONGLAT":"-82.70843516,28.03875956","USNG":"17R LM 32068 02673","OWNERSHIP":null,"PARCELID":null,"FACILITY_TYPE":"HOSPITAL - ACUTE CARE","TTL_BEDS":311,"EFCLASS":"EFHL"}},{"type":"Feature","id":292,"geometry":{"type":"Point","coordinates":[-82.758054757888303,28.132845900265007]},"properties":{"OBJECTID":292,"HAZUSID":null,"Name":"FL HOSP N PINELLAS","Address":"1395 S PINELLAS AVE","City":"TARPON SPRINGS","Zip":"34689","COUNTY":"PINELLAS","X":-82.758054759999993,"Y":28.1328459,"LONGLAT":"-82.75805476,28.13284590","USNG":"17R LM 27340 13167","OWNERSHIP":null,"PARCELID":null,"FACILITY_TYPE":"HOSPITAL - ACUTE CARE","TTL_BEDS":168,"EFCLASS":"EFHL"}},{"type":"Feature","id":293,"geometry":{"type":"Point","coordinates":[-82.782671415420552,28.012882860456063]},"properties":{"OBJECTID":293,"HAZUSID":null,"Name":"BAYCARE ALLIANT HOSP","Address":"601 MAIN ST","City":"DUNEDIN","Zip":"34698","COUNTY":"PINELLAS","X":-82.78267142,"Y":28.012882860000001,"LONGLAT":"-82.78267142,28.01288286","USNG":"17R LL 24728 99910","OWNERSHIP":null,"PARCELID":null,"FACILITY_TYPE":"HOSPITAL - ACUTE CARE","TTL_BEDS":48,"EFCLASS":"EFHS"}},{"type":"Feature","id":294,"geometry":{"type":"Point","coordinates":[-82.803251485826451,27.953228929043718]},"properties":{"OBJECTID":294,"HAZUSID":null,"Name":"MORTON PLANT HOSP","Address":"300 PINELLAS ST","City":"CLEARWATER","Zip":"33756","COUNTY":"PINELLAS","X":-82.803251489999994,"Y":27.953228930000002,"LONGLAT":"-82.80325149,27.95322893","USNG":"17R LL 22606 93330","OWNERSHIP":null,"PARCELID":null,"FACILITY_TYPE":"HOSPITAL - ACUTE CARE","TTL_BEDS":687,"EFCLASS":"EFHL"}},{"type":"Feature","id":295,"geometry":{"type":"Point","coordinates":[-82.640117621959874,27.764641194342879]},"properties":{"OBJECTID":295,"HAZUSID":null,"Name":"ALL CHILDREN'S HOSP","Address":"501 6TH AVE S","City":"SAINT PETERSBURG","Zip":"33701","COUNTY":"PINELLAS","X":-82.640117619999998,"Y":27.7646412,"LONGLAT":"-82.64011762,27.76464120","USNG":"17R LL 38377 72208","OWNERSHIP":null,"PARCELID":null,"FACILITY_TYPE":"HOSPITAL - PEDIATRIC","TTL_BEDS":259,"EFCLASS":"EFHL"}},{"type":"Feature","id":296,"geometry":{"type":"Point","coordinates":[-82.796644011734472,27.925430535966733]},"properties":{"OBJECTID":296,"HAZUSID":null,"Name":"HEALTHSOUTH REHAB HOSP OF LARGO","Address":"901 N CLEARWATER/LARGO RD","City":"LARGO","Zip":"33770","COUNTY":"PINELLAS","X":-82.796644009999994,"Y":27.925430540000001,"LONGLAT":"-82.79664401,27.92543054","USNG":"17R LL 23211 90240","OWNERSHIP":null,"PARCELID":null,"FACILITY_TYPE":"HOSPITAL","TTL_BEDS":70,"EFCLASS":"EFHM"}},{"type":"Feature","id":297,"geometry":{"type":"Point","coordinates":[-82.710619372911722,27.875091047018177]},"properties":{"OBJECTID":297,"HAZUSID":null,"Name":"WINDMOOR HEALTHCARE OF CLEARWATER","Address":"11300 US HWY 19 N","City":"CLEARWATER","Zip":"33764","COUNTY":"PINELLAS","X":-82.710619370000003,"Y":27.875091050000002,"LONGLAT":"-82.71061937,27.87509105","USNG":"17R LL 31599 84541","OWNERSHIP":null,"PARCELID":null,"FACILITY_TYPE":"HOSPITAL","TTL_BEDS":144,"EFCLASS":"EFHL"}},{"type":"Feature","id":298,"geometry":{"type":"Point","coordinates":[-82.63951822091984,27.741146167461338]},"properties":{"OBJECTID":298,"HAZUSID":null,"Name":"KINDRED HOSP/BAY AREA/ST PETE","Address":"3030 6TH ST S","City":"SAINT PETERSBURG","Zip":"33705","COUNTY":"PINELLAS","X":-82.639518219999999,"Y":27.74114617,"LONGLAT":"-82.63951822,27.74114617","USNG":"17R LL 38402 69604","OWNERSHIP":null,"PARCELID":null,"FACILITY_TYPE":"HOSPITAL","TTL_BEDS":82,"EFCLASS":"EFHM"}},{"type":"Feature","id":299,"geometry":{"type":"Point","coordinates":[-82.643225373034383,27.763276945493214]},"properties":{"OBJECTID":299,"HAZUSID":null,"Name":"BAYFRONT HEALTH - ST PETERSBURG","Address":"701 6TH ST S","City":"SAINT PETERSBURG","Zip":"33701","COUNTY":"PINELLAS","X":-82.643225369999996,"Y":27.763276950000002,"LONGLAT":"-82.64322537,27.76327695","USNG":"17R LL 38069 72061","OWNERSHIP":null,"PARCELID":null,"FACILITY_TYPE":"HOSPITAL - TRAUMA","TTL_BEDS":480,"EFCLASS":"EFHL"}},{"type":"Feature","id":300,"geometry":{"type":"Point","coordinates":[-82.778865059660632,27.81123263452502]},"properties":{"OBJECTID":300,"HAZUSID":null,"Name":"BAY PINES VA HEALTHCARE SYSTEM","Address":"10000 BAY PINES BLVD","City":"BAY PINES","Zip":"33744","COUNTY":"PINELLAS","X":-82.778865060000001,"Y":27.81123264,"LONGLAT":"-82.77886506,27.81123264","USNG":"17R LL 24777 77561","OWNERSHIP":null,"PARCELID":null,"FACILITY_TYPE":"HOSPITAL - VA","TTL_BEDS":153,"EFCLASS":"EFHL"}},{"type":"Feature","id":301,"geometry":{"type":"Point","coordinates":[-81.726222000273381,28.008395764837438]},"properties":{"OBJECTID":301,"HAZUSID":null,"Name":"REGENCY CENTER FOR WOMEN & INFANTS","Address":"101 AVE O SE","City":"WINTER HAVEN","Zip":"33880","COUNTY":"POLK","X":-81.726222000000007,"Y":28.00839577,"LONGLAT":"-81.72622200,28.00839577","USNG":"17R ML 28600 98344","OWNERSHIP":null,"PARCELID":null,"FACILITY_TYPE":"HOSPITAL","TTL_BEDS":61,"EFCLASS":"EFHM"}},{"type":"Feature","id":302,"geometry":{"type":"Point","coordinates":[-81.724724651081488,28.028718778676037]},"properties":{"OBJECTID":302,"HAZUSID":null,"Name":"WINTER HAVEN HOSPITAL","Address":"200 AVE F NE ","City":"WINTER HAVEN","Zip":"33881","COUNTY":"POLK","X":-81.724724649999999,"Y":28.028718779999998,"LONGLAT":"-81.72472465,28.02871878","USNG":"17R MM 28761 00595","OWNERSHIP":null,"PARCELID":null,"FACILITY_TYPE":"HOSPITAL - ACUTE CARE","TTL_BEDS":468,"EFCLASS":"EFHL"}},{"type":"Feature","id":303,"geometry":{"type":"Point","coordinates":[-81.954098000013786,28.060928999541574]},"properties":{"OBJECTID":303,"HAZUSID":null,"Name":"LAKELAND REGIONAL MEDICAL CNTR","Address":"1324 LAKELAND HILLS BLVD","City":"LAKELAND","Zip":"33805","COUNTY":"POLK","X":-81.954098000000002,"Y":28.060929000000002,"LONGLAT":"-81.95409800,28.06092900","USNG":"17R MM 06241 04319","OWNERSHIP":null,"PARCELID":null,"FACILITY_TYPE":"HOSPITAL - TRAUMA","TTL_BEDS":849,"EFCLASS":"EFHL"}},{"type":"Feature","id":304,"geometry":{"type":"Point","coordinates":[-81.565249522098568,27.896796234648839]},"properties":{"OBJECTID":304,"HAZUSID":null,"Name":"LAKE WALES MEDICAL CNTR","Address":"410 S 11TH ST","City":"LAKE WALES","Zip":"33853","COUNTY":"POLK","X":-81.565249519999995,"Y":27.89679624,"LONGLAT":"-81.56524952,27.89679624","USNG":"17R ML 44369 85898","OWNERSHIP":null,"PARCELID":null,"FACILITY_TYPE":"HOSPITAL - ACUTE CARE","TTL_BEDS":160,"EFCLASS":"EFHL"}},{"type":"Feature","id":305,"geometry":{"type":"Point","coordinates":[-81.844556070588951,27.918932674726463]},"properties":{"OBJECTID":305,"HAZUSID":null,"Name":"BARTOW REG MED CENT","Address":"2200 OSPREY BLVD","City":"BARTOW","Zip":"33831","COUNTY":"POLK","X":-81.844556069999996,"Y":27.918932680000001,"LONGLAT":"-81.84455607,27.91893268","USNG":"17R ML 16897 88508","OWNERSHIP":null,"PARCELID":null,"FACILITY_TYPE":"HOSPITAL - ACUTE CARE","TTL_BEDS":72,"EFCLASS":"EFHM"}},{"type":"Feature","id":306,"geometry":{"type":"Point","coordinates":[-81.642554672688448,28.181398826167776]},"properties":{"OBJECTID":306,"HAZUSID":null,"Name":"HEART OF FLORIDA REGIONAL MED CNTR","Address":"40100 US HWY 27 N","City":"DAVENPORT","Zip":"33837","COUNTY":"POLK","X":-81.642554669999996,"Y":28.181398829999999,"LONGLAT":"-81.64255467,28.18139883","USNG":"17R MM 36927 17464","OWNERSHIP":null,"PARCELID":null,"FACILITY_TYPE":"HOSPITAL - ACUTE CARE","TTL_BEDS":193,"EFCLASS":"EFHL"}},{"type":"Feature","id":307,"geometry":{"type":"Point","coordinates":[-81.692412880063188,29.642379682024526]},"properties":{"OBJECTID":307,"HAZUSID":null,"Name":"PUTNAM COMMUNITY MEDICAL CNTR","Address":"611 ZEAGLER DR","City":"PALATKA","Zip":"32177","COUNTY":"PUTNAM","X":-81.692412880000006,"Y":29.642379680000001,"LONGLAT":"-81.69241288,29.64237968","USNG":"17R MN 32979 79359","OWNERSHIP":null,"PARCELID":null,"FACILITY_TYPE":"HOSPITAL - ACUTE CARE","TTL_BEDS":99,"EFCLASS":"EFHM"}},{"type":"Feature","id":308,"geometry":{"type":"Point","coordinates":[-81.316987415538222,29.862535934057423]},"properties":{"OBJECTID":308,"HAZUSID":null,"Name":"FLAGLER HOSP","Address":"400 HEALTH PARK BLVD","City":"SAINT AUGUSTINE","Zip":"32086","COUNTY":"ST. JOHNS","X":-81.316987420000004,"Y":29.86253593,"LONGLAT":"-81.31698742,29.86253593","USNG":"17R MP 69385 03595","OWNERSHIP":null,"PARCELID":null,"FACILITY_TYPE":"HOSPITAL - ACUTE CARE","TTL_BEDS":335,"EFCLASS":"EFHL"}},{"type":"Feature","id":309,"geometry":{"type":"Point","coordinates":[-81.587980000117781,30.255119999438406]},"properties":{"OBJECTID":309,"HAZUSID":null,"Name":"S POINTCLIN","Address":"6900 SOUTHPOINT DR N","City":"JACKSONVILLE ","Zip":"32209","COUNTY":"ST. JOHNS","X":-81.587980000000002,"Y":30.255120000000002,"LONGLAT":"-81.58798000,30.25512000","USNG":"17R MP 43435 47201","OWNERSHIP":null,"PARCELID":null,"FACILITY_TYPE":"HOSPITAL - VA","TTL_BEDS":null,"EFCLASS":"MDFLT"}},{"type":"Feature","id":310,"geometry":{"type":"Point","coordinates":[-81.404869999597338,30.387879999410714]},"properties":{"OBJECTID":310,"HAZUSID":null,"Name":"NAVAL BRNCH HLTH CLIN MAYPORT ","Address":"2104 MASSEY AVE ","City":"JACKSONVILLE ","Zip":"32228","COUNTY":"ST. JOHNS","X":-81.404870000000003,"Y":30.387879999999999,"LONGLAT":"-81.40487000,30.38788000","USNG":"17R MP 61103 61836","OWNERSHIP":null,"PARCELID":null,"FACILITY_TYPE":"HOSPITAL - VA","TTL_BEDS":null,"EFCLASS":"MDFLT"}},{"type":"Feature","id":311,"geometry":{"type":"Point","coordinates":[-81.68401000037403,30.208709998568107]},"properties":{"OBJECTID":311,"HAZUSID":null,"Name":"NAVAL HOSP JACKSONVILLE ","Address":"2080 CHILD STREET ","City":"JACKSONVILLE ","Zip":"32214","COUNTY":"ST. JOHNS","X":-81.684010000000001,"Y":30.20871,"LONGLAT":"-81.68401000,30.20871000","USNG":"17R MP 34166 42110","OWNERSHIP":null,"PARCELID":null,"FACILITY_TYPE":"HOSPITAL - VA","TTL_BEDS":null,"EFCLASS":"MDFLT"}},{"type":"Feature","id":312,"geometry":{"type":"Point","coordinates":[-81.663640000096493,30.344019999167216]},"properties":{"OBJECTID":312,"HAZUSID":null,"Name":"JACKSONVILLE OUTPATIENT CLIN","Address":"1536 N JEFFESON ST ","City":"JACKSONVILLE ","Zip":"32209","COUNTY":"ST. JOHNS","X":-81.663640000000001,"Y":30.34402,"LONGLAT":"-81.66364000,30.34402000","USNG":"17R MP 36214 57093","OWNERSHIP":null,"PARCELID":null,"FACILITY_TYPE":"HOSPITAL - VA","TTL_BEDS":null,"EFCLASS":"MDFLT"}},{"type":"Feature","id":313,"geometry":{"type":"Point","coordinates":[-81.685220000087796,30.222589999362608]},"properties":{"OBJECTID":313,"HAZUSID":null,"Name":"NAVAL BRANCH HLTH CLIN JACKSONVILLE ","Address":"814 ENTERPRISE AVE ","City":"JACKSONVILLE ","Zip":"32212","COUNTY":"ST. JOHNS","X":-81.685220000000001,"Y":30.22259,"LONGLAT":"-81.68522000,30.22259000","USNG":"17R MP 34059 43649","OWNERSHIP":null,"PARCELID":null,"FACILITY_TYPE":"HOSPITAL - VA","TTL_BEDS":null,"EFCLASS":"MDFLT"}},{"type":"Feature","id":314,"geometry":{"type":"Point","coordinates":[-80.34597842632212,27.432611563324876]},"properties":{"OBJECTID":314,"HAZUSID":null,"Name":"LAWNWOOD REGIONAL MED CNTR & HEART","Address":"1700 S 23RD ST","City":"FORT PIERCE","Zip":"34950","COUNTY":"ST. LUCIE","X":-80.345978430000002,"Y":27.432611560000002,"LONGLAT":"-80.34597843,27.43261156","USNG":"17R NL 64639 34522","OWNERSHIP":null,"PARCELID":null,"FACILITY_TYPE":"HOSPITAL - TRAUMA","TTL_BEDS":370,"EFCLASS":"EFHL"}},{"type":"Feature","id":315,"geometry":{"type":"Point","coordinates":[-80.294466602022069,27.288897070916811]},"properties":{"OBJECTID":315,"HAZUSID":null,"Name":"ST LUCIE MEDICAL CNTR","Address":"1800 SE TIFFANY AVE","City":"PORT SAINT LUCIE","Zip":"34952","COUNTY":"ST. LUCIE","X":-80.294466600000007,"Y":27.288897070000001,"LONGLAT":"-80.29446660,27.28889707","USNG":"17R NL 69820 18631","OWNERSHIP":null,"PARCELID":null,"FACILITY_TYPE":"HOSPITAL - ACUTE CARE","TTL_BEDS":229,"EFCLASS":"EFHL"}},{"type":"Feature","id":316,"geometry":{"type":"Point","coordinates":[-80.426700000626099,27.262399999289688]},"properties":{"OBJECTID":316,"HAZUSID":null,"Name":"TRADITION MEDI CNTR","Address":"10000 SW INNOVATION WAY","City":"PORT SAINT LUCIE","Zip":"34987","COUNTY":"ST. LUCIE","X":-80.426699999999997,"Y":27.2624,"LONGLAT":"-80.42670000,27.26240000","USNG":"17R NL 56748 15629","OWNERSHIP":null,"PARCELID":null,"FACILITY_TYPE":"HOSPITAL - ACUTE CARE","TTL_BEDS":90,"EFCLASS":"EFHM"}},{"type":"Feature","id":317,"geometry":{"type":"Point","coordinates":[-80.271376895551981,27.297458110016905]},"properties":{"OBJECTID":317,"HAZUSID":null,"Name":"PORT ST LUCIE HOSPITAL","Address":"2550 SE WALTON RD","City":"PORT SAINT LUCIE","Zip":"34952","COUNTY":"ST. LUCIE","X":-80.271376900000007,"Y":27.297458110000001,"LONGLAT":"-80.27137690,27.29745811","USNG":"17R NL 72100 19592","OWNERSHIP":null,"PARCELID":null,"FACILITY_TYPE":"HOSPITAL","TTL_BEDS":75,"EFCLASS":"EFHM"}},{"type":"Feature","id":318,"geometry":{"type":"Point","coordinates":[-87.042375908121556,30.634436014401931]},"properties":{"OBJECTID":318,"HAZUSID":null,"Name":"WEST FLORIDA COMMUNITY CARE CNTR","Address":"5500 STEWART ST","City":"MILTON","Zip":"32570","COUNTY":"SANTA ROSA","X":-87.042375910000004,"Y":30.634436019999999,"LONGLAT":"-87.04237591,30.63443602","USNG":"16R DU 95939 89090","OWNERSHIP":"S","PARCELID":null,"FACILITY_TYPE":"HOSPITAL","TTL_BEDS":100,"EFCLASS":"EFHM"}},{"type":"Feature","id":319,"geometry":{"type":"Point","coordinates":[-87.067092116456863,30.634206656159645]},"properties":{"OBJECTID":319,"HAZUSID":null,"Name":"SANTA ROSA MEDICAL CNTR","Address":"5992 BERRYHILL RD","City":"MILTON","Zip":"32570","COUNTY":"SANTA ROSA","X":-87.067092119999998,"Y":30.63420666,"LONGLAT":"-87.06709212,30.63420666","USNG":"16R DU 93570 89065","OWNERSHIP":null,"PARCELID":null,"FACILITY_TYPE":"HOSPITAL - ACUTE CARE","TTL_BEDS":129,"EFCLASS":"EFHL"}},{"type":"Feature","id":320,"geometry":{"type":"Point","coordinates":[-87.151277609150327,30.949875238809199]},"properties":{"OBJECTID":320,"HAZUSID":null,"Name":"JAY HOSP","Address":"14114 ALABAMA ST","City":"JAY","Zip":"32565","COUNTY":"SANTA ROSA","X":-87.151277609999994,"Y":30.949875240000001,"LONGLAT":"-87.15127761,30.94987524","USNG":"16R DV 85550 24056","OWNERSHIP":null,"PARCELID":null,"FACILITY_TYPE":"HOSPITAL - ACUTE CARE","TTL_BEDS":49,"EFCLASS":"EFHS"}},{"type":"Feature","id":321,"geometry":{"type":"Point","coordinates":[-87.157101867538927,30.360544902993578]},"properties":{"OBJECTID":321,"HAZUSID":null,"Name":"GULF BREEZE HOSP","Address":"1110 GULF BREEZE PKWY","City":"GULF BREEZE","Zip":"32561","COUNTY":"SANTA ROSA","X":-87.157101870000005,"Y":30.360544900000001,"LONGLAT":"-87.15710187,30.36054490","USNG":"16R DU 84902 58748","OWNERSHIP":null,"PARCELID":null,"FACILITY_TYPE":"HOSPITAL - ACUTE CARE","TTL_BEDS":77,"EFCLASS":"EFHM"}},{"type":"Feature","id":322,"geometry":{"type":"Point","coordinates":[-82.326534379604794,26.949773644414293]},"properties":{"OBJECTID":322,"HAZUSID":null,"Name":"ENGLEWOOD COMMUNITY HOSP","Address":"700 MEDICAL BLVD","City":"ENGLEWOOD","Zip":"34223","COUNTY":"SARASOTA","X":-82.326534379999998,"Y":26.949773650000001,"LONGLAT":"-82.32653438,26.94977365","USNG":"17R LK 68322 81563","OWNERSHIP":null,"PARCELID":null,"FACILITY_TYPE":"HOSPITAL - ACUTE CARE","TTL_BEDS":100,"EFCLASS":"EFHM"}},{"type":"Feature","id":323,"geometry":{"type":"Point","coordinates":[-82.453541694160933,27.301932096385372]},"properties":{"OBJECTID":323,"HAZUSID":null,"Name":"DOCS HOSP OF SARASOTA","Address":"5731 BEE RIDGE RD","City":"SARASOTA","Zip":"34233","COUNTY":"SARASOTA","X":-82.453541689999994,"Y":27.301932099999998,"LONGLAT":"-82.45354169,27.30193210","USNG":"17R LL 56164 20714","OWNERSHIP":null,"PARCELID":null,"FACILITY_TYPE":"HOSPITAL - ACUTE CARE","TTL_BEDS":155,"EFCLASS":"EFHL"}},{"type":"Feature","id":324,"geometry":{"type":"Point","coordinates":[-82.444854246515277,27.09026068479157]},"properties":{"OBJECTID":324,"HAZUSID":null,"Name":"VENICE REGIONAL MEDICAL CNTR","Address":"540 THE RIALTO","City":"VENICE","Zip":"34285","COUNTY":"SARASOTA","X":-82.444854250000006,"Y":27.090260690000001,"LONGLAT":"-82.44485425,27.09026069","USNG":"17R LK 56754 97255","OWNERSHIP":null,"PARCELID":null,"FACILITY_TYPE":"HOSPITAL - ACUTE CARE","TTL_BEDS":312,"EFCLASS":"EFHL"}},{"type":"Feature","id":325,"geometry":{"type":"Point","coordinates":[-82.446062415974026,27.301727149980142]},"properties":{"OBJECTID":325,"HAZUSID":null,"Name":"COMPLEXCARE HOSP AT RIDGELAKE ","Address":"6150 EDGELAKE DR","City":"SARASOTA","Zip":"34240","COUNTY":"SARASOTA","X":-82.446062420000004,"Y":27.301727150000001,"LONGLAT":"-82.44606242,27.30172715","USNG":"17R LL 56904 20683","OWNERSHIP":null,"PARCELID":null,"FACILITY_TYPE":"HOSPITAL","TTL_BEDS":40,"EFCLASS":"EFHS"}},{"type":"Feature","id":326,"geometry":{"type":"Point","coordinates":[-82.442583040188723,27.300834632808105]},"properties":{"OBJECTID":326,"HAZUSID":null,"Name":"HEALTHSOUTH REHAB HOSP OF SARASOTA","Address":"6400 EDGELAKE DR","City":"SARASOTA","Zip":"34240","COUNTY":"SARASOTA","X":-82.442583040000002,"Y":27.300834630000001,"LONGLAT":"-82.44258304,27.30083463","USNG":"17R LL 57247 20580","OWNERSHIP":null,"PARCELID":null,"FACILITY_TYPE":"HOSPITAL","TTL_BEDS":96,"EFCLASS":"EFHM"}},{"type":"Feature","id":327,"geometry":{"type":"Point","coordinates":[-82.530608926775656,27.318222863777009]},"properties":{"OBJECTID":327,"HAZUSID":null,"Name":"SARASOTA MEMORIAL HOSP","Address":"1700 S TAMIAMI TRL","City":"SARASOTA","Zip":"34239","COUNTY":"SARASOTA","X":-82.53060893,"Y":27.318222859999999,"LONGLAT":"-82.53060893,27.31822286","USNG":"17R LL 48559 22610","OWNERSHIP":null,"PARCELID":null,"FACILITY_TYPE":"HOSPITAL - TRAUMA","TTL_BEDS":819,"EFCLASS":"EFHL"}},{"type":"Feature","id":328,"geometry":{"type":"Point","coordinates":[-81.415127000054866,28.645480999218695]},"properties":{"OBJECTID":328,"HAZUSID":null,"Name":"HEALTHSOUTH REHAB HOSP OF ALTAMONTE S ","Address":"831 S STATE RD 434","City":"ALTAMONTE SPRINGS","Zip":"32714","COUNTY":"SEMINOLE","X":-81.415126999999998,"Y":28.645481,"LONGLAT":"-81.41512700,28.64548100","USNG":"17R MM 59429 68779","OWNERSHIP":null,"PARCELID":null,"FACILITY_TYPE":"HOSPITAL","TTL_BEDS":50,"EFCLASS":"EFHS"}},{"type":"Feature","id":329,"geometry":{"type":"Point","coordinates":[-81.370146698294818,28.66539220176567]},"properties":{"OBJECTID":329,"HAZUSID":null,"Name":"FL HOSP ALTAMONTE","Address":"601 E ALTAMONTE DR","City":"ALTAMONTE","Zip":"32701","COUNTY":"SEMINOLE","X":-81.370146700000006,"Y":28.665392199999999,"LONGLAT":"-81.37014670,28.66539220","USNG":"17R MM 63832 70970","OWNERSHIP":null,"PARCELID":null,"FACILITY_TYPE":"HOSPITAL - ACUTE CARE","TTL_BEDS":398,"EFCLASS":"EFHL"}},{"type":"Feature","id":330,"geometry":{"type":"Point","coordinates":[-81.352925760494045,28.699182481533757]},"properties":{"OBJECTID":330,"HAZUSID":null,"Name":"SOUTH SEMINOLE HOSPITAL","Address":"555 W STATE ROAD 434","City":"LONGWOOD","Zip":"32750","COUNTY":"SEMINOLE","X":-81.352925760000005,"Y":28.699182480000001,"LONGLAT":"-81.35292576,28.69918248","USNG":"17R MM 65525 74709","OWNERSHIP":null,"PARCELID":null,"FACILITY_TYPE":"HOSPITAL - ACUTE CARE","TTL_BEDS":206,"EFCLASS":"EFHL"}},{"type":"Feature","id":331,"geometry":{"type":"Point","coordinates":[-81.283650959775443,28.814504567634803]},"properties":{"OBJECTID":331,"HAZUSID":null,"Name":"CENTRAL FLORIDA REGIONAL HOSP","Address":"1401 W SEMINOLE BLVD","City":"SANFORD","Zip":"32771","COUNTY":"SEMINOLE","X":-81.283650960000003,"Y":28.81450457,"LONGLAT":"-81.28365096,28.81450457","USNG":"17R MM 72323 87467","OWNERSHIP":null,"PARCELID":null,"FACILITY_TYPE":"HOSPITAL - TRAUMA","TTL_BEDS":221,"EFCLASS":"EFHL"}},{"type":"Feature","id":332,"geometry":{"type":"Point","coordinates":[-82.019683943042438,28.9096173652738]},"properties":{"OBJECTID":332,"HAZUSID":null,"Name":"PROMISE HOSPITAL OF FLA /THE VILLAGES","Address":"5050 COUNTY ROAD 472","City":"OXFORD","Zip":"34484","COUNTY":"SUMTER","X":-82.019683939999993,"Y":28.909617369999999,"LONGLAT":"-82.01968394,28.90961737","USNG":"17R MM 00593 98399","OWNERSHIP":null,"PARCELID":null,"FACILITY_TYPE":"HOSPITAL - ACUTE CARE","TTL_BEDS":40,"EFCLASS":"EFHS"}},{"type":"Feature","id":333,"geometry":{"type":"Point","coordinates":[-81.958520084525404,28.950364640231822]},"properties":{"OBJECTID":333,"HAZUSID":null,"Name":"VILLAGES REGIONAL HOSP, THE","Address":"1451 EL CAMINO REAL","City":"THE VILLAGES","Zip":"32159","COUNTY":"SUMTER","X":-81.95852008,"Y":28.95036464,"LONGLAT":"-81.95852008,28.95036464","USNG":"17R MN 06593 02864","OWNERSHIP":null,"PARCELID":null,"FACILITY_TYPE":"HOSPITAL - ACUTE CARE","TTL_BEDS":297,"EFCLASS":"EFHL"}},{"type":"Feature","id":334,"geometry":{"type":"Point","coordinates":[-83.002954193579001,30.291297098908114]},"properties":{"OBJECTID":334,"HAZUSID":null,"Name":"SHANDS LIVE OAK RGNL MED CNTR","Address":"1100 SW 11TH ST","City":"LIVE OAK","Zip":"32060","COUNTY":"SUWANNEE","X":-83.002954189999997,"Y":30.291297100000001,"LONGLAT":"-83.00295419,30.29129710","USNG":"17R LP 07366 52762","OWNERSHIP":null,"PARCELID":null,"FACILITY_TYPE":"HOSPITAL - ACUTE CARE","TTL_BEDS":25,"EFCLASS":"EFHS"}},{"type":"Feature","id":335,"geometry":{"type":"Point","coordinates":[-83.593249095595951,30.120088058222471]},"properties":{"OBJECTID":335,"HAZUSID":"","Name":"DOCTORS MEMORIAL HOSPITAL","Address":"333 N BYRON BUTLER  PKWY","City":"PERRY","Zip":"32348","COUNTY":"TAYLOR","X":-83.593249099999994,"Y":30.12008806,"LONGLAT":"-83.59324910,30.12008806","USNG":"17R KP 50146 34930","OWNERSHIP":"PR","PARCELID":"23040703141000","FACILITY_TYPE":"HOSPITAL - ACUTE CARE","TTL_BEDS":48,"EFCLASS":"EFHS"}},{"type":"Feature","id":336,"geometry":{"type":"Point","coordinates":[-83.577737999411525,30.128221999693114]},"properties":{"OBJECTID":336,"HAZUSID":null,"Name":"DOCTOR'S MEMORIAL HOSP- EMG","Address":"409A EAST ASH STREET","City":"PERRY","Zip":" ","COUNTY":"TAYLOR","X":-83.577737999999997,"Y":30.128222000000001,"LONGLAT":"-83.57773800,30.12822200","USNG":"17R KP 51661 35798","OWNERSHIP":null,"PARCELID":null,"FACILITY_TYPE":"HOSPITAL","TTL_BEDS":null,"EFCLASS":"MDFLT"}},{"type":"Feature","id":337,"geometry":{"type":"Point","coordinates":[-82.357498680550279,29.9884229307456]},"properties":{"OBJECTID":337,"HAZUSID":null,"Name":"RECEPTION AND MEDICAL CENTER HOSP","Address":"7765 S COUNTY RD 231","City":"LAKE BUTLER","Zip":"32054","COUNTY":"UNION","X":-82.357498680000006,"Y":29.988422929999999,"LONGLAT":"-82.35749868,29.98842293","USNG":"17R LP 69051 18277","OWNERSHIP":null,"PARCELID":null,"FACILITY_TYPE":"HOSPITAL","TTL_BEDS":120,"EFCLASS":"EFHL"}},{"type":"Feature","id":338,"geometry":{"type":"Point","coordinates":[-82.326960261672326,30.022677937849984]},"properties":{"OBJECTID":338,"HAZUSID":null,"Name":"LAKE BUTLER HOSPITAL ","Address":"850 E MAIN ST","City":"LAKE BUTLER","Zip":"32054","COUNTY":"UNION","X":-82.326960260000007,"Y":30.022677940000001,"LONGLAT":"-82.32696026,30.02267794","USNG":"17R LP 72041 22039","OWNERSHIP":null,"PARCELID":null,"FACILITY_TYPE":"HOSPITAL - PEDIATRIC","TTL_BEDS":25,"EFCLASS":"EFHS"}},{"type":"Feature","id":339,"geometry":{"type":"Point","coordinates":[-81.05492436122519,29.202139175577294]},"properties":{"OBJECTID":339,"HAZUSID":null,"Name":"HALIFAX HEALTH MED CENT","Address":"303 N CLYDE MORRIS BLVD","City":"DAYTONA BEACH","Zip":"32114","COUNTY":"VOLUSIA","X":-81.054924360000001,"Y":29.20213918,"LONGLAT":"-81.05492436,29.20213918","USNG":"17R MN 94660 30382","OWNERSHIP":null,"PARCELID":null,"FACILITY_TYPE":"HOSPITAL - TRAUMA","TTL_BEDS":568,"EFCLASS":"EFHL"}},{"type":"Feature","id":340,"geometry":{"type":"Point","coordinates":[-81.036956702556324,29.284454595121119]},"properties":{"OBJECTID":340,"HAZUSID":null,"Name":"FL HOSP OCEANSIDE","Address":"264 S ATLANTIC AVE ","City":"ORMOND BEACH","Zip":"32176","COUNTY":"VOLUSIA","X":-81.036956700000005,"Y":29.2844546,"LONGLAT":"-81.03695670,29.28445460","USNG":"17R MN 96410 39501","OWNERSHIP":null,"PARCELID":null,"FACILITY_TYPE":"HOSPITAL - ACUTE CARE","TTL_BEDS":80,"EFCLASS":"EFHM"}},{"type":"Feature","id":341,"geometry":{"type":"Point","coordinates":[-81.10851682655246,29.243368725211948]},"properties":{"OBJECTID":341,"HAZUSID":null,"Name":"FL HOSP MEMORIAL MED. CENT","Address":"301 MEMORIAL MEDICAL PKWY","City":"DAYTONA BEACH","Zip":"32117","COUNTY":"VOLUSIA","X":-81.108516829999999,"Y":29.24336873,"LONGLAT":"-81.10851683,29.24336873","USNG":"17R MN 89455 34954","OWNERSHIP":null,"PARCELID":null,"FACILITY_TYPE":"HOSPITAL - ACUTE CARE","TTL_BEDS":277,"EFCLASS":"EFHL"}},{"type":"Feature","id":342,"geometry":{"type":"Point","coordinates":[-81.318234684783704,29.043795219248846]},"properties":{"OBJECTID":342,"HAZUSID":null,"Name":"FL HOSP DELAND","Address":"701 W PLYMOUTH AVE","City":"DELAND","Zip":"32720","COUNTY":"VOLUSIA","X":-81.318234680000003,"Y":29.04379522,"LONGLAT":"-81.31823468,29.04379522","USNG":"17R MN 69016 12879","OWNERSHIP":null,"PARCELID":null,"FACILITY_TYPE":"HOSPITAL - ACUTE CARE","TTL_BEDS":156,"EFCLASS":"EFHL"}},{"type":"Feature","id":343,"geometry":{"type":"Point","coordinates":[-81.285169520314554,28.91402589329692]},"properties":{"OBJECTID":343,"HAZUSID":null,"Name":"FL HOSP FISH MEMORIAL","Address":"1055 SAXON BLVD","City":"ORANGE CITY","Zip":"32763","COUNTY":"VOLUSIA","X":-81.285169519999997,"Y":28.914025890000001,"LONGLAT":"-81.28516952,28.91402589","USNG":"17R MM 72201 98493","OWNERSHIP":null,"PARCELID":null,"FACILITY_TYPE":"HOSPITAL - ACUTE CARE","TTL_BEDS":175,"EFCLASS":"EFHL"}},{"type":"Feature","id":344,"geometry":{"type":"Point","coordinates":[-81.008720695152348,29.126336631002022]},"properties":{"OBJECTID":344,"HAZUSID":null,"Name":"HALIFAX HEALTH MED CNTR/PORT ORANGE","Address":"1041 DUNLAWTON AVE","City":"PORT ORANGE","Zip":"32127","COUNTY":"VOLUSIA","X":-81.008720699999998,"Y":29.126336630000001,"LONGLAT":"-81.00872070,29.12633663","USNG":"17R MN 99151 21982","OWNERSHIP":null,"PARCELID":null,"FACILITY_TYPE":"HOSPITAL - ACUTE CARE","TTL_BEDS":80,"EFCLASS":"EFHM"}},{"type":"Feature","id":345,"geometry":{"type":"Point","coordinates":[-81.107361000248702,29.242095998807795]},"properties":{"OBJECTID":345,"HAZUSID":null,"Name":"SELECT SPECIALTY HOSP DAYTONA BEACH","Address":"301 MEMORIAL MEDICAL PARKWAY","City":"DAYTONA BEACH","Zip":"32117","COUNTY":"VOLUSIA","X":-81.107360999999997,"Y":29.242096,"LONGLAT":"-81.10736100,29.24209600","USNG":"17R MN 89567 34813","OWNERSHIP":null,"PARCELID":null,"FACILITY_TYPE":"HOSPITAL","TTL_BEDS":34,"EFCLASS":"EFHS"}},{"type":"Feature","id":346,"geometry":{"type":"Point","coordinates":[-81.068762241088592,29.214026409460683]},"properties":{"OBJECTID":346,"HAZUSID":null,"Name":"HALIFAX PSYCHIATRIC CENT-N","Address":"841 JIMMY ANN DR","City":"DAYTONA BEACH","Zip":"32117","COUNTY":"VOLUSIA","X":-81.068762239999998,"Y":29.214026409999999,"LONGLAT":"-81.06876224,29.21402641","USNG":"17R MN 93316 31700","OWNERSHIP":null,"PARCELID":null,"FACILITY_TYPE":"HOSPITAL","TTL_BEDS":30,"EFCLASS":"EFHS"}},{"type":"Feature","id":347,"geometry":{"type":"Point","coordinates":[-80.922072504674546,29.020337013896043]},"properties":{"OBJECTID":347,"HAZUSID":null,"Name":"FLORIDA HOSPITAL NEW SMYRNA","Address":"401 PALMETTO ST","City":"NEW SMYRNA BEACH","Zip":"32168","COUNTY":"VOLUSIA","X":-80.922072499999999,"Y":29.020337009999999,"LONGLAT":"-80.92207250,29.02033701","USNG":"17R NN 07588 10241","OWNERSHIP":null,"PARCELID":null,"FACILITY_TYPE":"HOSPITAL - ACUTE CARE","TTL_BEDS":112,"EFCLASS":"EFHL"}},{"type":"Feature","id":348,"geometry":{"type":"Point","coordinates":[-81.061559999456989,29.206039998967089]},"properties":{"OBJECTID":348,"HAZUSID":null,"Name":"VA OUTPATIENT CLIN WILL V CHAPEL JR","Address":"551 NATIONAL HEALTH CARE DR ","City":"DAYTONA BEACH","Zip":"32114","COUNTY":"VOLUSIA","X":-81.06156,"Y":29.206040000000002,"LONGLAT":"-81.06156000,29.20604000","USNG":"17R MN 94015 30815","OWNERSHIP":null,"PARCELID":null,"FACILITY_TYPE":"HOSPITAL - VA","TTL_BEDS":null,"EFCLASS":"MDFLT"}},{"type":"Feature","id":349,"geometry":{"type":"Point","coordinates":[-86.306758895961451,30.378304635823646]},"properties":{"OBJECTID":349,"HAZUSID":null,"Name":"SACRED HEART HOSPITAL ON EMERALD COAST","Address":"7800 US HWY 98 W","City":"MIRAMAR BEACH","Zip":"32550","COUNTY":"WALTON","X":-86.306758900000005,"Y":30.37830464,"LONGLAT":"-86.30675890,30.37830464","USNG":"16R EU 66607 60909","OWNERSHIP":null,"PARCELID":null,"FACILITY_TYPE":"HOSPITAL - ACUTE CARE","TTL_BEDS":58,"EFCLASS":"EFHM"}},{"type":"Feature","id":350,"geometry":{"type":"Point","coordinates":[-86.117666693797347,30.659642234459508]},"properties":{"OBJECTID":350,"HAZUSID":null,"Name":"HEALTHMARK REGIONAL MED CENT","Address":"4413 US HWY 331 S","City":"DEFUNIAK SPRINGS","Zip":"32435","COUNTY":"WALTON","X":-86.117666689999993,"Y":30.65964224,"LONGLAT":"-86.11766669,30.65964224","USNG":"16R EU 84532 92214","OWNERSHIP":null,"PARCELID":null,"FACILITY_TYPE":"HOSPITAL - ACUTE CARE","TTL_BEDS":50,"EFCLASS":"EFHS"}},{"type":"Feature","id":351,"geometry":{"type":"Point","coordinates":[-85.542890595183394,30.765537471841832]},"properties":{"OBJECTID":351,"HAZUSID":null,"Name":"NORTHWEST FLORIDA COMMUNITY HOSP","Address":"1360 BRICKYARD RD","City":"CHIPLEY","Zip":"32428","COUNTY":"WASHINGTON","X":-85.542890600000007,"Y":30.765537470000002,"LONGLAT":"-85.54289060,30.76553747","USNG":"16R FV 39450 04525","OWNERSHIP":null,"PARCELID":null,"FACILITY_TYPE":"HOSPITAL - ACUTE CARE","TTL_BEDS":59,"EFCLASS":"EFHM"}}]}