{"type":"FeatureCollection","features":[{"type":"Feature","id":1,"geometry":{"type":"Point","coordinates":[-82.290848463433676,29.642206868865209]},"properties":{"OBJECTID":1,"Name":"ALACHUA COUNTY SHERIFF'S DEPT. HEADQUARTERS","Address":"1100 SE 27TH ST","City":"GAINESVILLE","Zip":"32641","COUNTY":"ALACHUA","X":-82.290848460000007,"Y":29.642206869999999,"LONGLAT":"-82.29084846,29.64220687","USNG":"17R LN 75051 79836","OWNERSHIP":"COUNTY","PARCELID":"16073 001 000","FACILITY_TYPE":"LAW ENFORCEMENT"}},{"type":"Feature","id":2,"geometry":{"type":"Point","coordinates":[-82.360440663851719,29.644977985149254]},"properties":{"OBJECTID":2,"Name":"UNIVERSITY OF FLORIDA POLICE DEPT (HQ)","Address":"BUILDING 51 - MUSEUM ROAD","City":"GAINESVILLE","Zip":"32611","COUNTY":"ALACHUA","X":-82.360440659999995,"Y":29.644977990000001,"LONGLAT":"-82.36044066,29.64497799","USNG":"17R LN 68317 80220","OWNERSHIP":null,"PARCELID":"15505 050 000","FACILITY_TYPE":"LAW ENFORCEMENT"}},{"type":"Feature","id":3,"geometry":{"type":"Point","coordinates":[-82.325018399223751,29.653039196726983]},"properties":{"OBJECTID":3,"Name":"F.B.I. - GAINESVILLE RESIDENT OFFICE","Address":"235 S MAIN ST","City":"GAINESVILLE","Zip":"32601","COUNTY":"ALACHUA","X":-82.325018400000005,"Y":29.653039199999998,"LONGLAT":"-82.32501840,29.65303920","USNG":"17R LN 71756 81074","OWNERSHIP":null,"PARCELID":"14560 000 000","FACILITY_TYPE":"LAW ENFORCEMENT"}},{"type":"Feature","id":4,"geometry":{"type":"Point","coordinates":[-82.325018399223751,29.653039196726983]},"properties":{"OBJECTID":4,"Name":"U.S. DRUG ENFORCEMENT ADMINISTRATION - GAINSVILLE FIELD OFFICE","Address":"235 S MAIN ST","City":"GAINESVILLE","Zip":"32601","COUNTY":"ALACHUA","X":-82.325018400000005,"Y":29.653039199999998,"LONGLAT":"-82.32501840,29.65303920","USNG":"17R LN 71756 81074","OWNERSHIP":null,"PARCELID":"14560 000 000","FACILITY_TYPE":"LAW ENFORCEMENT"}},{"type":"Feature","id":5,"geometry":{"type":"Point","coordinates":[-82.3213546748364,29.650629519213229]},"properties":{"OBJECTID":5,"Name":"BUREAU OF ALCOHOL, TOBACCO AND FIREARMS - GAINSVILLE FIELD OFFICE","Address":"401 SE 1ST AVE","City":"GAINESVILLE","Zip":"32601","COUNTY":"ALACHUA","X":-82.321354670000005,"Y":29.650629519999999,"LONGLAT":"-82.32135467,29.65062952","USNG":"17R LN 72108 80802","OWNERSHIP":"FEDERAL","PARCELID":"14598 000 000","FACILITY_TYPE":"LAW ENFORCEMENT"}},{"type":"Feature","id":6,"geometry":{"type":"Point","coordinates":[-82.498078794504778,29.792829339519741]},"properties":{"OBJECTID":6,"Name":"ALACHUA POLICE DEPT HEADQUARTERS","Address":"15100 NW 142ND TER","City":"ALACHUA","Zip":"32615","COUNTY":"ALACHUA","X":-82.498078789999994,"Y":29.792829340000001,"LONGLAT":"-82.49807879,29.79282934","USNG":"17R LN 55206 96770","OWNERSHIP":"MUNICIPAL","PARCELID":"03613 001 000","FACILITY_TYPE":"LAW ENFORCEMENT"}},{"type":"Feature","id":7,"geometry":{"type":"Point","coordinates":[-82.597655542011481,29.829142714001733]},"properties":{"OBJECTID":7,"Name":"HIGH SPRINGS POLICE DEPT HEADQUARTERS","Address":"110 NW 2ND AVE","City":"HIGH SPRINGS","Zip":"32643","COUNTY":"ALACHUA","X":-82.597655540000005,"Y":29.829142709999999,"LONGLAT":"-82.59765554,29.82914271","USNG":"17R LP 45636 00923","OWNERSHIP":"MUNICIPAL","PARCELID":"00642 000 000","FACILITY_TYPE":"LAW ENFORCEMENT"}},{"type":"Feature","id":8,"geometry":{"type":"Point","coordinates":[-82.329741924714853,29.659123067193523]},"properties":{"OBJECTID":8,"Name":"GAINESVILLE POLICE DEPT HEADQUARTERS","Address":"721 NW 6TH ST","City":"GAINESVILLE","Zip":"32601","COUNTY":"ALACHUA","X":-82.329741920000004,"Y":29.65912307,"LONGLAT":"-82.32974192,29.65912307","USNG":"17R LN 71307 81753","OWNERSHIP":"MUNICIPAL","PARCELID":"14396 000 000","FACILITY_TYPE":"LAW ENFORCEMENT"}},{"type":"Feature","id":9,"geometry":{"type":"Point","coordinates":[-82.302004968485107,29.607662985649362]},"properties":{"OBJECTID":9,"Name":"FLORIDA DEPT OF ENV PROTECT/DIV OF LAW ENFRCMNT NE PARK PATROL DIST","Address":"4812 SE 17TH ST","City":"GAINESVILLE","Zip":"32641","COUNTY":"ALACHUA","X":-82.302004969999999,"Y":29.607662990000001,"LONGLAT":"-82.30200497,29.60766299","USNG":"17R LN 73928 76020","OWNERSHIP":"STATE","PARCELID":"16267 000 000","FACILITY_TYPE":"LAW ENFORCEMENT"}},{"type":"Feature","id":10,"geometry":{"type":"Point","coordinates":[-82.430296680438644,29.679832904708967]},"properties":{"OBJECTID":10,"Name":"SANTA FE COMMUNITY COLLEGE CAMPUS POLICE","Address":"3000 NW 83RD ST","City":"GAINESVILLE","Zip":"32606","COUNTY":"ALACHUA","X":-82.430296679999998,"Y":29.679832909999998,"LONGLAT":"-82.43029668,29.67983291","USNG":"17R LN 61603 84164","OWNERSHIP":"STATE","PARCELID":"06231 005 000","FACILITY_TYPE":"LAW ENFORCEMENT"}},{"type":"Feature","id":11,"geometry":{"type":"Point","coordinates":[-82.354528769634626,29.711511804173359]},"properties":{"OBJECTID":11,"Name":"FLORIDA HIGHWAY PATROL TROOP B","Address":"6300 NW 13TH ST","City":"GAINESVILLE","Zip":"32653","COUNTY":"ALACHUA","X":-82.354528770000002,"Y":29.7115118,"LONGLAT":"-82.35452877,29.71151180","USNG":"17R LN 68976 87586","OWNERSHIP":"STATE","PARCELID":"06014 032 003","FACILITY_TYPE":"LAW ENFORCEMENT"}},{"type":"Feature","id":12,"geometry":{"type":"Point","coordinates":[-82.469210853628326,29.785388398822306]},"properties":{"OBJECTID":12,"Name":"FLORIDA DEPT OF LAW ENFORCEMENT GAINESVILLE FIELD OFFICE","Address":"14101 NW US HWY 441","City":"ALACHUA","Zip":"32615","COUNTY":"ALACHUA","X":-82.469210849999996,"Y":29.785388399999999,"LONGLAT":"-82.46921085,29.78538840","USNG":"17R LN 57986 95909","OWNERSHIP":"STATE","PARCELID":"03376 000 000","FACILITY_TYPE":"LAW ENFORCEMENT"}},{"type":"Feature","id":13,"geometry":{"type":"Point","coordinates":[-82.121650495082363,30.295968640997689]},"properties":{"OBJECTID":13,"Name":"BAKER COUNTY SHERIFF'S DEPT. HEADQUARTERS","Address":"1 SHERIFF'S OFFICE DR","City":"MACCLENNY","Zip":"32063","COUNTY":"BAKER","X":-82.121650500000001,"Y":30.295968640000002,"LONGLAT":"-82.12165050,30.29596864","USNG":"17R LP 92138 52114","OWNERSHIP":"COUNTY","PARCELID":"312S22000000000387","FACILITY_TYPE":"LAW ENFORCEMENT"}},{"type":"Feature","id":14,"geometry":{"type":"Point","coordinates":[-85.79457030797488,30.355803155885791]},"properties":{"OBJECTID":14,"Name":"NORTHWEST FLORIDA BEACHES INTERNATIONAL AIRPORT POLICE DEPT","Address":"6300 W BAY PKWY","City":"PANAMA CITY","Zip":"32409","COUNTY":"BAY","X":-85.794570309999997,"Y":30.355803160000001,"LONGLAT":"-85.79457031,30.35580316","USNG":"16R FU 15848 58828","OWNERSHIP":null,"PARCELID":null,"FACILITY_TYPE":"LAW ENFORCEMENT"}},{"type":"Feature","id":15,"geometry":{"type":"Point","coordinates":[-85.650576917823855,30.21046641140812]},"properties":{"OBJECTID":15,"Name":"BAY COUNTY SHERIFF'S DEPT HEADQUARTERS","Address":"3421 N HWY 77","City":"PANAMA CITY","Zip":"32405","COUNTY":"BAY","X":-85.650576920000006,"Y":30.210466409999999,"LONGLAT":"-85.65057692,30.21046641","USNG":"16R FU 29879 42876","OWNERSHIP":"COUNTY","PARCELID":"11811-000-000","FACILITY_TYPE":"LAW ENFORCEMENT"}},{"type":"Feature","id":16,"geometry":{"type":"Point","coordinates":[-85.777023217251383,30.185271146514573]},"properties":{"OBJECTID":16,"Name":"BAY COUNTY SHERIFF FRONT BEACH RD SUBSTATION","Address":"8128 FRONT BEACH RD","City":"PANAMA CITY BEACH","Zip":"32407","COUNTY":"BAY","X":-85.777023220000004,"Y":30.185271149999998,"LONGLAT":"-85.77702322,30.18527115","USNG":"16R FU 17738 39947","OWNERSHIP":"COUNTY","PARCELID":"27842-010-000","FACILITY_TYPE":"LAW ENFORCEMENT"}},{"type":"Feature","id":17,"geometry":{"type":"Point","coordinates":[-85.574218361928914,30.140653200512034]},"properties":{"OBJECTID":17,"Name":"BAY COUNTY SHERIFF'S DEPT CALLAWAY SUBSTATION","Address":"323 S BERTHE AVE","City":"PANAMA CITY","Zip":"32404","COUNTY":"BAY","X":-85.574218360000003,"Y":30.140653199999999,"LONGLAT":"-85.57421836,30.14065320","USNG":"16R FU 37326 35229","OWNERSHIP":"COUNTY","PARCELID":"06912-000-000","FACILITY_TYPE":"LAW ENFORCEMENT"}},{"type":"Feature","id":18,"geometry":{"type":"Point","coordinates":[-85.593753455769331,30.070081996056778]},"properties":{"OBJECTID":18,"Name":"TYNDALL AFB POLICE STATION","Address":"MAIN GATE","City":"PANAMA CITY","Zip":"32403","COUNTY":"BAY","X":-85.593753460000002,"Y":30.070081999999999,"LONGLAT":"-85.59375346,30.07008200","USNG":"16R FU 35540 27384","OWNERSHIP":"FEDERAL","PARCELID":"26397-000-000","FACILITY_TYPE":"LAW ENFORCEMENT"}},{"type":"Feature","id":19,"geometry":{"type":"Point","coordinates":[-85.727704372823951,30.183315862045895]},"properties":{"OBJECTID":19,"Name":"U.S. CUSTOMS AND BORDER PROTECTION - PORT OF PANAMA CITY","Address":"5209 W HIGHWAY 98","City":"PANAMA CITY","Zip":"32401","COUNTY":"BAY","X":-85.727704369999998,"Y":30.18331586,"LONGLAT":"-85.72770437,30.18331586","USNG":"16R FU 22488 39782","OWNERSHIP":"FEDERAL","PARCELID":"27938-000-000","FACILITY_TYPE":"LAW ENFORCEMENT"}},{"type":"Feature","id":20,"geometry":{"type":"Point","coordinates":[-85.641211844784877,30.175560179495932]},"properties":{"OBJECTID":20,"Name":"PANAMA CITY POLICE DEPT HEADQUARTERS","Address":"1209 E 15TH ST","City":"PANAMA CITY","Zip":"32405","COUNTY":"BAY","X":-85.641211839999997,"Y":30.175560180000002,"LONGLAT":"-85.64121184,30.17556018","USNG":"16R FU 30826 39018","OWNERSHIP":"MUNICIPAL","PARCELID":"14723-000-000","FACILITY_TYPE":"LAW ENFORCEMENT"}},{"type":"Feature","id":21,"geometry":{"type":"Point","coordinates":[-85.647812661782879,30.24560265296191]},"properties":{"OBJECTID":21,"Name":"LYNN HAVEN POLICE DEPARTMENT","Address":"108 E 9TH ST","City":"LYNN HAVEN","Zip":"32444","COUNTY":"BAY","X":-85.64781266,"Y":30.245602649999999,"LONGLAT":"-85.64781266,30.24560265","USNG":"16R FU 30099 46773","OWNERSHIP":"MUNICIPAL","PARCELID":"09617-000-000","FACILITY_TYPE":"LAW ENFORCEMENT"}},{"type":"Feature","id":22,"geometry":{"type":"Point","coordinates":[-85.889539995593566,30.228829980861438]},"properties":{"OBJECTID":22,"Name":"PANAMA CITY BEACH POLICE DEPT HEADQUARTERS","Address":"17110 FIRENZO AVE","City":"PANAMA CITY BEACH","Zip":"32413","COUNTY":"BAY","X":-85.889539999999997,"Y":30.22882998,"LONGLAT":"-85.88954000,30.22882998","USNG":"16R FU 06858 44663","OWNERSHIP":"MUNICIPAL","PARCELID":"33390-000-000","FACILITY_TYPE":"LAW ENFORCEMENT"}},{"type":"Feature","id":23,"geometry":{"type":"Point","coordinates":[-85.693714069576856,30.214379464639361]},"properties":{"OBJECTID":23,"Name":"U.S. DRUG ENFORCEMENT ADMINISTRATION - PANAMA CITY FIELD OFFICE","Address":"3811 FRANKFORD AVE","City":"PANAMA CITY","Zip":"32405","COUNTY":"BAY","X":-85.693714069999999,"Y":30.214379470000001,"LONGLAT":"-85.69371407,30.21437947","USNG":"16R FU 25721 43262","OWNERSHIP":"FEDERAL","PARCELID":"26656-010-000","FACILITY_TYPE":"LAW ENFORCEMENT"}},{"type":"Feature","id":24,"geometry":{"type":"Point","coordinates":[-85.666096058909702,30.189188290133568]},"properties":{"OBJECTID":24,"Name":"F.B.I. - PANAMA CITY RESIDENT OFFICE","Address":"469 W 23RD ST","City":"PANAMA CITY","Zip":"32405","COUNTY":"BAY","X":-85.666096060000001,"Y":30.189188290000001,"LONGLAT":"-85.66609606,30.18918829","USNG":"16R FU 28412 40501","OWNERSHIP":"FEDERAL","PARCELID":"14168-030-001","FACILITY_TYPE":"LAW ENFORCEMENT"}},{"type":"Feature","id":25,"geometry":{"type":"Point","coordinates":[-85.578518221025348,30.236017686194664]},"properties":{"OBJECTID":25,"Name":"FLORIDA HIGHWAY PATROL TROOP A HEADQUARTERS","Address":"6030 COUNTY ROAD 2321","City":"PANAMA CITY","Zip":"32404","COUNTY":"BAY","X":-85.578518220000007,"Y":30.236017690000001,"LONGLAT":"-85.57851822,30.23601769","USNG":"16R FU 36780 45793","OWNERSHIP":"STATE","PARCELID":"05830-010-000","FACILITY_TYPE":"LAW ENFORCEMENT"}},{"type":"Feature","id":26,"geometry":{"type":"Point","coordinates":[-85.741633342842917,30.135257064394981]},"properties":{"OBJECTID":26,"Name":"FLORIDA DEPT OF ENV PROTECT/DIV OF LAW ENFRCMNT NW PARK PATROL DIST","Address":"4505 STATE PARK LANE","City":"PANAMA CITY","Zip":"32408","COUNTY":"BAY","X":-85.741633340000007,"Y":30.135257070000002,"LONGLAT":"-85.74163334,30.13525707","USNG":"16R FU 21206 34441","OWNERSHIP":"STATE","PARCELID":"31419-000-000","FACILITY_TYPE":"LAW ENFORCEMENT"}},{"type":"Feature","id":27,"geometry":{"type":"Point","coordinates":[-85.695209916766473,30.190899289312107]},"properties":{"OBJECTID":27,"Name":"FDLE SUBSTATION: PANAMA CITY FIELD OFFICE","Address":"2237 W 24TH ST","City":"PANAMA CITY","Zip":"32405","COUNTY":"BAY","X":-85.695209919999996,"Y":30.190899290000001,"LONGLAT":"-85.69520992,30.19089929","USNG":"16R FU 25607 40658","OWNERSHIP":"STATE","PARCELID":"26718-183-000","FACILITY_TYPE":"LAW ENFORCEMENT"}},{"type":"Feature","id":28,"geometry":{"type":"Point","coordinates":[-85.590665028465963,30.139061240860514]},"properties":{"OBJECTID":28,"Name":"FLORIDA DEPT OF LAW ENFORCEMENT PANAMA CITY FIELD OFFICE","Address":"429 S TYNDALL PARKWAY","City":"PANAMA CITY","Zip":"32404","COUNTY":"BAY","X":-85.590665029999997,"Y":30.13906124,"LONGLAT":"-85.59066503,30.13906124","USNG":"16R FU 35744 35032","OWNERSHIP":"STATE","PARCELID":"07037-055-000","FACILITY_TYPE":"LAW ENFORCEMENT"}},{"type":"Feature","id":29,"geometry":{"type":"Point","coordinates":[-85.623562495292148,30.172609413375653]},"properties":{"OBJECTID":29,"Name":"BAY COUNTY SHERIFF SUBSTATION","Address":"2728 E 14TH ST","City":"PANAMA CITY","Zip":"32401","COUNTY":"BAY","X":-85.623562500000006,"Y":30.17260941,"LONGLAT":"-85.62356250,30.17260941","USNG":"16R FU 32530 38712","OWNERSHIP":"MUNICIPAL","PARCELID":"15323-000-000","FACILITY_TYPE":"LAW ENFORCEMENT"}},{"type":"Feature","id":30,"geometry":{"type":"Point","coordinates":[-85.721632254838426,30.190116356006769]},"properties":{"OBJECTID":30,"Name":"FSU PD PANAMA CITY CAMPUS","Address":"4750 COLLEGIATE DR","City":"PANAMA CITY","Zip":"32405","COUNTY":"BAY","X":-85.721632249999999,"Y":30.190116360000001,"LONGLAT":"-85.72163225,30.19011636","USNG":"16R FU 23065 40542","OWNERSHIP":"STATE","PARCELID":"27018-000-000","FACILITY_TYPE":"LAW ENFORCEMENT"}},{"type":"Feature","id":31,"geometry":{"type":"Point","coordinates":[-85.605073168738784,30.129200220941975]},"properties":{"OBJECTID":31,"Name":"PARKER POLICE DEPT HEADQUARTERS","Address":"1001 W PARK ST","City":"PANAMA CITY","Zip":"32404","COUNTY":"BAY","X":-85.605073169999997,"Y":30.129200220000001,"LONGLAT":"-85.60507317,30.12920022","USNG":"16R FU 34369 33923","OWNERSHIP":"MUNICIPAL","PARCELID":"25876-000-000","FACILITY_TYPE":"LAW ENFORCEMENT"}},{"type":"Feature","id":32,"geometry":{"type":"Point","coordinates":[-85.614940026311729,30.153380012563687]},"properties":{"OBJECTID":32,"Name":"SPRINGFIELD POLICE DEPT HEADQUARTERS","Address":"3529 E 3RD ST","City":"PANAMA CITY","Zip":"32401","COUNTY":"BAY","X":-85.61494003,"Y":30.153380009999999,"LONGLAT":"-85.61494003,30.15338001","USNG":"16R FU 33386 36591","OWNERSHIP":"MUNICIPAL","PARCELID":"23169-000-000","FACILITY_TYPE":"LAW ENFORCEMENT"}},{"type":"Feature","id":33,"geometry":{"type":"Point","coordinates":[-85.682984002123419,30.20732143146823]},"properties":{"OBJECTID":33,"Name":"PANAMA CITY AIRPORT POLICE DEPT HQ","Address":"3173 AIRPORT RD","City":"PANAMA CITY","Zip":"32405","COUNTY":"BAY","X":-85.682984000000005,"Y":30.20732143,"LONGLAT":"-85.68298400,30.20732143","USNG":"16R FU 26763 42491","OWNERSHIP":"MUNICIPAL","PARCELID":"11728-000-000","FACILITY_TYPE":"LAW ENFORCEMENT"}},{"type":"Feature","id":34,"geometry":{"type":"Point","coordinates":[-85.623562495292148,30.172609413375653]},"properties":{"OBJECTID":34,"Name":"CEDAR GROVE POLICE DEPT HEADQUARTERS","Address":"2728 E 14TH ST","City":"PANAMA CITY","Zip":"32401","COUNTY":"BAY","X":-85.623562500000006,"Y":30.17260941,"LONGLAT":"-85.62356250,30.17260941","USNG":"16R FU 32530 38712","OWNERSHIP":"MUNICIPAL","PARCELID":"15323-000-000","FACILITY_TYPE":"LAW ENFORCEMENT"}},{"type":"Feature","id":35,"geometry":{"type":"Point","coordinates":[-85.405194368383491,29.941356928982593]},"properties":{"OBJECTID":35,"Name":"MEXICO BEACH PUBLIC SAFETY OFFICE HEADQUARTERS","Address":"118 14TH ST","City":"PORT SAINT JOE","Zip":"32456","COUNTY":"BAY","X":-85.405194370000004,"Y":29.941356930000001,"LONGLAT":"-85.40519437,29.94135693","USNG":"16R FU 53915 13356","OWNERSHIP":"MUNICIPAL","PARCELID":"04420-025-000","FACILITY_TYPE":"LAW ENFORCEMENT"}},{"type":"Feature","id":36,"geometry":{"type":"Point","coordinates":[-85.647904123784372,30.236935487151573]},"properties":{"OBJECTID":36,"Name":"LYNN HAVEN POLICE DEPT HEADQUARTERS","Address":"1412 PENNSYLVANIA AVE","City":"LYNN HAVEN","Zip":"32444","COUNTY":"BAY","X":-85.647904120000007,"Y":30.23693549,"LONGLAT":"-85.64790412,30.23693549","USNG":"16R FU 30101 45813","OWNERSHIP":"MUNICIPAL","PARCELID":"10231-000-000","FACILITY_TYPE":"LAW ENFORCEMENT"}},{"type":"Feature","id":37,"geometry":{"type":"Point","coordinates":[-82.118790136806567,29.938153193180831]},"properties":{"OBJECTID":37,"Name":"STARKE POLICE DEPT HEADQUARTERS","Address":"830 EDWARDS RD","City":"STARKE","Zip":"32091","COUNTY":"BRADFORD","X":-82.118790140000002,"Y":29.938153190000001,"LONGLAT":"-82.11879014,29.93815319","USNG":"17R LP 92024 12458","OWNERSHIP":"MUNICIPAL","PARCELID":"04218-0-00100","FACILITY_TYPE":"LAW ENFORCEMENT"}},{"type":"Feature","id":38,"geometry":{"type":"Point","coordinates":[-82.07264380443948,30.044946502334]},"properties":{"OBJECTID":38,"Name":"LAWTEY POLICE DEPT. HEADQUARTERS","Address":"2793 LAKE ST","City":"LAWTEY","Zip":"32058","COUNTY":"BRADFORD","X":-82.072643799999994,"Y":30.044946500000002,"LONGLAT":"-82.07264380,30.04494650","USNG":"17R LP 96589 24250","OWNERSHIP":"MUNICIPAL","PARCELID":"01452-0-00100","FACILITY_TYPE":"LAW ENFORCEMENT"}},{"type":"Feature","id":39,"geometry":{"type":"Point","coordinates":[-82.109512472602532,29.954315138706008]},"properties":{"OBJECTID":39,"Name":"BRADFORD COUNTY SHERIFF'S OFFICE","Address":"945B N TEMPLE AVE","City":"STARKE","Zip":"32091","COUNTY":"BRADFORD","X":-82.109512469999999,"Y":29.954315139999999,"LONGLAT":"-82.10951247,29.95431514","USNG":"17R LP 92937 14240","OWNERSHIP":"COUNTY","PARCELID":"02405-0-00000","FACILITY_TYPE":"LAW ENFORCEMENT"}},{"type":"Feature","id":40,"geometry":{"type":"Point","coordinates":[-80.830312014372026,28.543063945743665]},"properties":{"OBJECTID":40,"Name":"BREVARD CO SHERIFF'S OFFICE - NORTH PRECINCT","Address":"2290 COLUMBIA BLVD","City":"TITUSVILLE","Zip":"32780","COUNTY":"BREVARD","X":-80.83031201,"Y":28.543063950000001,"LONGLAT":"-80.83031201,28.54306395","USNG":"17R NM 16599 57374","OWNERSHIP":null,"PARCELID":null,"FACILITY_TYPE":"LAW ENFORCEMENT"}},{"type":"Feature","id":41,"geometry":{"type":"Point","coordinates":[-80.737092703913376,28.245717572873453]},"properties":{"OBJECTID":41,"Name":"BREVARD COUNTY SHERIFF'S DEPT. WEST PRECINCT","Address":"2725 JUDGE FRAN JAMIESON WAY BLDG E","City":"ROCKLEDGE","Zip":"32955","COUNTY":"BREVARD","X":-80.737092700000005,"Y":28.24571757,"LONGLAT":"-80.73709270,28.24571757","USNG":"17R NM 25790 24450","OWNERSHIP":"COUNTY","PARCELID":"26 360400  504","FACILITY_TYPE":"LAW ENFORCEMENT"}},{"type":"Feature","id":42,"geometry":{"type":"Point","coordinates":[-80.800070018830169,28.469000004913244]},"properties":{"OBJECTID":42,"Name":"BREVARD CO SHERIFF'S OFFICE - PORT ST. JOHN SUBSTATION","Address":"6315 DEPOT AVE","City":"COCOA","Zip":"32927","COUNTY":"BREVARD","X":-80.800070020000007,"Y":28.469000009999998,"LONGLAT":"-80.80007002,28.46900001","USNG":"17R NM 19571 49173","OWNERSHIP":"COUNTY","PARCELID":"23 3523JM  103    8","FACILITY_TYPE":"LAW ENFORCEMENT"}},{"type":"Feature","id":43,"geometry":{"type":"Point","coordinates":[-80.523548326772385,27.88613480143383]},"properties":{"OBJECTID":43,"Name":"BREVARD CO SHERIFF'S OFFICE - SOUTH SUBSTATION","Address":"937 BAREFOOT BLVD","City":"SEBASTIAN","Zip":"32976","COUNTY":"BREVARD","X":-80.523548329999997,"Y":27.886134800000001,"LONGLAT":"-80.52354833,27.88613480","USNG":"17R NL 46895 84680","OWNERSHIP":null,"PARCELID":null,"FACILITY_TYPE":"LAW ENFORCEMENT"}},{"type":"Feature","id":44,"geometry":{"type":"Point","coordinates":[-80.610375264984043,28.317893783562656]},"properties":{"OBJECTID":44,"Name":"COCOA BEACH POLICE DEPARTMENT","Address":"2 S ORLANDO AVE","City":"COCOA BEACH","Zip":"32932","COUNTY":"BREVARD","X":-80.610375259999998,"Y":28.317893779999999,"LONGLAT":"-80.61037526,28.31789378","USNG":"17R NM 38196 32479","OWNERSHIP":null,"PARCELID":null,"FACILITY_TYPE":"LAW ENFORCEMENT"}},{"type":"Feature","id":45,"geometry":{"type":"Point","coordinates":[-80.626785024472142,28.106928440463872]},"properties":{"OBJECTID":45,"Name":"BREVARD CO SHERIFF'S OFFICE - SOUTH PRECINCT","Address":"51 NIEMAN AVE","City":"MELBOURNE","Zip":"32901","COUNTY":"BREVARD","X":-80.62678502,"Y":28.106928440000001,"LONGLAT":"-80.62678502,28.10692844","USNG":"17R NM 36659 09103","OWNERSHIP":"COUNTY","PARCELID":"27 372800    4","FACILITY_TYPE":"LAW ENFORCEMENT"}},{"type":"Feature","id":46,"geometry":{"type":"Point","coordinates":[-80.657859462984689,28.190234324494536]},"properties":{"OBJECTID":46,"Name":"BREVARD COUNTY SHERIFF OFFICE-WEST PRECINCT SUBST","Address":"5030 PAUL HURTT LN","City":"PALM SHORES","Zip":"32940","COUNTY":"BREVARD","X":-80.657859459999997,"Y":28.190234329999999,"LONGLAT":"-80.65785946,28.19023433","USNG":"17R NM 33580 18323","OWNERSHIP":"COUNTY","PARCELID":null,"FACILITY_TYPE":"LAW ENFORCEMENT"}},{"type":"Feature","id":47,"geometry":{"type":"Point","coordinates":[-80.60448822942061,28.384426852363003]},"properties":{"OBJECTID":47,"Name":"BREVARD CO SHERIFF'S OFFICE - CANAVERAL PRECINCT","Address":"111 POLK AVE","City":"CAPE CANAVERAL","Zip":"32920","COUNTY":"BREVARD","X":-80.604488230000001,"Y":28.384426850000001,"LONGLAT":"-80.60448823,28.38442685","USNG":"17R NM 38749 39852","OWNERSHIP":"COUNTY","PARCELID":"24 3723CG   46    1","FACILITY_TYPE":"LAW ENFORCEMENT"}},{"type":"Feature","id":48,"geometry":{"type":"Point","coordinates":[-80.602313706380556,28.173336417571807]},"properties":{"OBJECTID":48,"Name":"SATELLITE BEACH POLICE DEPARTMENT","Address":"510 CINNAMON DR","City":"SATELLITE BEACH","Zip":"32937","COUNTY":"BREVARD","X":-80.602313710000004,"Y":28.173336419999998,"LONGLAT":"-80.60231371,28.17333642","USNG":"17R NM 39038 16467","OWNERSHIP":"MUNICIPAL","PARCELID":"26 373553    E    1","FACILITY_TYPE":"LAW ENFORCEMENT"}},{"type":"Feature","id":49,"geometry":{"type":"Point","coordinates":[-80.638757918940854,28.117123501175882]},"properties":{"OBJECTID":49,"Name":"MELBOURNE POLICE DEPARTMENT","Address":"650 N APOLLO BLVD","City":"MELBOURNE","Zip":"32935","COUNTY":"BREVARD","X":-80.638757920000003,"Y":28.117123500000002,"LONGLAT":"-80.63875792,28.11712350","USNG":"17R NM 35479 10229","OWNERSHIP":"MUNICIPAL","PARCELID":"27 372000  750","FACILITY_TYPE":"LAW ENFORCEMENT"}},{"type":"Feature","id":50,"geometry":{"type":"Point","coordinates":[-80.67532360119688,28.221877772682713]},"properties":{"OBJECTID":50,"Name":"F.B.I. - BREVARD RESIDENT OFFICE","Address":"6767 N WICKHAM RD SUITE 310","City":"MELBOURNE","Zip":"32940","COUNTY":"BREVARD","X":-80.675323599999999,"Y":28.221877769999999,"LONGLAT":"-80.67532360,28.22187777","USNG":"17R NM 31857 21823","OWNERSHIP":"FEDERAL","PARCELID":"26 361377    1","FACILITY_TYPE":"LAW ENFORCEMENT"}},{"type":"Feature","id":51,"geometry":{"type":"Point","coordinates":[-80.60648592659777,28.40535339140725]},"properties":{"OBJECTID":51,"Name":"U.S. CUSTOMS AND BORDER PROTECTION - CAPE CANAVERAL","Address":"120 GEORGE KING BLVD","City":"CAPE CANAVERAL","Zip":"32920","COUNTY":"BREVARD","X":-80.606485930000005,"Y":28.405353389999998,"LONGLAT":"-80.60648593,28.40535339","USNG":"17R NM 38545 42169","OWNERSHIP":"FEDERAL","PARCELID":null,"FACILITY_TYPE":"LAW ENFORCEMENT"}},{"type":"Feature","id":52,"geometry":{"type":"Point","coordinates":[-80.621455856644758,28.416051102050282]},"properties":{"OBJECTID":52,"Name":"U.S. COAST GUARD - PORT CANAVERAL STATION","Address":"9235 GROUPER RD","City":"CAPE CANAVERAL","Zip":"32920","COUNTY":"BREVARD","X":-80.621455859999998,"Y":28.416051100000001,"LONGLAT":"-80.62145586,28.41605110","USNG":"17R NM 37075 43350","OWNERSHIP":"FEDERAL","PARCELID":"24 371000    1","FACILITY_TYPE":"LAW ENFORCEMENT"}},{"type":"Feature","id":53,"geometry":{"type":"Point","coordinates":[-80.645086901545781,28.120756740460742]},"properties":{"OBJECTID":53,"Name":"BREVARD CO SHERIFF'S OFFICE - ANIMAL CONTROL","Address":"1515 SARNO RD","City":"MELBOURNE","Zip":"32935","COUNTY":"BREVARD","X":-80.645086899999995,"Y":28.120756740000001,"LONGLAT":"-80.64508690,28.12075674","USNG":"17R NM 34857 10630","OWNERSHIP":"COUNTY","PARCELID":"27 372000  752","FACILITY_TYPE":"LAW ENFORCEMENT"}},{"type":"Feature","id":54,"geometry":{"type":"Point","coordinates":[-80.818973855382282,28.60742971716488]},"properties":{"OBJECTID":54,"Name":"BREVARD CO SHERIFF'S OFFICE - HEADQUARTERS","Address":"700 PARK AVE","City":"TITUSVILLE","Zip":"32780","COUNTY":"BREVARD","X":-80.81897386,"Y":28.607429719999999,"LONGLAT":"-80.81897386,28.60742972","USNG":"17R NM 17698 64506","OWNERSHIP":"COUNTY","PARCELID":"22 350476         1","FACILITY_TYPE":"LAW ENFORCEMENT"}},{"type":"Feature","id":55,"geometry":{"type":"Point","coordinates":[-80.706381377186204,28.403517924894082]},"properties":{"OBJECTID":55,"Name":"BREVARD CO SHERIFF'S OFFICE - EAST PRECINCT","Address":"2575 N COURTENAY PKWY","City":"MERRITT ISLAND","Zip":"32953","COUNTY":"BREVARD","X":-80.706381379999996,"Y":28.40351793,"LONGLAT":"-80.70638138,28.40351793","USNG":"17R NM 28761 41938","OWNERSHIP":"COUNTY","PARCELID":"24 361400  287","FACILITY_TYPE":"LAW ENFORCEMENT"}},{"type":"Feature","id":56,"geometry":{"type":"Point","coordinates":[-80.570044744559382,28.090964034625646]},"properties":{"OBJECTID":56,"Name":"INDIALANTIC POLICE DEPT HEADQUARTERS","Address":"220 5TH AVE","City":"INDIALANTIC","Zip":"32903","COUNTY":"BREVARD","X":-80.57004474,"Y":28.090964039999999,"LONGLAT":"-80.57004474,28.09096404","USNG":"17R NM 42238 07353","OWNERSHIP":"MUNICIPAL","PARCELID":"27 3831EO   20   13","FACILITY_TYPE":"LAW ENFORCEMENT"}},{"type":"Feature","id":57,"geometry":{"type":"Point","coordinates":[-80.563738416303067,28.067930963836758]},"properties":{"OBJECTID":57,"Name":"MELBOURNE BEACH POLICE DEPARTMENT","Address":"507 OCEAN AVE","City":"MELBOURNE BEACH","Zip":"32951","COUNTY":"BREVARD","X":-80.563738420000007,"Y":28.067930960000002,"LONGLAT":"-80.56373842,28.06793096","USNG":"17R NM 42867 04804","OWNERSHIP":"MUNICIPAL","PARCELID":"28 3807FY    1    1","FACILITY_TYPE":"LAW ENFORCEMENT"}},{"type":"Feature","id":58,"geometry":{"type":"Point","coordinates":[-80.669467753079999,27.997688238818711]},"properties":{"OBJECTID":58,"Name":"PALM BAY POLICE DEPARTMENT","Address":"130 MALABAR RD SE","City":"PALM BAY","Zip":"32909","COUNTY":"BREVARD","X":-80.669467749999995,"Y":27.997688239999999,"LONGLAT":"-80.66946775,27.99768824","USNG":"17R NL 32499 96990","OWNERSHIP":"MUNICIPAL","PARCELID":"29 3706GK    A","FACILITY_TYPE":"LAW ENFORCEMENT"}},{"type":"Feature","id":59,"geometry":{"type":"Point","coordinates":[-80.664840123616301,28.087374809481208]},"properties":{"OBJECTID":59,"Name":"MELBOURNE VILLAGE POLICE DEPARTMENT","Address":"555 HAMMOCK RD","City":"MELBOURNE","Zip":"32904","COUNTY":"BREVARD","X":-80.664840119999994,"Y":28.08737481,"LONGLAT":"-80.66484012,28.08737481","USNG":"17R NM 32927 06926","OWNERSHIP":"MUNICIPAL","PARCELID":"27 373151         101","FACILITY_TYPE":"LAW ENFORCEMENT"}},{"type":"Feature","id":60,"geometry":{"type":"Point","coordinates":[-80.723618476434424,28.330230649646168]},"properties":{"OBJECTID":60,"Name":"ROCKLEDGE POLICE DEPARTMENT","Address":"123 BARTON BLVD","City":"ROCKLEDGE","Zip":"32955","COUNTY":"BREVARD","X":-80.723618479999999,"Y":28.330230650000001,"LONGLAT":"-80.72361848,28.33023065","USNG":"17R NM 27091 33815","OWNERSHIP":"MUNICIPAL","PARCELID":"25 360900    4","FACILITY_TYPE":"LAW ENFORCEMENT"}},{"type":"Feature","id":61,"geometry":{"type":"Point","coordinates":[-80.597924613969695,28.145947167258662]},"properties":{"OBJECTID":61,"Name":"INDIAN HARBOUR BEACH POLICE DEPARTMENT","Address":"40 CHEYENNE CT","City":"SATELLITE BEACH","Zip":"32937","COUNTY":"BREVARD","X":-80.597924610000007,"Y":28.145947169999999,"LONGLAT":"-80.59792461,28.14594717","USNG":"17R NM 39479 13435","OWNERSHIP":"MUNICIPAL","PARCELID":"27 371180        17","FACILITY_TYPE":"LAW ENFORCEMENT"}},{"type":"Feature","id":62,"geometry":{"type":"Point","coordinates":[-80.671645527974761,28.072750109491732]},"properties":{"OBJECTID":62,"Name":"WEST MELBOURNE POLICE DEPARTMENT","Address":"2290 MINTON RD","City":"MELBOURNE","Zip":"32904","COUNTY":"BREVARD","X":-80.671645530000006,"Y":28.072750110000001,"LONGLAT":"-80.67164553,28.07275011","USNG":"17R NM 32263 05304","OWNERSHIP":"MUNICIPAL","PARCELID":"28 360100  760","FACILITY_TYPE":"LAW ENFORCEMENT"}},{"type":"Feature","id":63,"geometry":{"type":"Point","coordinates":[-80.630974747634042,28.097692816358201]},"properties":{"OBJECTID":63,"Name":"MELBOURNE INT'L AIRPORT POLICE DEPARTMENT","Address":"1 AIR TERMINAL PKWY","City":"MELBOURNE","Zip":"32901","COUNTY":"BREVARD","X":-80.630974749999993,"Y":28.097692819999999,"LONGLAT":"-80.63097475,28.09769282","USNG":"17R NM 36250 08079","OWNERSHIP":"MUNICIPAL","PARCELID":"27 373300    1","FACILITY_TYPE":"LAW ENFORCEMENT"}},{"type":"Feature","id":64,"geometry":{"type":"Point","coordinates":[-80.630974747634042,28.097692816358201]},"properties":{"OBJECTID":64,"Name":"U.S. CUSTOMS AND BORDER PROTECTION - MELBOURNE INT'L AIRPORT","Address":"1 AIR TERMINAL PKWY","City":"MELBOURNE","Zip":"32901","COUNTY":"BREVARD","X":-80.630974749999993,"Y":28.097692819999999,"LONGLAT":"-80.63097475,28.09769282","USNG":"17R NM 36250 08079","OWNERSHIP":"MUNICIPAL","PARCELID":"27 373300    1","FACILITY_TYPE":"LAW ENFORCEMENT"}},{"type":"Feature","id":65,"geometry":{"type":"Point","coordinates":[-80.814949314753079,28.530599925347392]},"properties":{"OBJECTID":65,"Name":"TITUSVILLE POLICE DEPT HEADQUARTERS","Address":"1100 JOHN GLENN BLVD","City":"TITUSVILLE","Zip":"32780","COUNTY":"BREVARD","X":-80.814949310000003,"Y":28.530599930000001,"LONGLAT":"-80.81494931,28.53059993","USNG":"17R NM 18104 55995","OWNERSHIP":"MUNICIPAL","PARCELID":"22 353300  752","FACILITY_TYPE":"LAW ENFORCEMENT"}},{"type":"Feature","id":66,"geometry":{"type":"Point","coordinates":[-80.622348618342158,28.096689319233018]},"properties":{"OBJECTID":66,"Name":"FDLE - MELBOURNE FIELD OFFICE","Address":"700 S BABCOCK ST","City":"MELBOURNE","Zip":"32901","COUNTY":"BREVARD","X":-80.622348619999997,"Y":28.096689319999999,"LONGLAT":"-80.62234862,28.09668932","USNG":"17R NM 37098 07970","OWNERSHIP":"STATE","PARCELID":"27 373300    1B","FACILITY_TYPE":"LAW ENFORCEMENT"}},{"type":"Feature","id":67,"geometry":{"type":"Point","coordinates":[-80.74678247521922,28.356274303371958]},"properties":{"OBJECTID":67,"Name":"COCOA POLICE DEPARTMENT","Address":"1226 W KING ST","City":"COCOA","Zip":"32922","COUNTY":"BREVARD","X":-80.746782479999993,"Y":28.356274299999999,"LONGLAT":"-80.74678248,28.35627430","USNG":"17R NM 24814 36695","OWNERSHIP":"MUNICIPAL","PARCELID":"24 363200  270","FACILITY_TYPE":"LAW ENFORCEMENT"}},{"type":"Feature","id":68,"geometry":{"type":"Point","coordinates":[-80.782688581654838,28.357129199783273]},"properties":{"OBJECTID":68,"Name":"FLORIDA HIGHWAY PATROL TROOP D","Address":"3775 KING ST","City":"COCOA","Zip":"32926","COUNTY":"BREVARD","X":-80.782688579999999,"Y":28.357129199999999,"LONGLAT":"-80.78268858,28.35712920","USNG":"17R NM 21295 36783","OWNERSHIP":"STATE","PARCELID":"24 353600  283","FACILITY_TYPE":"LAW ENFORCEMENT"}},{"type":"Feature","id":69,"geometry":{"type":"Point","coordinates":[-80.794181507187318,28.624172984421069]},"properties":{"OBJECTID":69,"Name":"FDEP/DIVISION OF LAW ENFORCEMENT - CENTRAL PARK PATROL DISTRICT","Address":"1-A MAX BREWER MEMORIAL PKWY","City":"TITUSVILLE","Zip":"32796","COUNTY":"BREVARD","X":-80.794181510000001,"Y":28.624172990000002,"LONGLAT":"-80.79418151,28.62417299","USNG":"17R NM 20118 66365","OWNERSHIP":"STATE","PARCELID":"21 353500  250","FACILITY_TYPE":"LAW ENFORCEMENT"}},{"type":"Feature","id":70,"geometry":{"type":"Point","coordinates":[-80.667328154938374,28.16927998626192]},"properties":{"OBJECTID":70,"Name":"EASTERN FLORIDA STATE COLLEGE - CRIMINAL JUSTICE CENTER","Address":"3865 N WICKHAM RD","City":"MELBOURNE","Zip":"32935","COUNTY":"BREVARD","X":-80.667328150000003,"Y":28.16927999,"LONGLAT":"-80.66732815,28.16927999","USNG":"17R NM 32657 15999","OWNERSHIP":"STATE","PARCELID":null,"FACILITY_TYPE":"LAW ENFORCEMENT"}},{"type":"Feature","id":71,"geometry":{"type":"Point","coordinates":[-80.163083015724354,26.204912739401109]},"properties":{"OBJECTID":71,"Name":"FLORIDA DEPT OF LAW ENFORCEMENT BROWARD FIELD OFFICE","Address":"1475 NW 62ND ST","City":"FORT LAUDERDALE","Zip":"33309","COUNTY":"BROWARD","X":-80.163083020000002,"Y":26.204912740000001,"LONGLAT":"-80.16308302,26.20491274","USNG":"17R NJ 83612 98646","OWNERSHIP":"STATE","PARCELID":"494209010270","FACILITY_TYPE":"LAW ENFORCEMENT"}},{"type":"Feature","id":72,"geometry":{"type":"Point","coordinates":[-80.166009819626936,26.189202990824128]},"properties":{"OBJECTID":72,"Name":"FLORIDA ATLANTIC UNIVERSITY POLICE - COMMERCIAL BLV","Address":"1515 W COMMERCIAL BOULEVARD","City":"FORT LAUDERDALE","Zip":"33309","COUNTY":"BROWARD","X":-80.166009819999999,"Y":26.189202989999998,"LONGLAT":"-80.16600982,26.18920299","USNG":"17R NJ 83331 96904","OWNERSHIP":"STATE","PARCELID":"494209290230","FACILITY_TYPE":"LAW ENFORCEMENT"}},{"type":"Feature","id":73,"geometry":{"type":"Point","coordinates":[-80.336224137319988,26.119851170716121]},"properties":{"OBJECTID":73,"Name":"FLORIDA HIGHWAY PATROL TROOP L","Address":"14190 W STATE ROAD 84","City":"FORT LAUDERDALE","Zip":"33325","COUNTY":"BROWARD","X":-80.336224139999999,"Y":26.11985117,"LONGLAT":"-80.33622414,26.11985117","USNG":"17R NJ 66362 89125","OWNERSHIP":"STATE","PARCELID":"504003060010","FACILITY_TYPE":"LAW ENFORCEMENT"}},{"type":"Feature","id":74,"geometry":{"type":"Point","coordinates":[-80.217509673680595,26.136821172261719]},"properties":{"OBJECTID":74,"Name":"FLORIDA HIGHWAY PATROL TROOP K","Address":"5101 W SUNRISE BLVD","City":"FORT LAUDERDALE","Zip":"33313","COUNTY":"BROWARD","X":-80.217509669999998,"Y":26.136821170000001,"LONGLAT":"-80.21750967,26.13682117","USNG":"17R NJ 78220 91071","OWNERSHIP":"STATE","PARCELID":"494136010000","FACILITY_TYPE":"LAW ENFORCEMENT"}},{"type":"Feature","id":75,"geometry":{"type":"Point","coordinates":[-80.855109914233395,26.174110570432056]},"properties":{"OBJECTID":75,"Name":"MICCOSUKEE POLICE DEPARTMENT-SUBSTATION","Address":"INTERSTATE 75  EXIT 49","City":"WEST BROWARD COUNTY","Zip":"00041","COUNTY":"BROWARD","X":-80.855109909999996,"Y":26.17411057,"LONGLAT":"-80.85510991,26.17411057","USNG":"17R NJ 14478 94973","OWNERSHIP":"OTHER PUBLIC","PARCELID":null,"FACILITY_TYPE":"LAW ENFORCEMENT"}},{"type":"Feature","id":76,"geometry":{"type":"Point","coordinates":[-80.23893569557336,26.080146930944306]},"properties":{"OBJECTID":76,"Name":"NOVA SOUTHEASTERN UNIVERSITY - MAIN CAMPUS - POLICE","Address":"3301 COLLEGE AVENUE","City":"FORT LAUDERDALE","Zip":"33314","COUNTY":"BROWARD","X":-80.238935699999999,"Y":26.080146930000002,"LONGLAT":"-80.23893570,26.08014693","USNG":"17R NJ 76115 84781","OWNERSHIP":"PRIVATE","PARCELID":"504122060010","FACILITY_TYPE":"LAW ENFORCEMENT"}},{"type":"Feature","id":77,"geometry":{"type":"Point","coordinates":[-80.163083015724354,26.204912739401109]},"properties":{"OBJECTID":77,"Name":"U.S. DRUG ENFORCEMENT ADMINISTRATION - FT. LAUDERDALE FIELD OFFICE","Address":"1475 NW 62ND ST","City":"FORT LAUDERDALE","Zip":"33309","COUNTY":"BROWARD","X":-80.163083020000002,"Y":26.204912740000001,"LONGLAT":"-80.16308302,26.20491274","USNG":"17R NJ 83612 98646","OWNERSHIP":"STATE","PARCELID":"494209010270","FACILITY_TYPE":"LAW ENFORCEMENT"}},{"type":"Feature","id":78,"geometry":{"type":"Point","coordinates":[-80.104821848103583,26.166587691273438]},"properties":{"OBJECTID":78,"Name":"FLORIDA DEPT OF ENV PROTECT/BUR OF EMERGENCY RESPONSE FT LAUDERDALE OFFICE","Address":"3000 NE 30TH PLACE","City":"FORT LAUDERDALE","Zip":"33306","COUNTY":"BROWARD","X":-80.104821849999993,"Y":26.16658769,"LONGLAT":"-80.10482185,26.16658769","USNG":"17R NJ 89462 94440","OWNERSHIP":"STATE","PARCELID":"494225060320","FACILITY_TYPE":"LAW ENFORCEMENT"}},{"type":"Feature","id":79,"geometry":{"type":"Point","coordinates":[-80.22184258253526,26.311296899563114]},"properties":{"OBJECTID":79,"Name":"PARKLAND POLICE DEPARTMENT","Address":"6500 PARKSIDE DR","City":"POMPANO BEACH","Zip":"33067","COUNTY":"BROWARD","X":-80.221842580000001,"Y":26.311296899999999,"LONGLAT":"-80.22184258,26.31129690","USNG":"17R NK 77671 10392","OWNERSHIP":"MUNICIPAL","PARCELID":"474135024710","FACILITY_TYPE":"LAW ENFORCEMENT"}},{"type":"Feature","id":80,"geometry":{"type":"Point","coordinates":[-80.23393902937066,26.165431838680465]},"properties":{"OBJECTID":80,"Name":"LAUDERHILL POLICE DEPT HEADQUARTERS","Address":"5899 W OAKLAND PARK BLVD","City":"FORT LAUDERDALE","Zip":"33319","COUNTY":"BROWARD","X":-80.233939030000002,"Y":26.16543184,"LONGLAT":"-80.23393903,26.16543184","USNG":"17R NJ 76559 94230","OWNERSHIP":"MUNICIPAL","PARCELID":"494123220020","FACILITY_TYPE":"LAW ENFORCEMENT"}},{"type":"Feature","id":81,"geometry":{"type":"Point","coordinates":[-80.159259681699254,26.121481176596923]},"properties":{"OBJECTID":81,"Name":"FT LAUDERDALE POLICE DEPT HEADQUARTERS","Address":"1300 W BROWARD BLVD","City":"FORT LAUDERDALE","Zip":"33312","COUNTY":"BROWARD","X":-80.159259680000005,"Y":26.12148118,"LONGLAT":"-80.15925968,26.12148118","USNG":"17R NJ 84054 89408","OWNERSHIP":"MUNICIPAL","PARCELID":"504209010070","FACILITY_TYPE":"LAW ENFORCEMENT"}},{"type":"Feature","id":82,"geometry":{"type":"Point","coordinates":[-80.323155593789451,26.150042991441769]},"properties":{"OBJECTID":82,"Name":"SUNRISE POLICE DEPT SUBSTATION","Address":"12801 W SUNRISE BLVD","City":"FORT LAUDERDALE","Zip":"33323","COUNTY":"BROWARD","X":-80.323155589999999,"Y":26.150042989999999,"LONGLAT":"-80.32315559,26.15004299","USNG":"17R NJ 67651 92476","OWNERSHIP":"MUNICIPAL","PARCELID":"494026050080","FACILITY_TYPE":"LAW ENFORCEMENT"}},{"type":"Feature","id":83,"geometry":{"type":"Point","coordinates":[-80.280031215138564,26.283336715204161]},"properties":{"OBJECTID":83,"Name":"CORAL SPRINGS POLICE DEPT NW DISTRICT","Address":"11460 NW 43RD ST","City":"POMPANO BEACH","Zip":"33065","COUNTY":"BROWARD","X":-80.280031219999998,"Y":26.283336720000001,"LONGLAT":"-80.28003122,26.28333672","USNG":"17R NK 71880 07262","OWNERSHIP":"MUNICIPAL","PARCELID":"484117AF0260","FACILITY_TYPE":"LAW ENFORCEMENT"}},{"type":"Feature","id":84,"geometry":{"type":"Point","coordinates":[-80.362344981842853,26.039090919145657]},"properties":{"OBJECTID":84,"Name":"BROWARD COUNTY SHERIFF DISTRICT 9 OFFICE","Address":"6589 SW 160TH AVE","City":"FORT LAUDERDALE","Zip":"33331","COUNTY":"BROWARD","X":-80.362344980000003,"Y":26.03909092,"LONGLAT":"-80.36234498,26.03909092","USNG":"17R NJ 63794 80168","OWNERSHIP":"MUNICIPAL","PARCELID":"514005160010","FACILITY_TYPE":"LAW ENFORCEMENT"}},{"type":"Feature","id":85,"geometry":{"type":"Point","coordinates":[-80.265029439011457,26.264158793746439]},"properties":{"OBJECTID":85,"Name":"CORAL SPRINGS POLICE DEPT HEADQUARTERS","Address":"2801 CORAL SPRINGS DR","City":"POMPANO BEACH","Zip":"33065","COUNTY":"BROWARD","X":-80.265029440000006,"Y":26.26415879,"LONGLAT":"-80.26502944,26.26415879","USNG":"17R NK 73390 05146","OWNERSHIP":"MUNICIPAL","PARCELID":"484121310010","FACILITY_TYPE":"LAW ENFORCEMENT"}},{"type":"Feature","id":86,"geometry":{"type":"Point","coordinates":[-80.078943124632914,26.300904369796672]},"properties":{"OBJECTID":86,"Name":"HILLSBORO BEACH POLICE DEPT HEADQUARTERS","Address":"1210 HILLSBORO MILE","City":"POMPANO BEACH","Zip":"33062","COUNTY":"BROWARD","X":-80.078943120000005,"Y":26.300904370000001,"LONGLAT":"-80.07894312,26.30090437","USNG":"17R NK 91943 09335","OWNERSHIP":"MUNICIPAL","PARCELID":"484308CM0000","FACILITY_TYPE":"LAW ENFORCEMENT"}},{"type":"Feature","id":87,"geometry":{"type":"Point","coordinates":[-80.224453104600883,26.151090799160048]},"properties":{"OBJECTID":87,"Name":"LAUDERHILL POLICE DEPT","Address":"1980 NW 56TH AVE","City":"FORT LAUDERDALE","Zip":"33313","COUNTY":"BROWARD","X":-80.224453100000005,"Y":26.151090799999999,"LONGLAT":"-80.22445310,26.15109080","USNG":"17R NJ 77516 92647","OWNERSHIP":"MUNICIPAL","PARCELID":"494126320010","FACILITY_TYPE":"LAW ENFORCEMENT"}},{"type":"Feature","id":88,"geometry":{"type":"Point","coordinates":[-80.280467322235395,26.274669336175339]},"properties":{"OBJECTID":88,"Name":"CORAL SPRINGS POLICE DEPARTMENT NW SUBSTATION 1","Address":"3540 NW 114 LANE","City":"POMPANO BEACH","Zip":"33065","COUNTY":"BROWARD","X":-80.28046732,"Y":26.274669339999999,"LONGLAT":"-80.28046732,26.27466934","USNG":"17R NK 71842 06302","OWNERSHIP":"MUNICIPAL","PARCELID":"484117061250","FACILITY_TYPE":"LAW ENFORCEMENT"}},{"type":"Feature","id":89,"geometry":{"type":"Point","coordinates":[-80.265117322167853,25.981499070301005]},"properties":{"OBJECTID":89,"Name":"MIRAMAR POLICE DEPT HEADQUARTERS","Address":"8915 MIRAMAR PKWY","City":"HOLLYWOOD","Zip":"33025","COUNTY":"BROWARD","X":-80.265117320000002,"Y":25.981499070000002,"LONGLAT":"-80.26511732,25.98149907","USNG":"17R NJ 73558 73841","OWNERSHIP":"MUNICIPAL","PARCELID":"514129010100","FACILITY_TYPE":"LAW ENFORCEMENT"}},{"type":"Feature","id":90,"geometry":{"type":"Point","coordinates":[-80.280493317172386,26.105292578937199]},"properties":{"OBJECTID":90,"Name":"DAVIE POLICE DEPT HEADQUARTERS","Address":"1230 S NOB HILL RD","City":"FORT LAUDERDALE","Zip":"33324","COUNTY":"BROWARD","X":-80.280493320000005,"Y":26.10529258,"LONGLAT":"-80.28049332,26.10529258","USNG":"17R NJ 71943 87543","OWNERSHIP":"MUNICIPAL","PARCELID":"504117200020","FACILITY_TYPE":"LAW ENFORCEMENT"}},{"type":"Feature","id":91,"geometry":{"type":"Point","coordinates":[-80.360401724705895,26.122102355832144]},"properties":{"OBJECTID":91,"Name":"SUNRISE POLICE DEPARTMENT WESTSIDE SUBSTATION","Address":"60 WESTON RD","City":"FORT LAUDERDALE","Zip":"33326","COUNTY":"BROWARD","X":-80.360401719999999,"Y":26.12210236,"LONGLAT":"-80.36040172,26.12210236","USNG":"17R NJ 63944 89363","OWNERSHIP":"MUNICIPAL","PARCELID":"504004010020","FACILITY_TYPE":"LAW ENFORCEMENT"}},{"type":"Feature","id":92,"geometry":{"type":"Point","coordinates":[-80.233144662991634,26.279656354507356]},"properties":{"OBJECTID":92,"Name":"CORAL SPRINGS POLICE DEPARTMENT NE SUBSTATION 1","Address":"7827 NW 40TH ST","City":"POMPANO BEACH","Zip":"33065","COUNTY":"BROWARD","X":-80.233144659999994,"Y":26.279656360000001,"LONGLAT":"-80.23314466,26.27965636","USNG":"17R NK 76563 06881","OWNERSHIP":"MUNICIPAL","PARCELID":"484114012590","FACILITY_TYPE":"LAW ENFORCEMENT"}},{"type":"Feature","id":93,"geometry":{"type":"Point","coordinates":[-80.140607635072968,26.131298870664029]},"properties":{"OBJECTID":93,"Name":"FT LAUDERDALE POLICE DEPT INTERNAL AFFAIRS","Address":"642 NE 3RD AVE","City":"FORT LAUDERDALE","Zip":"33304","COUNTY":"BROWARD","X":-80.140607639999999,"Y":26.131298869999998,"LONGLAT":"-80.14060764,26.13129887","USNG":"17R NJ 85912 90508","OWNERSHIP":"MUNICIPAL","PARCELID":"494234075620","FACILITY_TYPE":"LAW ENFORCEMENT"}},{"type":"Feature","id":94,"geometry":{"type":"Point","coordinates":[-80.204977581930635,26.2420675108417]},"properties":{"OBJECTID":94,"Name":"MARGATE POLICE DEPT HEADQUARTERS","Address":"5790 MARGATE BLVD","City":"POMPANO BEACH","Zip":"33063","COUNTY":"BROWARD","X":-80.204977580000005,"Y":26.242067509999998,"LONGLAT":"-80.20497758,26.24206751","USNG":"17R NK 79401 02735","OWNERSHIP":"MUNICIPAL","PARCELID":"484125031082","FACILITY_TYPE":"LAW ENFORCEMENT"}},{"type":"Feature","id":95,"geometry":{"type":"Point","coordinates":[-80.170900371070857,26.194825800170861]},"properties":{"OBJECTID":95,"Name":"BSO LAW AVIATION STATION","Address":"6000 NW 21ST AVE","City":"FORT LAUDERDALE","Zip":"33309","COUNTY":"BROWARD","X":-80.170900369999998,"Y":26.1948258,"LONGLAT":"-80.17090037,26.19482580","USNG":"17R NJ 82838 97524","OWNERSHIP":"MUNICIPAL","PARCELID":"494209290010","FACILITY_TYPE":"LAW ENFORCEMENT"}},{"type":"Feature","id":96,"geometry":{"type":"Point","coordinates":[-80.151716896346457,26.035176737743239]},"properties":{"OBJECTID":96,"Name":"HOLLYWOOD POLICE DEPARTMENT - NEIGHBORHOOD NE","Address":"2207 RALEIGH STREET","City":"HOLLYWOOD","Zip":"33020","COUNTY":"BROWARD","X":-80.151716899999997,"Y":26.035176740000001,"LONGLAT":"-80.15171690,26.03517674","USNG":"17R NJ 84870 79855","OWNERSHIP":"MUNICIPAL","PARCELID":"514204010580","FACILITY_TYPE":"LAW ENFORCEMENT"}},{"type":"Feature","id":97,"geometry":{"type":"Point","coordinates":[-80.221339797972945,26.222088452947521]},"properties":{"OBJECTID":97,"Name":"BROWARD COUNTY SHERIFF'S DEPT. DIST. 15","Address":"701 ROCK ISLAND RD","City":"POMPANO BEACH","Zip":"33068","COUNTY":"BROWARD","X":-80.221339799999996,"Y":26.222088450000001,"LONGLAT":"-80.22133980,26.22208845","USNG":"17R NK 77780 00512","OWNERSHIP":"MUNICIPAL","PARCELID":"494102021520","FACILITY_TYPE":"LAW ENFORCEMENT"}},{"type":"Feature","id":98,"geometry":{"type":"Point","coordinates":[-80.272087120271735,26.213066597415018]},"properties":{"OBJECTID":98,"Name":"TAMARAC POLICE DEPT. HEADQUARTERS/BROWARD COUNTY SHERIFF DEPT. DIST. 7","Address":"7515 NW 88TH AVE","City":"FORT LAUDERDALE","Zip":"33321","COUNTY":"BROWARD","X":-80.272087119999995,"Y":26.213066600000001,"LONGLAT":"-80.27208712,26.21306660","USNG":"17R NJ 72717 99484","OWNERSHIP":"MUNICIPAL","PARCELID":"494105250010","FACILITY_TYPE":"LAW ENFORCEMENT"}},{"type":"Feature","id":99,"geometry":{"type":"Point","coordinates":[-80.290485466162835,26.16880323082761]},"properties":{"OBJECTID":99,"Name":"SUNRISE POLICE DEPT","Address":"10440 W OAKLAND PARK BLVD","City":"FORT LAUDERDALE","Zip":"33351","COUNTY":"BROWARD","X":-80.290485469999993,"Y":26.168803230000002,"LONGLAT":"-80.29048547,26.16880323","USNG":"17R NJ 70905 94571","OWNERSHIP":"MUNICIPAL","PARCELID":"494119230010","FACILITY_TYPE":"LAW ENFORCEMENT"}},{"type":"Feature","id":100,"geometry":{"type":"Point","coordinates":[-80.251154372981148,26.179912265368749]},"properties":{"OBJECTID":100,"Name":"LAUDERHILL POLICE DEPT","Address":"4464 N UNIVERSITY DR","City":"FORT LAUDERDALE","Zip":"33319","COUNTY":"BROWARD","X":-80.251154369999995,"Y":26.179912269999999,"LONGLAT":"-80.25115437,26.17991227","USNG":"17R NJ 74829 95823","OWNERSHIP":"MUNICIPAL","PARCELID":"494115120180","FACILITY_TYPE":"LAW ENFORCEMENT"}},{"type":"Feature","id":101,"geometry":{"type":"Point","coordinates":[-80.093720744013282,26.277064890925605]},"properties":{"OBJECTID":101,"Name":"LIGHTHOUSE POINT POLICE DEPT HEADQUARTERS","Address":"3760 NE 22ND AVE","City":"POMPANO BEACH","Zip":"33064","COUNTY":"BROWARD","X":-80.093720739999995,"Y":26.277064889999998,"LONGLAT":"-80.09372074,26.27706489","USNG":"17R NK 90486 06684","OWNERSHIP":"MUNICIPAL","PARCELID":"484318020060","FACILITY_TYPE":"LAW ENFORCEMENT"}},{"type":"Feature","id":102,"geometry":{"type":"Point","coordinates":[-80.27123350484041,26.007786940866048]},"properties":{"OBJECTID":102,"Name":"PEMBROKE PINES POLICE DEPT HEADQUARTERS","Address":"9500 PINES BLVD","City":"HOLLYWOOD","Zip":"33025","COUNTY":"BROWARD","X":-80.271233499999994,"Y":26.007786939999999,"LONGLAT":"-80.27123350,26.00778694","USNG":"17R NJ 72929 76749","OWNERSHIP":"MUNICIPAL","PARCELID":"514117010030","FACILITY_TYPE":"LAW ENFORCEMENT"}},{"type":"Feature","id":103,"geometry":{"type":"Point","coordinates":[-80.143757008462572,25.981407619533659]},"properties":{"OBJECTID":103,"Name":"HALLANDALE BEACH POLICE DEPT. HEADQUARTERS","Address":"400 S FEDERAL HWY","City":"HALLANDALE","Zip":"33009","COUNTY":"BROWARD","X":-80.143757010000002,"Y":25.981407619999999,"LONGLAT":"-80.14375701,25.98140762","USNG":"17R NJ 85706 73905","OWNERSHIP":"MUNICIPAL","PARCELID":"514227420010","FACILITY_TYPE":"LAW ENFORCEMENT"}},{"type":"Feature","id":104,"geometry":{"type":"Point","coordinates":[-80.107690336004381,26.116284595243346]},"properties":{"OBJECTID":104,"Name":"FT LAUDERDALE POLICE DEPT BEACH PATROL","Address":"501 SEABREEZE BLVD","City":"FORT LAUDERDALE","Zip":"33316","COUNTY":"BROWARD","X":-80.107690340000005,"Y":26.1162846,"LONGLAT":"-80.10769034,26.11628460","USNG":"17R NJ 89214 88867","OWNERSHIP":"MUNICIPAL","PARCELID":"504212330010","FACILITY_TYPE":"LAW ENFORCEMENT"}},{"type":"Feature","id":105,"geometry":{"type":"Point","coordinates":[-80.244396449987704,26.266295180266372]},"properties":{"OBJECTID":105,"Name":"CORAL SPRINGS POLICE DEPT FOREST HILLS BLVD SUBSTATION","Address":"2940 FOREST HILLS BLVD","City":"POMPANO BEACH","Zip":"33065","COUNTY":"BROWARD","X":-80.244396449999996,"Y":26.26629518,"LONGLAT":"-80.24439645,26.26629518","USNG":"17R NK 75449 05395","OWNERSHIP":"MUNICIPAL","PARCELID":"484122000018","FACILITY_TYPE":"LAW ENFORCEMENT"}},{"type":"Feature","id":106,"geometry":{"type":"Point","coordinates":[-80.174787120235109,26.010218042308075]},"properties":{"OBJECTID":106,"Name":"HOLLYWOOD POLICE DEPT HEADQUARTERS","Address":"3250 HOLLYWOOD BLVD","City":"HOLLYWOOD","Zip":"33021","COUNTY":"BROWARD","X":-80.174787120000005,"Y":26.010218040000002,"LONGLAT":"-80.17478712,26.01021804","USNG":"17R NJ 82580 77076","OWNERSHIP":"MUNICIPAL","PARCELID":"514217050010","FACILITY_TYPE":"LAW ENFORCEMENT"}},{"type":"Feature","id":107,"geometry":{"type":"Point","coordinates":[-80.239529616560432,26.154447412252154]},"properties":{"OBJECTID":107,"Name":"SUNRISE POLICE DEPT SUBSTATION","Address":"6800 SUNSET STRIP","City":"FORT LAUDERDALE","Zip":"33313","COUNTY":"BROWARD","X":-80.239529619999999,"Y":26.15444741,"LONGLAT":"-80.23952962,26.15444741","USNG":"17R NJ 76007 93010","OWNERSHIP":"MUNICIPAL","PARCELID":"494127150410","FACILITY_TYPE":"LAW ENFORCEMENT"}},{"type":"Feature","id":108,"geometry":{"type":"Point","coordinates":[-80.139031155759923,26.154514746681254]},"properties":{"OBJECTID":108,"Name":"WILTON MANORS POLICE DEPT HEADQUARTERS","Address":"524 NE 21ST CT","City":"FORT LAUDERDALE","Zip":"33305","COUNTY":"BROWARD","X":-80.139031160000002,"Y":26.154514750000001,"LONGLAT":"-80.13903116,26.15451475","USNG":"17R NJ 86052 93080","OWNERSHIP":"MUNICIPAL","PARCELID":"494227070040","FACILITY_TYPE":"LAW ENFORCEMENT"}},{"type":"Feature","id":109,"geometry":{"type":"Point","coordinates":[-80.33378610196992,26.131746107532095]},"properties":{"OBJECTID":109,"Name":"SUNRISE POLICE DEPT HEADQUARTERS","Address":"777 SAWGRASS CORPORATE PKY","City":"FORT LAUDERDALE","Zip":"33325","COUNTY":"BROWARD","X":-80.333786099999998,"Y":26.131746110000002,"LONGLAT":"-80.33378610,26.13174611","USNG":"17R NJ 66599 90444","OWNERSHIP":"MUNICIPAL","PARCELID":"494034040021","FACILITY_TYPE":"LAW ENFORCEMENT"}},{"type":"Feature","id":110,"geometry":{"type":"Point","coordinates":[-80.190644719812795,26.258488803284028]},"properties":{"OBJECTID":110,"Name":"COCONUT CREEK POLICE DEPT. HEADQUARTERS","Address":"4800 W COPANS RD","City":"POMPANO BEACH","Zip":"33063","COUNTY":"BROWARD","X":-80.190644719999995,"Y":26.258488799999999,"LONGLAT":"-80.19064472,26.25848880","USNG":"17R NK 80821 04562","OWNERSHIP":"MUNICIPAL","PARCELID":"484219082220","FACILITY_TYPE":"LAW ENFORCEMENT"}},{"type":"Feature","id":111,"geometry":{"type":"Point","coordinates":[-80.126041488957839,26.225807074436705]},"properties":{"OBJECTID":111,"Name":"CITY OF POMPANO BEACH","Address":"100 SW 3RD STREET","City":"POMPANO BEACH","Zip":"33060","COUNTY":"BROWARD","X":-80.126041490000006,"Y":26.225807079999999,"LONGLAT":"-80.12604149,26.22580708","USNG":"17R NK 87297 00985","OWNERSHIP":"MUNICIPAL","PARCELID":"494202400010","FACILITY_TYPE":"LAW ENFORCEMENT"}},{"type":"Feature","id":112,"geometry":{"type":"Point","coordinates":[-80.381159847707963,26.093421140656755]},"properties":{"OBJECTID":112,"Name":"BROWARD COUNTY SHERIFF'S DEPT. DIST. 8","Address":"17300 ARVIDA PKWY","City":"FORT LAUDERDALE","Zip":"33331","COUNTY":"BROWARD","X":-80.381159850000003,"Y":26.09342114,"LONGLAT":"-80.38115985,26.09342114","USNG":"17R NJ 61883 86176","OWNERSHIP":"COUNTY","PARCELID":"504020014011","FACILITY_TYPE":"LAW ENFORCEMENT"}},{"type":"Feature","id":113,"geometry":{"type":"Point","coordinates":[-80.098129068018878,26.320250121673951]},"properties":{"OBJECTID":113,"Name":"BROWARD COUNTY SHERIFF'S DEPT. DIST. 10","Address":"300 NE 2ND ST","City":"DEERFIELD BEACH","Zip":"33441","COUNTY":"BROWARD","X":-80.098129069999999,"Y":26.320250120000001,"LONGLAT":"-80.09812907,26.32025012","USNG":"17R NK 90013 11464","OWNERSHIP":"COUNTY","PARCELID":"474331010310","FACILITY_TYPE":"LAW ENFORCEMENT"}},{"type":"Feature","id":114,"geometry":{"type":"Point","coordinates":[-80.141240020362631,26.115090019392454]},"properties":{"OBJECTID":114,"Name":"BROWARD COUNTY SHERIFF'S DEPT. DIST. 6","Address":"201 SE 6TH ST","City":"FORT LAUDERDALE","Zip":"33301","COUNTY":"BROWARD","X":-80.141240019999998,"Y":26.11509002,"LONGLAT":"-80.14124002,26.11509002","USNG":"17R NJ 85860 88712","OWNERSHIP":"COUNTY","PARCELID":"504210850010","FACILITY_TYPE":"LAW ENFORCEMENT"}},{"type":"Feature","id":115,"geometry":{"type":"Point","coordinates":[-80.251111544936919,26.311200736745178]},"properties":{"OBJECTID":115,"Name":"BROWARD COUNTY SHERIFF'S DEPT. DISTRICT 17","Address":"6600 UNIVERSITY DR","City":"POMPANO BEACH","Zip":"33076","COUNTY":"BROWARD","X":-80.251111539999997,"Y":26.31120074,"LONGLAT":"-80.25111154,26.31120074","USNG":"17R NK 74749 10364","OWNERSHIP":"COUNTY","PARCELID":"484104080010","FACILITY_TYPE":"LAW ENFORCEMENT"}},{"type":"Feature","id":116,"geometry":{"type":"Point","coordinates":[-80.145229239913888,26.051884574902232]},"properties":{"OBJECTID":116,"Name":"BROWARD COUNTY SHERIFF'S DEPT. DIST. 2","Address":"100 W DANIA BEACH BLVD","City":"DANIA","Zip":"33004","COUNTY":"BROWARD","X":-80.145229240000006,"Y":26.051884579999999,"LONGLAT":"-80.14522924,26.05188458","USNG":"17R NJ 85507 81709","OWNERSHIP":"COUNTY","PARCELID":"504234620020","FACILITY_TYPE":"LAW ENFORCEMENT"}},{"type":"Feature","id":117,"geometry":{"type":"Point","coordinates":[-80.141118015031708,26.174989541781748]},"properties":{"OBJECTID":117,"Name":"BROWARD COUNTY SHERIFF'S DEPT. DIST. 12","Address":"301 NE 38TH ST","City":"FORT LAUDERDALE","Zip":"33334","COUNTY":"BROWARD","X":-80.141118019999993,"Y":26.174989539999999,"LONGLAT":"-80.14111802,26.17498954","USNG":"17R NJ 85829 95346","OWNERSHIP":"COUNTY","PARCELID":"494222240010","FACILITY_TYPE":"LAW ENFORCEMENT"}},{"type":"Feature","id":118,"geometry":{"type":"Point","coordinates":[-80.177513879709736,26.124647622167327]},"properties":{"OBJECTID":118,"Name":"BROWARD COUNTY SHERIFF'S DEPT. DIST. 5","Address":"200 NW 27TH AVE","City":"FORT LAUDERDALE","Zip":"33311","COUNTY":"BROWARD","X":-80.177513880000006,"Y":26.124647620000001,"LONGLAT":"-80.17751388,26.12464762","USNG":"17R NJ 82227 89747","OWNERSHIP":"COUNTY","PARCELID":"504205450010","FACILITY_TYPE":"LAW ENFORCEMENT"}},{"type":"Feature","id":119,"geometry":{"type":"Point","coordinates":[-80.12365001906781,26.081561476937591]},"properties":{"OBJECTID":119,"Name":"U.S. CUSTOMS AND BORDER PROTECTION - PORT EVERGLADES ","Address":"1800 ELLER DRIVE","City":"DANIA","Zip":"33004","COUNTY":"BROWARD","X":-80.123650019999999,"Y":26.081561480000001,"LONGLAT":"-80.12365002,26.08156148","USNG":"17R NJ 87644 85011","OWNERSHIP":"FEDERAL","PARCELID":"504223140023","FACILITY_TYPE":"LAW ENFORCEMENT"}},{"type":"Feature","id":120,"geometry":{"type":"Point","coordinates":[-80.232296940342493,25.995786302026684]},"properties":{"OBJECTID":120,"Name":"U.S. BORDER PATROL - PEMBROOKE PINES STATION","Address":"7201 PEMBROKE RD","City":"HOLLYWOOD","Zip":"33023","COUNTY":"BROWARD","X":-80.232296939999998,"Y":25.995786299999999,"LONGLAT":"-80.23229694,25.99578630","USNG":"17R NJ 76834 75442","OWNERSHIP":"FEDERAL","PARCELID":"514115060010","FACILITY_TYPE":"LAW ENFORCEMENT"}},{"type":"Feature","id":121,"geometry":{"type":"Point","coordinates":[-80.12532026784524,26.225769346725926]},"properties":{"OBJECTID":121,"Name":"BROWARD COUNTY SHERIFF'S DEPT. DIST. 11","Address":"100 SW 3RD ST","City":"POMPANO BEACH","Zip":"33060","COUNTY":"BROWARD","X":-80.125320270000003,"Y":26.22576935,"LONGLAT":"-80.12532027,26.22576935","USNG":"17R NK 87369 00981","OWNERSHIP":"COUNTY","PARCELID":"494202400010","FACILITY_TYPE":"LAW ENFORCEMENT"}},{"type":"Feature","id":122,"geometry":{"type":"Point","coordinates":[-80.141133317077291,26.122882466320359]},"properties":{"OBJECTID":122,"Name":"BUREAU OF ALCOHOL, TOBACCO AND FIREARMS - FORT LAUDERDALE FIELD OFFICE","Address":"299 E BROWARD BLVD","City":"FORT LAUDERDALE","Zip":"33301","COUNTY":"BROWARD","X":-80.141133319999994,"Y":26.12288247,"LONGLAT":"-80.14113332,26.12288247","USNG":"17R NJ 85865 89575","OWNERSHIP":"FEDERAL","PARCELID":"504210111010","FACILITY_TYPE":"LAW ENFORCEMENT"}},{"type":"Feature","id":123,"geometry":{"type":"Point","coordinates":[-80.242848072712292,26.127809653603343]},"properties":{"OBJECTID":123,"Name":"PLANTATION POLICE DEPT HEADQUARTERS","Address":"451 NW 70TH TER","City":"FORT LAUDERDALE","Zip":"33317","COUNTY":"BROWARD","X":-80.242848069999994,"Y":26.12780965,"LONGLAT":"-80.24284807,26.12780965","USNG":"17R NJ 75693 90058","OWNERSHIP":"MUNICIPAL","PARCELID":"504103660010","FACILITY_TYPE":"LAW ENFORCEMENT"}},{"type":"Feature","id":124,"geometry":{"type":"Point","coordinates":[-80.393427789749197,26.010766200345898]},"properties":{"OBJECTID":124,"Name":"PEMBROKE PINES POLICE DEPT WEST DISTRICT STATION","Address":"18400 JOHNSON ST","City":"HOLLYWOOD","Zip":"33029","COUNTY":"BROWARD","X":-80.393427790000004,"Y":26.010766199999999,"LONGLAT":"-80.39342779,26.01076620","USNG":"17R NJ 60699 77017","OWNERSHIP":"MUNICIPAL","PARCELID":"513911030090","FACILITY_TYPE":"LAW ENFORCEMENT"}},{"type":"Feature","id":125,"geometry":{"type":"Point","coordinates":[-80.254559711182495,26.114155161189068]},"properties":{"OBJECTID":125,"Name":"BUREAU OF ALCOHOL, TOBACCO AND FIREARMS - MIAMI FIELD OFFICE GROUP 7","Address":"7795 SW 6TH ST","City":"FORT LAUDERDALE","Zip":"33324","COUNTY":"BROWARD","X":-80.254559709999995,"Y":26.114155159999999,"LONGLAT":"-80.25455971,26.11415516","USNG":"17R NJ 74530 88539","OWNERSHIP":"FEDERAL","PARCELID":"504109200020","FACILITY_TYPE":"LAW ENFORCEMENT"}},{"type":"Feature","id":126,"geometry":{"type":"Point","coordinates":[-80.217539321246861,26.038947776624273]},"properties":{"OBJECTID":126,"Name":"SEMINOLE DEPT OF LAW ENFORCEMENT HEADQUARTERS","Address":"3280 N 64TH AVE","City":"HOLLYWOOD","Zip":"33024","COUNTY":"BROWARD","X":-80.21753932,"Y":26.038947780000001,"LONGLAT":"-80.21753932,26.03894778","USNG":"17R NJ 78282 80231","OWNERSHIP":"FEDERAL","PARCELID":"514102000190","FACILITY_TYPE":"LAW ENFORCEMENT"}},{"type":"Feature","id":127,"geometry":{"type":"Point","coordinates":[-80.096707434376285,26.192650420517236]},"properties":{"OBJECTID":127,"Name":"BROWARD COUNTY SHERIFF'S DEPT. DIST. 13","Address":"4501 N OCEAN DR","City":"FORT LAUDERDALE","Zip":"33308","COUNTY":"BROWARD","X":-80.096707429999995,"Y":26.19265042,"LONGLAT":"-80.09670743,26.19265042","USNG":"17R NJ 90253 97332","OWNERSHIP":"COUNTY","PARCELID":"494318020010","FACILITY_TYPE":"LAW ENFORCEMENT"}},{"type":"Feature","id":128,"geometry":{"type":"Point","coordinates":[-80.143429786288891,26.073035202142059]},"properties":{"OBJECTID":128,"Name":"BROWARD COUNTY SHERIFF'S DEPT. DIST. 3 - FT. LAUDERDALE/HOLLYWOOD INT'L AIRPORT","Address":"200 TERMINAL DR","City":"FORT LAUDERDALE","Zip":"33315","COUNTY":"BROWARD","X":-80.143429789999999,"Y":26.0730352,"LONGLAT":"-80.14342979,26.07303520","USNG":"17R NJ 85672 84053","OWNERSHIP":"COUNTY","PARCELID":"504228060020","FACILITY_TYPE":"LAW ENFORCEMENT"}},{"type":"Feature","id":129,"geometry":{"type":"Point","coordinates":[-80.120579998709275,26.081780012631338]},"properties":{"OBJECTID":129,"Name":"BROWARD COUNTY SHERIFF'S DEPT. DIST. 14","Address":"1850 ELLER DR","City":"DANIA","Zip":"33004","COUNTY":"BROWARD","X":-80.120580000000004,"Y":26.081780009999999,"LONGLAT":"-80.12058000,26.08178001","USNG":"17R NJ 87951 85037","OWNERSHIP":"COUNTY","PARCELID":"504223190010","FACILITY_TYPE":"LAW ENFORCEMENT"}},{"type":"Feature","id":130,"geometry":{"type":"Point","coordinates":[-80.157364553063658,26.2499406351772]},"properties":{"OBJECTID":130,"Name":"BROWARD COUNTY - SHERIFF'S OFFICE","Address":"1351 NORTHWEST 27TH AVENUE","City":"POMPANO BEACH","Zip":"33069","COUNTY":"BROWARD","X":-80.157364549999997,"Y":26.249940639999998,"LONGLAT":"-80.15736455,26.24994064","USNG":"17R NK 84151 03637","OWNERSHIP":"COUNTY","PARCELID":"484228250020","FACILITY_TYPE":"LAW ENFORCEMENT"}},{"type":"Feature","id":131,"geometry":{"type":"Point","coordinates":[-80.177176204693794,26.122410489835499]},"properties":{"OBJECTID":131,"Name":"BROWARD COUNTY SHERIFF'S DEPT. HEADQUARTERS","Address":"2601 W BROWARD BLVD","City":"FORT LAUDERDALE","Zip":"33311","COUNTY":"BROWARD","X":-80.177176200000005,"Y":26.12241049,"LONGLAT":"-80.17717620,26.12241049","USNG":"17R NJ 82262 89500","OWNERSHIP":"COUNTY","PARCELID":"504205450010","FACILITY_TYPE":"LAW ENFORCEMENT"}},{"type":"Feature","id":132,"geometry":{"type":"Point","coordinates":[-80.170559766242903,26.190955345059393]},"properties":{"OBJECTID":132,"Name":"BROWARD COUNTY SHERIFF BSO AVIATION DIVISION","Address":"5252 NW 21ST AV","City":"FORT LAUDERDALE","Zip":"33309","COUNTY":"BROWARD","X":-80.170559769999997,"Y":26.190955349999999,"LONGLAT":"-80.17055977,26.19095535","USNG":"17R NJ 82875 97095","OWNERSHIP":"COUNTY","PARCELID":"494209290030","FACILITY_TYPE":"LAW ENFORCEMENT"}},{"type":"Feature","id":133,"geometry":{"type":"Point","coordinates":[-80.175824238901484,25.985458169692659]},"properties":{"OBJECTID":133,"Name":"BROWARD COUNTY SHERIFF'S DEPT. DIST. 1","Address":"3201 HALLANDALE BEACH BLVD","City":"HALLANDALE","Zip":"33009","COUNTY":"BROWARD","X":-80.175824239999997,"Y":25.985458170000001,"LONGLAT":"-80.17582424,25.98545817","USNG":"17R NJ 82493 74333","OWNERSHIP":"COUNTY","PARCELID":"514220170020","FACILITY_TYPE":"LAW ENFORCEMENT"}},{"type":"Feature","id":134,"geometry":{"type":"Point","coordinates":[-80.252301375715618,26.16494977546548]},"properties":{"OBJECTID":134,"Name":"BROWARD CO. SCHOOL BOARD POLICE DEPT.","Address":"7720 W. OAKLAND PARK BLVD.","City":"FORT LAUDERDALE","Zip":"33319","COUNTY":"BROWARD","X":-80.252301380000006,"Y":26.164949780000001,"LONGLAT":"-80.25230138,26.16494978","USNG":"17R NJ 74724 94166","OWNERSHIP":"COUNTY","PARCELID":"494121030022","FACILITY_TYPE":"LAW ENFORCEMENT"}},{"type":"Feature","id":135,"geometry":{"type":"Point","coordinates":[-80.171486771981719,26.068757066754642]},"properties":{"OBJECTID":135,"Name":"BSO FIRE REGIONAL LOGISTIC WAREHOUSE","Address":"2308 SW 42ND STREET","City":"DANIA BEACH","Zip":" ","COUNTY":"BROWARD","X":-80.171486770000001,"Y":26.06875707,"LONGLAT":"-80.17148677,26.06875707","USNG":"17R NJ 82869 83561","OWNERSHIP":null,"PARCELID":null,"FACILITY_TYPE":"LAW ENFORCEMENT"}},{"type":"Feature","id":136,"geometry":{"type":"Point","coordinates":[-80.148787129158109,26.303497672994688]},"properties":{"OBJECTID":136,"Name":"BSO LAW PAL WAREHOUSE - NORTH","Address":"3350 SW 10 ST","City":"DEERFIELD BEACH","Zip":" ","COUNTY":"BROWARD","X":-80.148787130000002,"Y":26.303497669999999,"LONGLAT":"-80.14878713,26.30349767","USNG":"17R NK 84969 09574","OWNERSHIP":null,"PARCELID":null,"FACILITY_TYPE":"LAW ENFORCEMENT"}},{"type":"Feature","id":137,"geometry":{"type":"Point","coordinates":[-80.162474157238734,26.251352029063206]},"properties":{"OBJECTID":137,"Name":"BSO DLE STATION","Address":"1600 NW 30 Ave (BLOUNT RD)","City":"POMPANO BEACH","Zip":"33069","COUNTY":"BROWARD","X":-80.162474160000002,"Y":26.25135203,"LONGLAT":"-80.16247416,26.25135203","USNG":"17R NK 83640 03790","OWNERSHIP":null,"PARCELID":null,"FACILITY_TYPE":"LAW ENFORCEMENT"}},{"type":"Feature","id":138,"geometry":{"type":"Point","coordinates":[-80.113098172289369,26.274633508482495]},"properties":{"OBJECTID":138,"Name":"BSO LAW POMPANO SUBSTATION","Address":"750 E SAMPLE RD","City":"POMPANO BEACH","Zip":"33064","COUNTY":"BROWARD","X":-80.113098170000001,"Y":26.274633510000001,"LONGLAT":"-80.11309817,26.27463351","USNG":"17R NK 88553 06401","OWNERSHIP":null,"PARCELID":null,"FACILITY_TYPE":"LAW ENFORCEMENT"}},{"type":"Feature","id":139,"geometry":{"type":"Point","coordinates":[-80.170159190306464,26.193024184039217]},"properties":{"OBJECTID":139,"Name":"BSO LAW AVIATION STATION","Address":"5250 NW 21ST AVE","City":"FORT LAUDERDALE","Zip":"33309","COUNTY":"BROWARD","X":-80.170159190000007,"Y":26.193024179999998,"LONGLAT":"-80.17015919,26.19302418","USNG":"17R NJ 82914 97325","OWNERSHIP":null,"PARCELID":null,"FACILITY_TYPE":"LAW ENFORCEMENT"}},{"type":"Feature","id":140,"geometry":{"type":"Point","coordinates":[-80.133004641974011,26.194106341324726]},"properties":{"OBJECTID":140,"Name":"BSO LAW OAKLAND PARK DISTRICT 12","Address":"5399 N DIXIE HWY","City":"OAKLAND PARK","Zip":"33334","COUNTY":"BROWARD","X":-80.133004639999996,"Y":26.194106340000001,"LONGLAT":"-80.13300464,26.19410634","USNG":"17R NJ 86625 97469","OWNERSHIP":null,"PARCELID":null,"FACILITY_TYPE":"LAW ENFORCEMENT"}},{"type":"Feature","id":141,"geometry":{"type":"Point","coordinates":[-80.176860541704173,26.068270071170875]},"properties":{"OBJECTID":141,"Name":"BSO LAW MARINE UNIT BOATERS PARK","Address":"2400 SW 42 STREET","City":"FORT LAUDERDALE","Zip":" ","COUNTY":"BROWARD","X":-80.176860540000007,"Y":26.068270070000001,"LONGLAT":"-80.17686054,26.06827007","USNG":"17R NJ 82331 83504","OWNERSHIP":null,"PARCELID":null,"FACILITY_TYPE":"LAW ENFORCEMENT"}},{"type":"Feature","id":142,"geometry":{"type":"Point","coordinates":[-80.152075801279565,26.309778264981354]},"properties":{"OBJECTID":142,"Name":"BSO LAW DEERFIELD BEACH SUB","Address":"580 S POWERLINE RD","City":"DEERFIELD BEACH","Zip":"33442","COUNTY":"BROWARD","X":-80.152075800000006,"Y":26.309778269999999,"LONGLAT":"-80.15207580,26.30977827","USNG":"17R NK 84636 10268","OWNERSHIP":null,"PARCELID":null,"FACILITY_TYPE":"LAW ENFORCEMENT"}},{"type":"Feature","id":143,"geometry":{"type":"Point","coordinates":[-80.288294723642238,26.168634265314868]},"properties":{"OBJECTID":143,"Name":"SN LAW SUNRISE PUBLIC SAFETY PD","Address":"10440 W OAKLAND PARK BLVD","City":"SUNRISE","Zip":"33351","COUNTY":"BROWARD","X":-80.288294719999996,"Y":26.168634269999998,"LONGLAT":"-80.28829472,26.16863427","USNG":"17R NJ 71124 94554","OWNERSHIP":null,"PARCELID":null,"FACILITY_TYPE":"LAW ENFORCEMENT"}},{"type":"Feature","id":144,"geometry":{"type":"Point","coordinates":[-80.624389999258355,26.145679999093357]},"properties":{"OBJECTID":144,"Name":"BSO LAW BOAT RAMP","Address":"Southeast corner of the mile 35 rest sta","City":"WESTON","Zip":"33327","COUNTY":"BROWARD","X":-80.624390000000005,"Y":26.145679999999999,"LONGLAT":"-80.62439000,26.14568000","USNG":"17R NJ 37543 91871","OWNERSHIP":null,"PARCELID":null,"FACILITY_TYPE":"LAW ENFORCEMENT"}},{"type":"Feature","id":145,"geometry":{"type":"Point","coordinates":[-80.217090180286462,26.234848534958349]},"properties":{"OBJECTID":145,"Name":"POLICE DEPT-ANIMAL CONTROL","Address":"6862 W ATLANTIC BLVD","City":"POMPANO BEACH","Zip":"33063","COUNTY":"BROWARD","X":-80.21709018,"Y":26.234848540000002,"LONGLAT":"-80.21709018,26.23484854","USNG":"17R NK 78196 01928","OWNERSHIP":"COUNTY","PARCELID":"484136181580","FACILITY_TYPE":"LAW ENFORCEMENT"}},{"type":"Feature","id":146,"geometry":{"type":"Point","coordinates":[-80.28713554854744,26.043867476305447]},"properties":{"OBJECTID":146,"Name":"BROWARD COUNTY SHERIFF'S DEPT. DIST. 16","Address":"10580 STIRLING RD","City":"HOLLYWOOD","Zip":"33026","COUNTY":"BROWARD","X":-80.287135550000002,"Y":26.043867479999999,"LONGLAT":"-80.28713555,26.04386748","USNG":"17R NJ 71316 80736","OWNERSHIP":"COUNTY","PARCELID":"514106080010","FACILITY_TYPE":"LAW ENFORCEMENT"}},{"type":"Feature","id":147,"geometry":{"type":"Point","coordinates":[-80.112506823654911,26.274676816577781]},"properties":{"OBJECTID":147,"Name":"BROWARD COUNTY SHERIFF'S DEPT. DIST. 9","Address":"750 E SAMPLE RD","City":"POMPANO BEACH","Zip":"33064","COUNTY":"BROWARD","X":-80.112506819999993,"Y":26.27467682,"LONGLAT":"-80.11250682,26.27467682","USNG":"17R NK 88612 06406","OWNERSHIP":"COUNTY","PARCELID":"484224300020","FACILITY_TYPE":"LAW ENFORCEMENT"}},{"type":"Feature","id":148,"geometry":{"type":"Point","coordinates":[-80.095867992404422,26.201535099867687]},"properties":{"OBJECTID":148,"Name":"SEA RANCH LAKES POLICE DEPT SUBSTATION","Address":"1 GATEHOUSE RD","City":"FORT LAUDERDALE","Zip":"33308","COUNTY":"BROWARD","X":-80.095867990000002,"Y":26.201535100000001,"LONGLAT":"-80.09586799,26.20153510","USNG":"17R NJ 90330 98317","OWNERSHIP":"COUNTY","PARCELID":"494307030030","FACILITY_TYPE":"LAW ENFORCEMENT"}},{"type":"Feature","id":149,"geometry":{"type":"Point","coordinates":[-85.043118724514642,30.44347820511074]},"properties":{"OBJECTID":149,"Name":"CALHOUN COUNTY SHERIFF'S DEPT. HEADQUARTERS","Address":"20830 NE W.C. REEDER DR","City":"BLOUNTSTOWN","Zip":"32424","COUNTY":"CALHOUN","X":-85.043118719999995,"Y":30.443478209999999,"LONGLAT":"-85.04311872,30.44347821","USNG":"16R FU 87909 69554","OWNERSHIP":"COUNTY","PARCELID":"33-1N-08-0000-0024-0000","FACILITY_TYPE":"LAW ENFORCEMENT"}},{"type":"Feature","id":150,"geometry":{"type":"Point","coordinates":[-85.12761372018106,30.570401417094356]},"properties":{"OBJECTID":150,"Name":"ALTHA POLICE DEPT HEADQUARTERS","Address":"100 MAIN ST N","City":"ALTHA","Zip":"32421","COUNTY":"CALHOUN","X":-85.127613719999999,"Y":30.57040142,"LONGLAT":"-85.12761372,30.57040142","USNG":"16R FU 79561 83485","OWNERSHIP":"MUNICIPAL","PARCELID":"15-2N-09-0800-000A-0101","FACILITY_TYPE":"LAW ENFORCEMENT"}},{"type":"Feature","id":151,"geometry":{"type":"Point","coordinates":[-82.046695381694548,26.925589997235342]},"properties":{"OBJECTID":151,"Name":"PUNTA GORDA POLICE DEPT HQ","Address":"1410 TAMIAMI TRL","City":"PUNTA GORDA","Zip":"33950","COUNTY":"CHARLOTTE","X":-82.046695380000003,"Y":26.92559,"LONGLAT":"-82.04669538,26.92559000","USNG":"17R LK 96080 78623","OWNERSHIP":"MUNICIPAL","PARCELID":"412307258001","FACILITY_TYPE":"LAW ENFORCEMENT"}},{"type":"Feature","id":152,"geometry":{"type":"Point","coordinates":[-82.312606078370095,26.922095305503948]},"properties":{"OBJECTID":152,"Name":"CHARLOTTE COUNTY SHERIFF'S DEPT. DIST. 1","Address":"6868 SAN CASA DR","City":"ENGLEWOOD","Zip":"34224","COUNTY":"CHARLOTTE","X":-82.312573549999996,"Y":26.921591530000001,"LONGLAT":"-82.31257355,26.92159153","USNG":"17R LK 69675 78426","OWNERSHIP":"COUNTY","PARCELID":"412009403001","FACILITY_TYPE":"LAW ENFORCEMENT"}},{"type":"Feature","id":153,"geometry":{"type":"Point","coordinates":[-82.003444453943132,26.921557510746133]},"properties":{"OBJECTID":153,"Name":"CHARLOTTE COUNTY SHERIFF'S DEPT. HEADQUARTERS DIST 3","Address":"7474 UTILITIES RD","City":"PUNTA GORDA","Zip":"33982","COUNTY":"CHARLOTTE","X":-82.003444450000003,"Y":26.92155751,"LONGLAT":"-82.00344445,26.92155751","USNG":"17R MK 00371 78142","OWNERSHIP":"COUNTY","PARCELID":"412310300808","FACILITY_TYPE":"LAW ENFORCEMENT"}},{"type":"Feature","id":154,"geometry":{"type":"Point","coordinates":[-82.000577209076539,26.921712555938676]},"properties":{"OBJECTID":154,"Name":"SHERIIFS AVIATION","Address":"27377 MOONEY AV","City":"PUNTA GORDA","Zip":"33982","COUNTY":"CHARLOTTE","X":-82.000577210000003,"Y":26.92171256,"LONGLAT":"-82.00057721,26.92171256","USNG":"17R MK 00655 78157","OWNERSHIP":null,"PARCELID":null,"FACILITY_TYPE":"LAW ENFORCEMENT"}},{"type":"Feature","id":155,"geometry":{"type":"Point","coordinates":[-82.097633917461664,26.984494761734588]},"properties":{"OBJECTID":155,"Name":"CHARLOTTE COUNTY SHERIFF'S DEPT. DIST. 2 & 4","Address":"3280 TAMIAMI TRL STE 505","City":"PORT CHARLOTTE","Zip":"33952","COUNTY":"CHARLOTTE","X":-82.097633920000007,"Y":26.98449476,"LONGLAT":"-82.09763392,26.98449476","USNG":"17R LK 91079 85191","OWNERSHIP":"COUNTY","PARCELID":"402222133005","FACILITY_TYPE":"LAW ENFORCEMENT"}},{"type":"Feature","id":156,"geometry":{"type":"Point","coordinates":[-82.146756067831532,27.008815872146752]},"properties":{"OBJECTID":156,"Name":"CHARLOTTE COUNTY SHERIFF'S MALL OFC","Address":"1441 TAMIAMI TRL","City":"PORT CHARLOTTE","Zip":"33953","COUNTY":"CHARLOTTE","X":-82.146756069999995,"Y":27.008815869999999,"LONGLAT":"-82.14675607,27.00881587","USNG":"17R LK 86228 87928","OWNERSHIP":"COUNTY","PARCELID":"402207108005","FACILITY_TYPE":"LAW ENFORCEMENT"}},{"type":"Feature","id":157,"geometry":{"type":"Point","coordinates":[-82.594908142984337,28.900112870076743]},"properties":{"OBJECTID":157,"Name":"CIRUS COUNTY SHERIFF'S OFFICE - WESTSIDE OFFICE","Address":"123 NW US HWY 19","City":"CRYSTAL RIVER","Zip":"34428","COUNTY":"CITRUS","X":-82.594908140000001,"Y":28.900112870000001,"LONGLAT":"-82.59490814,28.90011287","USNG":"17R LM 44496 97965","OWNERSHIP":"COUNTY","PARCELID":"17E18S210060        0460","FACILITY_TYPE":"LAW ENFORCEMENT"}},{"type":"Feature","id":158,"geometry":{"type":"Point","coordinates":[-82.315692326997819,28.810459547905602]},"properties":{"OBJECTID":158,"Name":"CITRUS COUNTY SHERIFF'S DEPT. CIVIL AIR PATROL","Address":"3450 S AIRPORT RD","City":"INVERNESS","Zip":"34452","COUNTY":"CITRUS","X":-82.315692330000005,"Y":28.810459550000001,"LONGLAT":"-82.31569233,28.81045955","USNG":"17R LM 71612 87696","OWNERSHIP":"COUNTY","PARCELID":"20E19S28      34000","FACILITY_TYPE":"LAW ENFORCEMENT"}},{"type":"Feature","id":159,"geometry":{"type":"Point","coordinates":[-82.463763266130059,28.923071656012418]},"properties":{"OBJECTID":159,"Name":"CITRUS COUNTY SHERIFF OFFICE- BEVERLY HILLS SUBSTATION","Address":"4095 N LECANTO HWY","City":"BEVERLY HILLS","Zip":"34465","COUNTY":"CITRUS","X":-82.463763270000001,"Y":28.923071660000002,"LONGLAT":"-82.46376327,28.92307166","USNG":"17R LN 57315 00344","OWNERSHIP":"COUNTY","PARCELID":null,"FACILITY_TYPE":"LAW ENFORCEMENT"}},{"type":"Feature","id":160,"geometry":{"type":"Point","coordinates":[-82.328264747589699,28.835595658079587]},"properties":{"OBJECTID":160,"Name":"CITRUS COUNTY SHERIFF'S DEPT. HEADQUARTERS","Address":"1 DR MARTIN LUTHER KING JR AVE","City":"INVERNESS","Zip":"34450","COUNTY":"CITRUS","X":-82.328264750000002,"Y":28.835595659999999,"LONGLAT":"-82.32826475,28.83559566","USNG":"17R LM 70416 90495","OWNERSHIP":"COUNTY","PARCELID":"20E19S170050  01030 0020","FACILITY_TYPE":"LAW ENFORCEMENT"}},{"type":"Feature","id":161,"geometry":{"type":"Point","coordinates":[-81.744808866188393,30.177181123957887]},"properties":{"OBJECTID":161,"Name":"CLAY COUNTY SHERIFFS DEPT (NORTH SECTOR)","Address":"212 BLANDING BLVD","City":"ORANGE PARK","Zip":"32073","COUNTY":"CLAY","X":-81.74480887,"Y":30.17718112,"LONGLAT":"-81.74480887,30.17718112","USNG":"17R MP 28291 38653","OWNERSHIP":"COUNTY","PARCELID":"06-04-26-010683-005-02","FACILITY_TYPE":"LAW ENFORCEMENT"}},{"type":"Feature","id":162,"geometry":{"type":"Point","coordinates":[-81.832611489548071,30.103152030571064]},"properties":{"OBJECTID":162,"Name":"CLAY COUNTY SHERIFFS DEPT (SOUTH SECTOR)","Address":"1836 BLANDING BLVD","City":"MIDDLEBURG","Zip":"32068","COUNTY":"CLAY","X":-81.832611490000005,"Y":30.10315203,"LONGLAT":"-81.83261149,30.10315203","USNG":"17R MP 19778 30507","OWNERSHIP":"COUNTY","PARCELID":"32-04-25-008102-001-00","FACILITY_TYPE":"LAW ENFORCEMENT"}},{"type":"Feature","id":163,"geometry":{"type":"Point","coordinates":[-81.687101008484575,30.003817574071412]},"properties":{"OBJECTID":163,"Name":"CLAY COUNTY SHERIFFS DEPT HQ (EAST SECTOR)","Address":"901 N ORANGE AVE","City":"GREEN COVE SPRINGS","Zip":"32043","COUNTY":"CLAY","X":-81.687224349999994,"Y":30.00396916,"LONGLAT":"-81.68722435,30.00396916","USNG":"17R MP 33720 19423","OWNERSHIP":"COUNTY","PARCELID":"38-06-26-018020-000-00","FACILITY_TYPE":"LAW ENFORCEMENT"}},{"type":"Feature","id":164,"geometry":{"type":"Point","coordinates":[-81.702512063111371,30.164853834793135]},"properties":{"OBJECTID":164,"Name":"ORANGE PARK POLICE DEPTARTMENT","Address":"2025 SMITH ST","City":"ORANGE PARK","Zip":"32073","COUNTY":"CLAY","X":-81.702512060000004,"Y":30.164853839999999,"LONGLAT":"-81.70251206,30.16485384","USNG":"17R MP 32355 37261","OWNERSHIP":"MUNICIPAL","PARCELID":"41-04-26-018899-000-00","FACILITY_TYPE":"LAW ENFORCEMENT"}},{"type":"Feature","id":165,"geometry":{"type":"Point","coordinates":[-81.686138398662564,29.989327362425492]},"properties":{"OBJECTID":165,"Name":"GREEN COVE SPRINGS POLICE DEPTARTMENT","Address":"1001 IDLEWILD AVE","City":"GREEN COVE SPRINGS","Zip":"32043","COUNTY":"CLAY","X":-81.686138400000004,"Y":29.989327360000001,"LONGLAT":"-81.68613840,29.98932736","USNG":"17R MP 33815 17800","OWNERSHIP":"MUNICIPAL","PARCELID":"38-06-26-017219-000-00","FACILITY_TYPE":"LAW ENFORCEMENT"}},{"type":"Feature","id":166,"geometry":{"type":"Point","coordinates":[-81.714507482825141,25.937488674872309]},"properties":{"OBJECTID":166,"Name":"MARCO ISLAND POLICE DEPT HQ","Address":"51 BALD EAGLE DR","City":"MARCO ISLAND","Zip":"34145","COUNTY":"COLLIER","X":-81.714507479999995,"Y":25.937488680000001,"LONGLAT":"-81.71450748,25.93748868","USNG":"17R MJ 28454 68956","OWNERSHIP":"MUNICIPAL","PARCELID":"57360380002","FACILITY_TYPE":"LAW ENFORCEMENT"}},{"type":"Feature","id":167,"geometry":{"type":"Point","coordinates":[-81.671281513883812,26.155278893515586]},"properties":{"OBJECTID":167,"Name":"FLORIDA HIGHWAY PATROL TROOP F","Address":"3210 BECK BLVD","City":"NAPLES","Zip":"34114","COUNTY":"COLLIER","X":-81.67128151,"Y":26.155278890000002,"LONGLAT":"-81.67128151,26.15527889","USNG":"17R MJ 32907 93053","OWNERSHIP":"STATE","PARCELID":"00298440100","FACILITY_TYPE":"LAW ENFORCEMENT"}},{"type":"Feature","id":168,"geometry":{"type":"Point","coordinates":[-81.763849019318698,26.129155703569136]},"properties":{"OBJECTID":168,"Name":"COLLIER CO SHERIFF'S DEPT HQ","Address":"3319 TAMIAMI TRL E BLDG J","City":"NAPLES","Zip":"34112","COUNTY":"COLLIER","X":-81.763849019999995,"Y":26.129155699999998,"LONGLAT":"-81.76384902,26.12915570","USNG":"17R MJ 23638 90211","OWNERSHIP":"COUNTY","PARCELID":"00389600008","FACILITY_TYPE":"LAW ENFORCEMENT"}},{"type":"Feature","id":169,"geometry":{"type":"Point","coordinates":[-81.805920823496649,26.250621996490956]},"properties":{"OBJECTID":169,"Name":"COLLIER CO SHERIFF'S DEPT - NORTH NAPLES SUBSTATION DIST 1","Address":"776 VANDERBILT BEACH RD","City":"NAPLES","Zip":"34108","COUNTY":"COLLIER","X":-81.805920819999997,"Y":26.250622,"LONGLAT":"-81.80592082,26.25062200","USNG":"17R MK 19515 03689","OWNERSHIP":"COUNTY","PARCELID":"00176682006","FACILITY_TYPE":"LAW ENFORCEMENT"}},{"type":"Feature","id":170,"geometry":{"type":"Point","coordinates":[-81.363892767170654,25.909791411616528]},"properties":{"OBJECTID":170,"Name":"COLLIER CO SHERIFF'S DEPT - EVERGLADES SUBSTATION DIST 7","Address":"32020 TAMIAMI TRL E","City":"OCHOPEE","Zip":"34141","COUNTY":"COLLIER","X":-81.363892770000007,"Y":25.90979141,"LONGLAT":"-81.36389277,25.90979141","USNG":"17R MJ 63554 65744","OWNERSHIP":"COUNTY","PARCELID":"01135400008","FACILITY_TYPE":"LAW ENFORCEMENT"}},{"type":"Feature","id":171,"geometry":{"type":"Point","coordinates":[-81.775159548402087,26.163278609967271]},"properties":{"OBJECTID":171,"Name":"COLLIER CO SHERIFF'S OFFICES","Address":"2373 N HORSESHOE DR","City":"NAPLES","Zip":"34104","COUNTY":"COLLIER","X":-81.775159549999998,"Y":26.163278609999999,"LONGLAT":"-81.77515955,26.16327861","USNG":"17R MJ 22529 93997","OWNERSHIP":"COUNTY","PARCELID":"07040001509","FACILITY_TYPE":"LAW ENFORCEMENT"}},{"type":"Feature","id":172,"geometry":{"type":"Point","coordinates":[-81.778469736838375,26.157986686598655]},"properties":{"OBJECTID":172,"Name":"COLLIER CO SHERIFF'S DEPT - SPECIAL OPERATIONS","Address":"250 PATRIOT WAY","City":"NAPLES","Zip":"34104","COUNTY":"COLLIER","X":-81.778469740000006,"Y":26.157986690000001,"LONGLAT":"-81.77846974,26.15798669","USNG":"17R MJ 22195 93413","OWNERSHIP":"COUNTY","PARCELID":"20764680005","FACILITY_TYPE":"LAW ENFORCEMENT"}},{"type":"Feature","id":173,"geometry":{"type":"Point","coordinates":[-81.800255584934632,26.181270149948098]},"properties":{"OBJECTID":173,"Name":"F.B.I. - NAPLES RESIDENT OFFICE","Address":"3001 N TAMIAMI TRL STE 204","City":"NAPLES","Zip":"34103","COUNTY":"COLLIER","X":-81.800255579999998,"Y":26.18127015,"LONGLAT":"-81.80025558,26.18127015","USNG":"17R MJ 20034 96005","OWNERSHIP":"FEDERAL","PARCELID":"12880160006","FACILITY_TYPE":"LAW ENFORCEMENT"}},{"type":"Feature","id":174,"geometry":{"type":"Point","coordinates":[-81.790148643607353,26.151810848819952]},"properties":{"OBJECTID":174,"Name":"NAPLES POLICE DEPT HQ","Address":"355 RIVERSIDE CIR","City":"NAPLES","Zip":"34102","COUNTY":"COLLIER","X":-81.790148639999998,"Y":26.15181085,"LONGLAT":"-81.79014864,26.15181085","USNG":"17R MJ 21024 92736","OWNERSHIP":"MUNICIPAL","PARCELID":"20760920002","FACILITY_TYPE":"LAW ENFORCEMENT"}},{"type":"Feature","id":175,"geometry":{"type":"Point","coordinates":[-81.416835331631333,26.417291569022197]},"properties":{"OBJECTID":175,"Name":"COLLIER CO SHERIFF'S DEPT - IMMOKALEE SUBSTATION DIST 8","Address":"112 S 1ST ST","City":"IMMOKALEE","Zip":"34142","COUNTY":"COLLIER","X":-81.416835329999998,"Y":26.41729157,"LONGLAT":"-81.41683533,26.41729157","USNG":"17R MK 58432 21964","OWNERSHIP":"COUNTY","PARCELID":"00116760001","FACILITY_TYPE":"LAW ENFORCEMENT"}},{"type":"Feature","id":176,"geometry":{"type":"Point","coordinates":[-81.694726193790586,26.10527434779052]},"properties":{"OBJECTID":176,"Name":"COLLIER CO SHERIFF'S DEPT - EAST NAPLES SUBSTATION DIST 3","Address":"8075 LELY CULTURAL PKWY","City":"NAPLES","Zip":"34113","COUNTY":"COLLIER","X":-81.694726189999997,"Y":26.105274349999998,"LONGLAT":"-81.69472619,26.10527435","USNG":"17R MJ 30534 87527","OWNERSHIP":"COUNTY","PARCELID":"55425014105","FACILITY_TYPE":"LAW ENFORCEMENT"}},{"type":"Feature","id":177,"geometry":{"type":"Point","coordinates":[-81.583901997668093,26.293062499685572]},"properties":{"OBJECTID":177,"Name":"COLLIER CO SHERIFF'S DEPT - ESTATES SUBSTATION DIST 4","Address":"1195 OIL WELL RD","City":"NAPLES","Zip":"34120","COUNTY":"COLLIER","X":-81.583901999999995,"Y":26.293062500000001,"LONGLAT":"-81.58390200,26.29306250","USNG":"17R MK 41709 08270","OWNERSHIP":"COUNTY","PARCELID":"00210041406","FACILITY_TYPE":"LAW ENFORCEMENT"}},{"type":"Feature","id":178,"geometry":{"type":"Point","coordinates":[-81.703796072332636,26.183386317734566]},"properties":{"OBJECTID":178,"Name":"COLLIER CO SHERIFF'S DEPT - GOLDEN GATE SUBSTATION DIST 2","Address":"4707 GOLDEN GATE PKWY","City":"NAPLES","Zip":"34116","COUNTY":"COLLIER","X":-81.703796069999996,"Y":26.18338632,"LONGLAT":"-81.70379607,26.18338632","USNG":"17R MJ 29674 96183","OWNERSHIP":"COUNTY","PARCELID":"36110040005","FACILITY_TYPE":"LAW ENFORCEMENT"}},{"type":"Feature","id":179,"geometry":{"type":"Point","coordinates":[-82.639074856227438,30.191139480212733]},"properties":{"OBJECTID":179,"Name":"COLUMBIA COUNTY SHERIFF'S DEPT. HEADQUARTERS","Address":"225 NW MAIN BLVD","City":"LAKE CITY","Zip":"32055","COUNTY":"COLUMBIA","X":-82.639074859999994,"Y":30.19113948,"LONGLAT":"-82.63907486,30.19113948","USNG":"17R LP 42208 41100","OWNERSHIP":"COUNTY","PARCELID":"00-00-00-12673-000","FACILITY_TYPE":"LAW ENFORCEMENT"}},{"type":"Feature","id":180,"geometry":{"type":"Point","coordinates":[-82.714172065614576,29.921409005013032]},"properties":{"OBJECTID":180,"Name":"COLUMBIA COUNTY SHERIFF SUBSTATION","Address":"118 SW WILSON SPRINGS RD SW","City":"FORT WHITE","Zip":"32038","COUNTY":"COLUMBIA","X":-82.714172070000004,"Y":29.921409010000001,"LONGLAT":"-82.71417207,29.92140901","USNG":"17R LP 34529 11311","OWNERSHIP":"COUNTY","PARCELID":"00-00-00-14340-100","FACILITY_TYPE":"LAW ENFORCEMENT"}},{"type":"Feature","id":181,"geometry":{"type":"Point","coordinates":[-82.55739227792003,30.190502634193717]},"properties":{"OBJECTID":181,"Name":"COLUMBIA COUNTY SHERIFF'S DEPT","Address":"4917 E US HWY 90","City":"LAKE CITY","Zip":"32055","COUNTY":"COLUMBIA","X":-82.557392280000002,"Y":30.190502639999998,"LONGLAT":"-82.55739228,30.19050264","USNG":"17R LP 50071 40919","OWNERSHIP":"COUNTY","PARCELID":"01-4S-17-07470-000","FACILITY_TYPE":"LAW ENFORCEMENT"}},{"type":"Feature","id":182,"geometry":{"type":"Point","coordinates":[-82.643468520926206,30.220525466995454]},"properties":{"OBJECTID":182,"Name":"COLUMBIA COUNTY SHERIFF'S OFFICE/COLUMBIA COUNTY JAIL","Address":"389 NW QUINTEN ST","City":"LAKE CITY","Zip":"32055","COUNTY":"COLUMBIA","X":-82.643468519999999,"Y":30.220525469999998,"LONGLAT":"-82.64346852,30.22052547","USNG":"17R LP 41832 44363","OWNERSHIP":"COUNTY","PARCELID":"20-3S-17-05222-000","FACILITY_TYPE":"LAW ENFORCEMENT"}},{"type":"Feature","id":183,"geometry":{"type":"Point","coordinates":[-82.655237723091716,30.183563657935135]},"properties":{"OBJECTID":183,"Name":"FLORIDA HIGHWAY PATROL TROOP B HQ","Address":"1350 W US HWY 90 STE 101","City":"LAKE CITY","Zip":"32055","COUNTY":"COLUMBIA","X":-82.655237720000002,"Y":30.183563660000001,"LONGLAT":"-82.65523772,30.18356366","USNG":"17R LP 40639 40283","OWNERSHIP":"STATE","PARCELID":"00-00-00-12495-000","FACILITY_TYPE":"LAW ENFORCEMENT"}},{"type":"Feature","id":184,"geometry":{"type":"Point","coordinates":[-82.639081778976518,30.190923887259686]},"properties":{"OBJECTID":184,"Name":"LAKE CITY POLICE DEPT HEADQUARTERS","Address":"225 NW MAIN BLVD","City":"LAKE CITY","Zip":"32055","COUNTY":"COLUMBIA","X":-82.639077,"Y":30.191137000000001,"LONGLAT":"-82.63907700,30.19113700","USNG":"17R LP 42418 41071","OWNERSHIP":"MUNICIPAL","PARCELID":"00-00-00-12680-000","FACILITY_TYPE":"LAW ENFORCEMENT"}},{"type":"Feature","id":185,"geometry":{"type":"Point","coordinates":[-81.861544762993873,27.216624326228075]},"properties":{"OBJECTID":185,"Name":"ARCADIA POLICE DEPT HEADQUARTERS","Address":"725 NORTH BREVARD AVENUE","City":"ARCADIA","Zip":"34266","COUNTY":"DESOTO","X":-81.861544760000001,"Y":27.216624329999998,"LONGLAT":"-81.86154476,27.21662433","USNG":"17R ML 14684 10722","OWNERSHIP":"MUNICIPAL","PARCELID":"25-37-24-0012-0280-0047","FACILITY_TYPE":"LAW ENFORCEMENT"}},{"type":"Feature","id":186,"geometry":{"type":"Point","coordinates":[-81.85456428735786,27.227035289251706]},"properties":{"OBJECTID":186,"Name":"FLORIDA HIGHWAY PATROL TROOP F","Address":"721 N BREVARD AVE","City":"ARCADIA","Zip":"34266","COUNTY":"DESOTO","X":-81.854564289999999,"Y":27.22703529,"LONGLAT":"-81.85456429,27.22703529","USNG":"17R ML 15383 11870","OWNERSHIP":"STATE","PARCELID":null,"FACILITY_TYPE":"LAW ENFORCEMENT"}},{"type":"Feature","id":187,"geometry":{"type":"Point","coordinates":[-81.856330850592059,27.217100068050584]},"properties":{"OBJECTID":187,"Name":"DESOTO COUNTY SHERIFF'S DEPT. HEADQUARTERS","Address":"208 E CYPRESS ST","City":"ARCADIA","Zip":"34266","COUNTY":"DESOTO","X":-81.856330850000006,"Y":27.217100070000001,"LONGLAT":"-81.85633085,27.21710007","USNG":"17R ML 15200 10771","OWNERSHIP":"COUNTY","PARCELID":"25-37-24-0012-0210-0010","FACILITY_TYPE":"LAW ENFORCEMENT"}},{"type":"Feature","id":188,"geometry":{"type":"Point","coordinates":[-83.122724317336136,29.636658532356567]},"properties":{"OBJECTID":188,"Name":"DIXIE COUNTY SHERIFF'S DEPT. HEADQUARTERS","Address":"214 NE COUNTY ROAD 351","City":"CROSS CITY","Zip":"32628","COUNTY":"DIXIE","X":-83.122724320000003,"Y":29.636658529999998,"LONGLAT":"-83.12272432,29.63665853","USNG":"17R KN 94502 80408","OWNERSHIP":"COUNTY","PARCELID":"041012188600100000","FACILITY_TYPE":"LAW ENFORCEMENT"}},{"type":"Feature","id":189,"geometry":{"type":"Point","coordinates":[-83.132910632723338,29.636556346985319]},"properties":{"OBJECTID":189,"Name":"FLORIDA HIGHWAY PATROL TROOP B","Address":"16106 SE US HWY 19","City":"CROSS CITY","Zip":"32628","COUNTY":"DIXIE","X":-83.132910629999998,"Y":29.636556349999999,"LONGLAT":"-83.13291063,29.63655635","USNG":"17R KN 93515 80415","OWNERSHIP":"STATE","PARCELID":null,"FACILITY_TYPE":"LAW ENFORCEMENT"}},{"type":"Feature","id":190,"geometry":{"type":"Point","coordinates":[-83.125747032404476,29.63645588521295]},"properties":{"OBJECTID":190,"Name":"CROSS CITY POLICE DEPT. HEADQUARTERS","Address":"99 NE 210TH AVE","City":"CROSS CITY","Zip":"32628","COUNTY":"DIXIE","X":-83.125747029999999,"Y":29.636455890000001,"LONGLAT":"-83.12574703,29.63645589","USNG":"17R KN 94209 80391","OWNERSHIP":"MUNICIPAL","PARCELID":"041012188600040010","FACILITY_TYPE":"LAW ENFORCEMENT"}},{"type":"Feature","id":191,"geometry":{"type":"Point","coordinates":[-81.552659323686157,30.323360382422376]},"properties":{"OBJECTID":191,"Name":"JACKSONVILLE SHERIFF'S DEPT. ZONE 2","Address":"9501 ARLINGTON EXPY","City":"JACKSONVILLE","Zip":"32225","COUNTY":"DUVAL","X":-81.552659320000004,"Y":30.32336038,"LONGLAT":"-81.55265932,30.32336038","USNG":"17R MP 46870 54746","OWNERSHIP":"MUNICIPAL","PARCELID":"1230280010R","FACILITY_TYPE":"LAW ENFORCEMENT"}},{"type":"Feature","id":192,"geometry":{"type":"Point","coordinates":[-81.685662355323558,30.345188911827638]},"properties":{"OBJECTID":192,"Name":"JACKSONVILLE SHERIFF'S DEPT. ZONE 5","Address":"1767 KINGS RD","City":"JACKSONVILLE","Zip":"32209","COUNTY":"DUVAL","X":-81.685662359999995,"Y":30.345188910000001,"LONGLAT":"-81.68566236,30.34518891","USNG":"17R MP 34098 57235","OWNERSHIP":"MUNICIPAL","PARCELID":"0570720000R","FACILITY_TYPE":"LAW ENFORCEMENT"}},{"type":"Feature","id":193,"geometry":{"type":"Point","coordinates":[-81.737967473477354,30.269336478908773]},"properties":{"OBJECTID":193,"Name":"JACKSONVILLE SHERIFF'S DEPT. ZONE 4","Address":"3726 BLANDING BLVD","City":"JACKSONVILLE","Zip":"32210","COUNTY":"DUVAL","X":-81.737967470000001,"Y":30.26933648,"LONGLAT":"-81.73796747,30.26933648","USNG":"17R MP 29016 48861","OWNERSHIP":"MUNICIPAL","PARCELID":"1047130000R","FACILITY_TYPE":"LAW ENFORCEMENT"}},{"type":"Feature","id":194,"geometry":{"type":"Point","coordinates":[-81.403905653088742,30.285850699214617]},"properties":{"OBJECTID":194,"Name":"JACKSONVILLE BEACH POLICE DEPARTMENT","Address":"101 PENMAN RD S","City":"JACKSONVILLE BEACH","Zip":"32250","COUNTY":"DUVAL","X":-81.403905649999999,"Y":30.285850700000001,"LONGLAT":"-81.40390565,30.28585070","USNG":"17R MP 61156 50529","OWNERSHIP":"MUNICIPAL","PARCELID":"1775020000R","FACILITY_TYPE":"LAW ENFORCEMENT"}},{"type":"Feature","id":195,"geometry":{"type":"Point","coordinates":[-81.661399396713833,30.42828559960962]},"properties":{"OBJECTID":195,"Name":"JACKSONVILLE SHERIFF'S DEPT. ZONE 6","Address":"936 DUNN AVE","City":"JACKSONVILLE","Zip":"32218","COUNTY":"DUVAL","X":-81.661399399999993,"Y":30.428285599999999,"LONGLAT":"-81.66139940,30.42828560","USNG":"17R MP 36484 66430","OWNERSHIP":"MUNICIPAL","PARCELID":"0441490500R","FACILITY_TYPE":"LAW ENFORCEMENT"}},{"type":"Feature","id":196,"geometry":{"type":"Point","coordinates":[-81.512273027458832,30.267022998889615]},"properties":{"OBJECTID":196,"Name":"UNF DEPT OF POLICE & PUBLIC SAFETY","Address":"4567 SAINT JOHNS BLUFF RD S","City":"JACKSONVILLE","Zip":"32224","COUNTY":"DUVAL","X":-81.512273030000003,"Y":30.267022999999998,"LONGLAT":"-81.51227303,30.26702300","USNG":"17R MP 50724 48485","OWNERSHIP":"STATE","PARCELID":"1674580020R","FACILITY_TYPE":"LAW ENFORCEMENT"}},{"type":"Feature","id":197,"geometry":{"type":"Point","coordinates":[-81.66633298421749,30.337506693152395]},"properties":{"OBJECTID":197,"Name":"FLORIDA DEPT OF LAW ENFORCEMENT JACKSONVILLE REGIONAL OPERATIONS CENTER","Address":"921 N DAVIS ST","City":"JACKSONVILLE","Zip":"32209","COUNTY":"DUVAL","X":-81.666332980000007,"Y":30.337506690000001,"LONGLAT":"-81.66633298,30.33750669","USNG":"17R MP 35951 56372","OWNERSHIP":"STATE OF FLORIDA TIITF","PARCELID":"0751610000R","FACILITY_TYPE":"LAW ENFORCEMENT"}},{"type":"Feature","id":198,"geometry":{"type":"Point","coordinates":[-81.581925615175336,30.228920392686693]},"properties":{"OBJECTID":198,"Name":"FLORIDA DEPT OF ENV PROTECT/BUR OF EMERGENCY RESPONSE JACKSONVILLE OFFICE","Address":"7825 BAYMEADOWS WAY","City":"JACKSONVILLE","Zip":"32256","COUNTY":"DUVAL","X":-81.581925620000007,"Y":30.228920389999999,"LONGLAT":"-81.58192562,30.22892039","USNG":"17R MP 44003 44295","OWNERSHIP":"STATE","PARCELID":"1526120100R","FACILITY_TYPE":"LAW ENFORCEMENT"}},{"type":"Feature","id":199,"geometry":{"type":"Point","coordinates":[-81.4195484203848,30.290006442417162]},"properties":{"OBJECTID":199,"Name":"FFWCC NORTH REGION FIELD OFFICE","Address":"2510 2ND AVE","City":"JACKSONVILLE BEACH","Zip":"32250","COUNTY":"DUVAL","X":-81.419548419999998,"Y":30.290006439999999,"LONGLAT":"-81.41954842,30.29000644","USNG":"17R MP 59653 50995","OWNERSHIP":"STATE","PARCELID":"1772860000R","FACILITY_TYPE":"LAW ENFORCEMENT"}},{"type":"Feature","id":200,"geometry":{"type":"Point","coordinates":[-81.769061336232767,30.297834909365054]},"properties":{"OBJECTID":200,"Name":"FLORIDA HIGHWAY PATROL TROOP G HEADQUARTERS","Address":"7322 NORMANDY BLVD","City":"JACKSONVILLE","Zip":"32221","COUNTY":"DUVAL","X":-81.769061339999993,"Y":30.297834909999999,"LONGLAT":"-81.76906134,30.29783491","USNG":"17R MP 26047 52039","OWNERSHIP":"STATE","PARCELID":"0076080000R","FACILITY_TYPE":"LAW ENFORCEMENT"}},{"type":"Feature","id":201,"geometry":{"type":"Point","coordinates":[-81.613645336776699,30.249287273441972]},"properties":{"OBJECTID":201,"Name":"JACKSONVILLE SHERIFF'S DEPT. ZONE 3","Address":"7100 POWERS AVE","City":"JACKSONVILLE","Zip":"32217","COUNTY":"DUVAL","X":-81.613645340000005,"Y":30.24928727,"LONGLAT":"-81.61364534,30.24928727","USNG":"17R MP 40963 46568","OWNERSHIP":"COUNTY","PARCELID":"1479990000R","FACILITY_TYPE":"LAW ENFORCEMENT"}},{"type":"Feature","id":202,"geometry":{"type":"Point","coordinates":[-81.651746323192796,30.325367574265989]},"properties":{"OBJECTID":202,"Name":"JACKSONVILLE SHERIFF'S DEPT. HEADQUARTERS","Address":"501 E BAY ST","City":"JACKSONVILLE","Zip":"32202","COUNTY":"DUVAL","X":-81.651746320000001,"Y":30.325367580000002,"LONGLAT":"-81.65174632,30.32536758","USNG":"17R MP 37345 55019","OWNERSHIP":"COUNTY","PARCELID":"0734020000R","FACILITY_TYPE":"LAW ENFORCEMENT"}},{"type":"Feature","id":203,"geometry":{"type":"Point","coordinates":[-81.573496556759139,30.340892296304506]},"properties":{"OBJECTID":203,"Name":"DUVAL COUNTY SCHOOL POLICE","Address":"1720 LANSDOWNE DR","City":"JACKSONVILLE","Zip":"32211","COUNTY":"DUVAL","X":-81.573496559999995,"Y":30.3408923,"LONGLAT":"-81.57349656,30.34089230","USNG":"17R MP 44877 56699","OWNERSHIP":"COUNTY","PARCELID":"1204790010R","FACILITY_TYPE":"LAW ENFORCEMENT"}},{"type":"Feature","id":204,"geometry":{"type":"Point","coordinates":[-81.587790009367083,30.238477949887002]},"properties":{"OBJECTID":204,"Name":"U.S. GOVERNMENT MILITARY ENTRANCE PROCESSING STATION (MEPS)","Address":"7178 BAYMEADOWS WAY","City":"JACKSONVILLE","Zip":"32256","COUNTY":"DUVAL","X":-81.587790010000006,"Y":30.23847795,"LONGLAT":"-81.58779001,30.23847795","USNG":"17R MP 43444 45357","OWNERSHIP":null,"PARCELID":null,"FACILITY_TYPE":"LAW ENFORCEMENT"}},{"type":"Feature","id":205,"geometry":{"type":"Point","coordinates":[-81.660235317906569,30.32879687059927]},"properties":{"OBJECTID":205,"Name":"U.S. BORDER PATROL JACKSONVILLE STATION","Address":"311 W. MONROE ST.","City":"JACKSONVILLE","Zip":"32202","COUNTY":"DUVAL","X":-81.660235319999998,"Y":30.328796870000001,"LONGLAT":"-81.66023532,30.32879687","USNG":"17R MP 36532 55404","OWNERSHIP":null,"PARCELID":null,"FACILITY_TYPE":"LAW ENFORCEMENT"}},{"type":"Feature","id":206,"geometry":{"type":"Point","coordinates":[-81.396127564375817,30.282959665323244]},"properties":{"OBJECTID":206,"Name":"CAPE JACKSONVILLE BEACH POLICE - CARVER CENTER","Address":"738 4TH AVENUE SOUTH","City":"JACKSONVILLE BEACH","Zip":"32250","COUNTY":"DUVAL","X":-81.396127559999996,"Y":30.28295967,"LONGLAT":"-81.39612756,30.28295967","USNG":"17R MP 61903 50206","OWNERSHIP":null,"PARCELID":null,"FACILITY_TYPE":"LAW ENFORCEMENT"}},{"type":"Feature","id":207,"geometry":{"type":"Point","coordinates":[-81.710134573272697,30.338303564371163]},"properties":{"OBJECTID":207,"Name":"JACKSONVILLE REENTRY CENTE","Address":"1024 SUPERIOR ST","City":"JACKSONVILLE","Zip":"32254","COUNTY":"DUVAL","X":-81.710134569999994,"Y":30.338303570000001,"LONGLAT":"-81.71013457,30.33830357","USNG":"17R MP 31741 56486","OWNERSHIP":null,"PARCELID":null,"FACILITY_TYPE":"LAW ENFORCEMENT"}},{"type":"Feature","id":208,"geometry":{"type":"Point","coordinates":[-81.683390000513413,30.491360012530489]},"properties":{"OBJECTID":208,"Name":"JACKSONVILLE AIRPORT AUTHORITY POLICE DEPT HEADQUARTERS","Address":"2400 YANKEE CLIPPER DR","City":"JACKSONVILLE","Zip":"32218","COUNTY":"DUVAL","X":-81.683390000000003,"Y":30.491360010000001,"LONGLAT":"-81.68339000,30.49136001","USNG":"17R MP 34414 73432","OWNERSHIP":"COUNTY","PARCELID":"0192800000R","FACILITY_TYPE":"LAW ENFORCEMENT"}},{"type":"Feature","id":209,"geometry":{"type":"Point","coordinates":[-81.662212726521744,30.340382398177589]},"properties":{"OBJECTID":209,"Name":"JSO - JACKSONVILLE HOUSING AUTHORITY DIVISION (JSO field office)","Address":"1300 N BROAD ST","City":"JACKSONVILLE","Zip":"32202","COUNTY":"DUVAL","X":-81.662212729999993,"Y":30.340382399999999,"LONGLAT":"-81.66221273,30.34038240","USNG":"17R MP 36349 56689","OWNERSHIP":"COUNTY","PARCELID":"0707800000R","FACILITY_TYPE":"LAW ENFORCEMENT"}},{"type":"Feature","id":210,"geometry":{"type":"Point","coordinates":[-81.697053270115958,30.216915347554572]},"properties":{"OBJECTID":210,"Name":"U.S. GOVERNMENT - NAVY, NAVAL AIR STATION, POLICE","Address":"NAS","City":"JACKSONVILLE","Zip":"32212","COUNTY":"DUVAL","X":-81.697053269999998,"Y":30.216915350000001,"LONGLAT":"-81.69705327,30.21691535","USNG":"17R MP 32916 43027","OWNERSHIP":"FEDERAL","PARCELID":"0984050000R","FACILITY_TYPE":"LAW ENFORCEMENT"}},{"type":"Feature","id":211,"geometry":{"type":"Point","coordinates":[-81.664649614756996,30.37228150770181]},"properties":{"OBJECTID":211,"Name":"JACKSONVILLE SHERIFF'S DEPT. ZONE 1","Address":"5570 NORWOOD AVE","City":"JACKSONVILLE","Zip":"32206","COUNTY":"DUVAL","X":-81.664649609999998,"Y":30.372281510000001,"LONGLAT":"-81.66464961,30.37228151","USNG":"17R MP 36135 60225","OWNERSHIP":"MUNICIPAL","PARCELID":"0300440000R","FACILITY_TYPE":"LAW ENFORCEMENT"}},{"type":"Feature","id":212,"geometry":{"type":"Point","coordinates":[-81.619465100401882,30.298828170187022]},"properties":{"OBJECTID":212,"Name":"BUREAU OF ALCOHOL, TOBACCO AND FIREARMS - JACKSONVILLE FIELD OFFICE","Address":"4519 BEACH BLVD","City":"JACKSONVILLE","Zip":"32207","COUNTY":"DUVAL","X":-81.619465099999999,"Y":30.29882817,"LONGLAT":"-81.61946510,30.29882817","USNG":"17R MP 40433 52061","OWNERSHIP":"FEDERAL","PARCELID":"1366640000R","FACILITY_TYPE":"LAW ENFORCEMENT"}},{"type":"Feature","id":213,"geometry":{"type":"Point","coordinates":[-81.624968151464387,30.356142488094811]},"properties":{"OBJECTID":213,"Name":"U.S. CUSTOMS AND BORDER PROTECTION - JACKSONVILLE","Address":"2831 TALLEYRAND AVE","City":"JACKSONVILLE","Zip":"32206","COUNTY":"DUVAL","X":-81.624968150000001,"Y":30.35614249,"LONGLAT":"-81.62496815,30.35614249","USNG":"17R MP 39939 58415","OWNERSHIP":"FEDERAL","PARCELID":"1153270500R","FACILITY_TYPE":"LAW ENFORCEMENT"}},{"type":"Feature","id":214,"geometry":{"type":"Point","coordinates":[-81.66128042135314,30.329766428932111]},"properties":{"OBJECTID":214,"Name":"U.S. BORDER PATROL - JACKSONVILLE STATION","Address":"311 W MONROE ST","City":"JACKSONVILLE","Zip":"32202","COUNTY":"DUVAL","X":-81.661280419999997,"Y":30.329766429999999,"LONGLAT":"-81.66128042,30.32976643","USNG":"17R MP 36432 55512","OWNERSHIP":"FEDERAL","PARCELID":"0737990000R","FACILITY_TYPE":"LAW ENFORCEMENT"}},{"type":"Feature","id":215,"geometry":{"type":"Point","coordinates":[-81.591440180843648,30.251814343473086]},