{"type":"FeatureCollection","features":[{"type":"Feature","id":1,"geometry":{"type":"Point","coordinates":[-81.851118898413986,26.643198630637183]},"properties":{"OBJECTID":1,"Name":"DUNBAR-JUPITER HAMMON BR LIB","Address":"3095 BLOUNT ST","City":"FORT MYERS","Zip":"33916","COUNTY":"LEE","X":-81.851118900000003,"Y":26.643198630000001,"LONGLAT":"-81.85111890,26.64319863","USNG":"17R MK 15289 47199","OWNERSHIP":"COUNTY","PARCELID":"184425P4000200000","FACILITY_TYPE":"LIBRARY"}},{"type":"Feature","id":2,"geometry":{"type":"Point","coordinates":[-81.842837026511916,27.87344779096675]},"properties":{"OBJECTID":2,"Name":"BARTOW PUBLIC LIBRARY","Address":"2150 S BROADWAY AVE","City":"BARTOW","Zip":"33830","COUNTY":"POLK","X":-81.842837029999998,"Y":27.87344779,"LONGLAT":"-81.84283703,27.87344779","USNG":"17R ML 17031 83468","OWNERSHIP":null,"PARCELID":"253017000000034110","FACILITY_TYPE":"LIBRARY"}},{"type":"Feature","id":3,"geometry":{"type":"Point","coordinates":[-80.248561695669579,26.270133765073407]},"properties":{"OBJECTID":3,"Name":"NW REGIONAL LIBRARY","Address":"3151 N UNIVERSITY DR","City":"POMPANO BEACH","Zip":"33065","COUNTY":"BROWARD","X":-80.248561699999996,"Y":26.270133770000001,"LONGLAT":"-80.24856170,26.27013377","USNG":"17R NK 75030 05817","OWNERSHIP":"COUNTY","PARCELID":"484122200020","FACILITY_TYPE":"LIBRARY"}},{"type":"Feature","id":4,"geometry":{"type":"Point","coordinates":[-80.083322162037973,26.842087810761445]},"properties":{"OBJECTID":4,"Name":"COUNTY OF PALM BEACH","Address":"11303 CAMPUS DR","City":"PALM BEACH GARDENS","Zip":"33410","COUNTY":"PALM BEACH","X":-80.083322159999994,"Y":26.842087809999999,"LONGLAT":"-80.08332216,26.84208781","USNG":"17R NK 91077 69274","OWNERSHIP":null,"PARCELID":null,"FACILITY_TYPE":"LIBRARY"}},{"type":"Feature","id":5,"geometry":{"type":"Point","coordinates":[-81.83032583896339,28.179562036112564]},"properties":{"OBJECTID":5,"Name":"OLIVE BRANCH RECREATION CENTER","Address":" ","City":"POLK CITY","Zip":"33868","COUNTY":"POLK","X":-81.83032584,"Y":28.17956204,"LONGLAT":"-81.83032584,28.17956204","USNG":"17R MM 18494 17372","OWNERSHIP":null,"PARCELID":"252632295500002010","FACILITY_TYPE":"LIBRARY"}},{"type":"Feature","id":6,"geometry":{"type":"Point","coordinates":[-81.967897142979496,29.362597049336824]},"properties":{"OBJECTID":6,"Name":"FORT MCCOY PUBLIC LIBRARY","Address":"14660 NE COUNTY ROAD 315","City":"FORT MC COY","Zip":"32134","COUNTY":"MARION","X":-81.967897140000005,"Y":29.362597050000002,"LONGLAT":"-81.96789714,29.36259705","USNG":"17R MN 06055 48548","OWNERSHIP":"COUNTY","PARCELID":"10445-002-00","FACILITY_TYPE":"LIBRARY"}},{"type":"Feature","id":7,"geometry":{"type":"Point","coordinates":[-81.653844187823381,30.324750425370233]},"properties":{"OBJECTID":7,"Name":"CITY OF JACKSONVILLE","Address":"330 E BAY ST","City":"JACKSONVILLE","Zip":"32202","COUNTY":"DUVAL","X":-81.653844190000001,"Y":30.324750430000002,"LONGLAT":"-81.65384419,30.32475043","USNG":"17R MP 37143 54952","OWNERSHIP":"COUNTY","PARCELID":"0733580000R","FACILITY_TYPE":"LIBRARY"}},{"type":"Feature","id":8,"geometry":{"type":"Point","coordinates":[-80.093883707728978,26.951462034295826]},"properties":{"OBJECTID":8,"Name":"BRANCH MANAGEMENT","Address":"8 W RIVERSIDE DR","City":"JUPITER","Zip":"33469","COUNTY":"PALM BEACH","X":-80.09388371,"Y":26.951462039999999,"LONGLAT":"-80.09388371,26.95146204","USNG":"17R NK 89941 81381","OWNERSHIP":null,"PARCELID":null,"FACILITY_TYPE":"LIBRARY"}},{"type":"Feature","id":9,"geometry":{"type":"Point","coordinates":[-81.644600092059392,28.802550023094792]},"properties":{"OBJECTID":9,"Name":"FRIENDS OF LIBRARY MOUNT","Address":" ","City":"MOUNT DORA","Zip":"32757","COUNTY":"LAKE","X":-81.644600089999997,"Y":28.802550020000002,"LONGLAT":"-81.64460009,28.80255002","USNG":"17R MM 37096 86280","OWNERSHIP":null,"PARCELID":"291927001004700002","FACILITY_TYPE":"LIBRARY"}},{"type":"Feature","id":10,"geometry":{"type":"Point","coordinates":[-80.121976430792685,25.881687589815161]},"properties":{"OBJECTID":10,"Name":"SURF-BAL-BAY PUBLIC LIBRARY","Address":"9301 COLLINS AVE","City":"MIAMI BEACH","Zip":"33154","COUNTY":"MIAMI-DADE","X":-80.121976430000004,"Y":25.881687589999999,"LONGLAT":"-80.12197643,25.88168759","USNG":"17R NJ 87960 62875","OWNERSHIP":"MUNICIPAL","PARCELID":"1422350080010","FACILITY_TYPE":"LIBRARY"}},{"type":"Feature","id":11,"geometry":{"type":"Point","coordinates":[-84.888327977232464,29.734409095493572]},"properties":{"OBJECTID":11,"Name":"EASTPOINT LIBRARY","Address":"29 ISLAND DR","City":"EASTPOINT","Zip":"32328","COUNTY":"FRANKLIN","X":-84.88832798,"Y":29.734409100000001,"LONGLAT":"-84.88832798,29.73440910","USNG":"16R GT 04229 91223","OWNERSHIP":null,"PARCELID":"31-08S-06W-6290-0008-0080","FACILITY_TYPE":"LIBRARY"}},{"type":"Feature","id":12,"geometry":{"type":"Point","coordinates":[-82.745802280632049,27.792942787006634]},"properties":{"OBJECTID":12,"Name":"CITY OF ST PETERSBURG","Address":"7801 22ND AVE N","City":"SAINT PETERSBURG","Zip":"33710","COUNTY":"PINELLAS","X":-82.745802280000007,"Y":27.792942790000001,"LONGLAT":"-82.74580228,27.79294279","USNG":"17R LL 28006 75487","OWNERSHIP":"COUNTY","PARCELID":"15 31 12 01979 001 0010","FACILITY_TYPE":"LIBRARY"}},{"type":"Feature","id":13,"geometry":{"type":"Point","coordinates":[-82.246549495159655,27.044939026346299]},"properties":{"OBJECTID":13,"Name":"NORTH PORT LIBRARY","Address":"13800 S TAMIAMI TRL","City":"NORTH PORT","Zip":"34287","COUNTY":"SARASOTA","X":-82.2465495,"Y":27.044939029999998,"LONGLAT":"-82.24654950,27.04493903","USNG":"17R LK 76366 92024","OWNERSHIP":"SPECIAL TAXING DISTRICT","PARCELID":"0997-00-0301","FACILITY_TYPE":"LIBRARY"}},{"type":"Feature","id":14,"geometry":{"type":"Point","coordinates":[-81.727717403943601,28.804661869784937]},"properties":{"OBJECTID":14,"Name":"TAVARES PUBLIC LIBRARY","Address":"314 N NEW HAMPSHIRE AVE","City":"TAVARES","Zip":"32778","COUNTY":"LAKE","X":-81.727717400000003,"Y":28.80466187,"LONGLAT":"-81.72771740,28.80466187","USNG":"17R MM 28986 86561","OWNERSHIP":null,"PARCELID":null,"FACILITY_TYPE":"LIBRARY"}},{"type":"Feature","id":15,"geometry":{"type":"Point","coordinates":[-80.187147684080458,25.83227974775259]},"properties":{"OBJECTID":15,"Name":"LEMON CITY BRANCH LIBRARY","Address":"430 NE 61ST ST","City":"MIAMI","Zip":"33137","COUNTY":"MIAMI-DADE","X":-80.187147679999995,"Y":25.832279750000001,"LONGLAT":"-80.18714768,25.83227975","USNG":"17R NJ 81465 57361","OWNERSHIP":null,"PARCELID":null,"FACILITY_TYPE":"LIBRARY"}},{"type":"Feature","id":16,"geometry":{"type":"Point","coordinates":[-80.117473035188439,26.003976005135904]},"properties":{"OBJECTID":16,"Name":"HOLLYWOOD BEACH BERNICE P. OSTER READING CENTER","Address":"1301 S OCEAN DR","City":"HOLLYWOOD","Zip":"33019","COUNTY":"BROWARD","X":-80.117473039999993,"Y":26.003976009999999,"LONGLAT":"-80.11747304,26.00397601","USNG":"17R NJ 88320 76422","OWNERSHIP":"MUNICIPAL","PARCELID":"514224010011","FACILITY_TYPE":"LIBRARY"}},{"type":"Feature","id":17,"geometry":{"type":"Point","coordinates":[-81.718328636918685,30.301219968292209]},"properties":{"OBJECTID":17,"Name":"FLORIDA STATE COLLEGE AT JACKSONVILLE - KENT CAMPUS","Address":"3949 ROOSEVELT BLVD","City":"JACKSONVILLE","Zip":"32205","COUNTY":"DUVAL","X":-81.718328639999996,"Y":30.301219969999998,"LONGLAT":"-81.71832864,30.30121997","USNG":"17R MP 30928 52382","OWNERSHIP":"STATE","PARCELID":"0653790000R","FACILITY_TYPE":"LIBRARY"}},{"type":"Feature","id":18,"geometry":{"type":"Point","coordinates":[-80.347502004916308,27.371680920843865]},"properties":{"OBJECTID":18,"Name":"RIVER BRANCH HOMEOWNERS ASSN","Address":"5145 WATER LILLY WAY","City":"FORT PIERCE","Zip":"34981","COUNTY":"ST. LUCIE","X":-80.347502000000006,"Y":27.371680919999999,"LONGLAT":"-80.34750200,27.37168092","USNG":"17R NL 64524 27772","OWNERSHIP":null,"PARCELID":"3404-809-0003-000-3","FACILITY_TYPE":"LIBRARY"}},{"type":"Feature","id":19,"geometry":{"type":"Point","coordinates":[-81.730057122431219,28.801921434800136]},"properties":{"OBJECTID":19,"Name":"LAKE COUNTY LIBRARY SYS HDQTR","Address":"315 W MAIN ST","City":"TAVARES","Zip":"32778","COUNTY":"LAKE","X":-81.730057119999998,"Y":28.801921440000001,"LONGLAT":"-81.73005712,28.80192144","USNG":"17R MM 28756 86259","OWNERSHIP":"COUNTY","PARCELID":"291926010000500000","FACILITY_TYPE":"LIBRARY"}},{"type":"Feature","id":20,"geometry":{"type":"Point","coordinates":[-82.56838128818184,28.803205767494909]},"properties":{"OBJECTID":20,"Name":"HOMOSASSA PUBLIC LIBRARY","Address":"4100 S GRANDMARCH AVE","City":"HOMOSASSA","Zip":"34446","COUNTY":"CITRUS","X":-82.568381290000005,"Y":28.803205770000002,"LONGLAT":"-82.56838129,28.80320577","USNG":"17R LM 46941 87192","OWNERSHIP":null,"PARCELID":null,"FACILITY_TYPE":"LIBRARY"}},{"type":"Feature","id":21,"geometry":{"type":"Point","coordinates":[-82.598897384328396,29.827469820431567]},"properties":{"OBJECTID":21,"Name":"HIGH SPRINGS BRANCH LIBRARY","Address":"135 NW 1ST AVE","City":"HIGH SPRINGS","Zip":"32643","COUNTY":"ALACHUA","X":-82.598897379999997,"Y":29.827469820000001,"LONGLAT":"-82.59889738,29.82746982","USNG":"17R LP 45513 00740","OWNERSHIP":"MUNICIPAL","PARCELID":"00642 000 000","FACILITY_TYPE":"LIBRARY"}},{"type":"Feature","id":22,"geometry":{"type":"Point","coordinates":[-82.633127257515369,27.761712255289222]},"properties":{"OBJECTID":22,"Name":"UNIVERSITY OF SOUTH FLORIDA","Address":"140 7TH AVE S","City":"SAINT PETERSBURG","Zip":"33701","COUNTY":"PINELLAS","X":-82.633127259999995,"Y":27.761712259999999,"LONGLAT":"-82.63312726,27.76171226","USNG":"17R LL 39062 71875","OWNERSHIP":"STATE OF FLORIDA TIITF","PARCELID":"17 31 19 93333 000 0030","FACILITY_TYPE":"LIBRARY"}},{"type":"Feature","id":23,"geometry":{"type":"Point","coordinates":[-82.128889193615322,28.775334171642719]},"properties":{"OBJECTID":23,"Name":"PANASOFFKEE COMMUNITY LIBRARY","Address":"1500 COUNTY ROAD 459","City":"LAKE PANASOFFKEE","Zip":"33538","COUNTY":"SUMTER","X":-82.128889189999995,"Y":28.775334170000001,"LONGLAT":"-82.12888919,28.77533417","USNG":"17R LM 89805 83617","OWNERSHIP":null,"PARCELID":"J05H004","FACILITY_TYPE":"LIBRARY"}},{"type":"Feature","id":24,"geometry":{"type":"Point","coordinates":[-80.217686827572678,25.772238796744489]},"properties":{"OBJECTID":24,"Name":"HISPANIC BRANCH LIBRARY","Address":"1398 SW 1ST ST","City":"MIAMI","Zip":"33135","COUNTY":"MIAMI-DADE","X":-80.217686830000005,"Y":25.7722388,"LONGLAT":"-80.21768683,25.77223880","USNG":"17R NJ 78443 50693","OWNERSHIP":"COUNTY","PARCELID":null,"FACILITY_TYPE":"LIBRARY"}},{"type":"Feature","id":25,"geometry":{"type":"Point","coordinates":[-80.139426265593045,26.052948704119043]},"properties":{"OBJECTID":25,"Name":"COUNTY OF BROWARD","Address":"255 E DANIA BEACH BLVD","City":"DANIA","Zip":"33004","COUNTY":"BROWARD","X":-80.139426270000001,"Y":26.052948700000002,"LONGLAT":"-80.13942627,26.05294870","USNG":"17R NJ 86087 81831","OWNERSHIP":null,"PARCELID":"504234290020","FACILITY_TYPE":"LIBRARY"}},{"type":"Feature","id":26,"geometry":{"type":"Point","coordinates":[-80.130254356359188,26.136795145318271]},"properties":{"OBJECTID":26,"Name":"COUNTY OF BROWARD","Address":"1300 E SUNRISE BLVD","City":"FORT LAUDERDALE","Zip":"33304","COUNTY":"BROWARD","X":-80.130254359999995,"Y":26.136795150000001,"LONGLAT":"-80.13025436,26.13679515","USNG":"17R NJ 86943 91123","OWNERSHIP":"MUNICIPAL","PARCELID":"504202280010","FACILITY_TYPE":"LIBRARY"}},{"type":"Feature","id":27,"geometry":{"type":"Point","coordinates":[-80.223554649176677,27.194503410495436]},"properties":{"OBJECTID":27,"Name":"BLAKE LIBRARY","Address":"2351 SE MONTEREY RD","City":"STUART","Zip":"34996","COUNTY":"MARTIN","X":-80.223554649999997,"Y":27.194503409999999,"LONGLAT":"-80.22355465,27.19450341","USNG":"17R NL 76903 08216","OWNERSHIP":null,"PARCELID":null,"FACILITY_TYPE":"LIBRARY"}},{"type":"Feature","id":28,"geometry":{"type":"Point","coordinates":[-82.857043885931418,29.47982445721485]},"properties":{"OBJECTID":28,"Name":"LUTHER CALLAWAY PUBLIC LIBRARY","Address":"104 NE 3RD ST","City":"CHIEFLAND","Zip":"32626","COUNTY":"LEVY","X":-82.85704389,"Y":29.47982446,"LONGLAT":"-82.85704389,29.47982446","USNG":"17R LN 19949 62584","OWNERSHIP":"MUNICIPAL","PARCELID":"0694200100","FACILITY_TYPE":"LIBRARY"}},{"type":"Feature","id":29,"geometry":{"type":"Point","coordinates":[-82.681428207142503,28.353463576904449]},"properties":{"OBJECTID":29,"Name":"HUDSON AREA BRANCH LIBRARY","Address":"8012 LIBRARY RD","City":"HUDSON","Zip":"34667","COUNTY":"PASCO","X":-82.681428210000007,"Y":28.35346358,"LONGLAT":"-82.68142821,28.35346358","USNG":"17R LM 35207 37506","OWNERSHIP":"COUNTY","PARCELID":"1624350120499000000","FACILITY_TYPE":"LIBRARY"}},{"type":"Feature","id":30,"geometry":{"type":"Point","coordinates":[-82.861812294336062,29.754572390058932]},"properties":{"OBJECTID":30,"Name":"BELL LIBRARY","Address":"1140 S MAIN ST","City":"BELL","Zip":"32619","COUNTY":"GILCHRIST","X":-82.861812290000003,"Y":29.75457239,"LONGLAT":"-82.86181229,29.75457239","USNG":"17R LN 19976 93042","OWNERSHIP":null,"PARCELID":null,"FACILITY_TYPE":"LIBRARY"}},{"type":"Feature","id":31,"geometry":{"type":"Point","coordinates":[-81.443602293288905,27.494692007134095]},"properties":{"OBJECTID":31,"Name":"COUNTY OF HIGHLANDS","Address":"319 W CENTER AVE","City":"SEBRING","Zip":"33870","COUNTY":"HIGHLANDS","X":-81.443602290000001,"Y":27.494692010000001,"LONGLAT":"-81.44360229,27.49469201","USNG":"17R ML 56181 41307","OWNERSHIP":"COUNTY","PARCELID":"S29342907009300011","FACILITY_TYPE":"LIBRARY"}},{"type":"Feature","id":32,"geometry":{"type":"Point","coordinates":[-80.134016309950084,26.133555117429808]},"properties":{"OBJECTID":32,"Name":"STONEWALL LIBRARY & ARCHIVES","Address":"800 NE 8TH ST","City":"FORT LAUDERDALE","Zip":"33304","COUNTY":"BROWARD","X":-80.134016310000007,"Y":26.13355512,"LONGLAT":"-80.13401631,26.13355512","USNG":"17R NJ 86569 90762","OWNERSHIP":"MUNICIPAL","PARCELID":"504202280010","FACILITY_TYPE":"LIBRARY"}},{"type":"Feature","id":33,"geometry":{"type":"Point","coordinates":[-81.628563206599466,28.10339722044327]},"properties":{"OBJECTID":33,"Name":"CITY OF HAINES CITY","Address":"303 LEDWITH AVE","City":"HAINES CITY","Zip":"33844","COUNTY":"POLK","X":-81.628563209999996,"Y":28.103397220000002,"LONGLAT":"-81.62856321,28.10339722","USNG":"17R MM 38256 08815","OWNERSHIP":"MUNICIPAL","PARCELID":"272729783000025000","FACILITY_TYPE":"LIBRARY"}},{"type":"Feature","id":34,"geometry":{"type":"Point","coordinates":[-80.126594937087987,26.248800921778493]},"properties":{"OBJECTID":34,"Name":"COUNTY OF BROWARD","Address":"1580 NW 3RD AVE","City":"POMPANO BEACH","Zip":"33060","COUNTY":"BROWARD","X":-80.126594940000004,"Y":26.248800920000001,"LONGLAT":"-80.12659494,26.24880092","USNG":"17R NK 87225 03531","OWNERSHIP":"MUNICIPAL","PARCELID":"484226340010","FACILITY_TYPE":"LIBRARY"}},{"type":"Feature","id":35,"geometry":{"type":"Point","coordinates":[-82.626114281379444,27.369188389687167]},"properties":{"OBJECTID":35,"Name":"LONGBOAT KEY LIBRARY INC","Address":"555 BAY ISLES RD","City":"LONGBOAT KEY","Zip":"34228","COUNTY":"SARASOTA","X":-82.626114279999996,"Y":27.369188390000001,"LONGLAT":"-82.62611428,27.36918839","USNG":"17R LL 39182 28376","OWNERSHIP":"MUNICIPAL","PARCELID":"0006-13-0002","FACILITY_TYPE":"LIBRARY"}},{"type":"Feature","id":36,"geometry":{"type":"Point","coordinates":[-82.818109262651291,29.621140327266385]},"properties":{"OBJECTID":36,"Name":"GILCHRIST COUNTY PUBLIC LIBRARY","Address":"105 NE 11TH AVE","City":"TRENTON","Zip":"32693","COUNTY":"GILCHRIST","X":-82.81810926,"Y":29.621140329999999,"LONGLAT":"-82.81810926,29.62114033","USNG":"17R LN 23970 78186","OWNERSHIP":"COUNTY","PARCELID":"09-10-15-0000-0009-0000","FACILITY_TYPE":"LIBRARY"}},{"type":"Feature","id":37,"geometry":{"type":"Point","coordinates":[-82.061237813433451,28.736395035614912]},"properties":{"OBJECTID":37,"Name":"Clark Maxwell, Jr. Library","Address":"1425 COUNTY ROAD 526-A","City":"SUMTERVILLE","Zip":"33585","COUNTY":"SUMTER","X":-82.061237809999994,"Y":28.736395040000001,"LONGLAT":"-82.06123781,28.73639504","USNG":"17R LM 96371 79242","OWNERSHIP":"SPECIAL TAXING DISTRICT","PARCELID":"J24=026","FACILITY_TYPE":"LIBRARY"}},{"type":"Feature","id":38,"geometry":{"type":"Point","coordinates":[-80.298464083624467,27.269450647544161]},"properties":{"OBJECTID":38,"Name":"MORNINGSIDE BRANCH LIBRARY","Address":"2410 SE MORNINGSIDE BLVD","City":"PORT SAINT LUCIE","Zip":"34952","COUNTY":"ST. LUCIE","X":-80.298464080000002,"Y":27.26945065,"LONGLAT":"-80.29846408,27.26945065","USNG":"17R NL 69437 16474","OWNERSHIP":null,"PARCELID":null,"FACILITY_TYPE":"LIBRARY"}},{"type":"Feature","id":39,"geometry":{"type":"Point","coordinates":[-81.798983533604641,26.146405632783527]},"properties":{"OBJECTID":39,"Name":"COUNTY OF COLLIER","Address":"650 CENTRAL AVE","City":"NAPLES","Zip":"34102","COUNTY":"COLLIER","X":-81.798983530000001,"Y":26.14640563,"LONGLAT":"-81.79898353,26.14640563","USNG":"17R MJ 20137 92142","OWNERSHIP":"COUNTY","PARCELID":"19010840005","FACILITY_TYPE":"LIBRARY"}},{"type":"Feature","id":40,"geometry":{"type":"Point","coordinates":[-82.841034013814024,27.902396908880956]},"properties":{"OBJECTID":40,"Name":"GARDNERS BRANCH INC","Address":"2007 BAYVIEW PL","City":"INDIAN ROCKS BEACH","Zip":"33785","COUNTY":"PINELLAS","X":-82.841034010000001,"Y":27.90239691,"LONGLAT":"-82.84103401,27.90239691","USNG":"17R LL 18804 87753","OWNERSHIP":null,"PARCELID":"15 30 06 42210 000 0080","FACILITY_TYPE":"LIBRARY"}},{"type":"Feature","id":41,"geometry":{"type":"Point","coordinates":[-87.336727086637467,30.715886870439359]},"properties":{"OBJECTID":41,"Name":"FRIENDS NORTHWEST BRANCH LIBRARY","Address":"6450 HIGHWAY 95A N","City":"MOLINO","Zip":"32577","COUNTY":"ESCAMBIA","X":-87.336727089999997,"Y":30.715886869999999,"LONGLAT":"-87.33672709,30.71588687","USNG":"16R DU 67758 98164","OWNERSHIP":"COUNTY","PARCELID":"032N313000002001","FACILITY_TYPE":"LIBRARY"}},{"type":"Feature","id":42,"geometry":{"type":"Point","coordinates":[-81.23814219932845,29.554148111727322]},"properties":{"OBJECTID":42,"Name":"FLAGLER COUNTY PUBLIC LIBRARY","Address":"2500 PALM COAST PKWY NW","City":"PALM COAST","Zip":"32137","COUNTY":"FLAGLER","X":-81.238142199999999,"Y":29.55414811,"LONGLAT":"-81.23814220,29.55414811","USNG":"17R MN 76929 69406","OWNERSHIP":null,"PARCELID":null,"FACILITY_TYPE":"LIBRARY"}},{"type":"Feature","id":43,"geometry":{"type":"Point","coordinates":[-82.329595092467471,27.87141737900772]},"properties":{"OBJECTID":43,"Name":"RIVERVIEW BRANCH LIBRARY","Address":"10509 RIVERVIEW DR","City":"RIVERVIEW","Zip":"33569","COUNTY":"HILLSBOROUGH","X":-82.329595089999998,"Y":27.87141738,"LONGLAT":"-82.32959509,27.87141738","USNG":"17R LL 69109 83668","OWNERSHIP":"COUNTY","PARCELID":"2030172RI000001000010U","FACILITY_TYPE":"LIBRARY"}},{"type":"Feature","id":44,"geometry":{"type":"Point","coordinates":[-80.095985635389923,26.640812161140197]},"properties":{"OBJECTID":44,"Name":"PALM SPRINGS VILLAGE","Address":"217 CYPRESS LN","City":"LAKE WORTH","Zip":"33461","COUNTY":"PALM BEACH","X":-80.095985639999995,"Y":26.640812159999999,"LONGLAT":"-80.09598564,26.64081216","USNG":"17R NK 89977 46971","OWNERSHIP":null,"PARCELID":null,"FACILITY_TYPE":"LIBRARY"}},{"type":"Feature","id":45,"geometry":{"type":"Point","coordinates":[-86.476546637977236,30.524280572524397]},"properties":{"OBJECTID":45,"Name":"NICEVILLE PUBLIC LIBRARY","Address":"206 N PARTIN DR","City":"NICEVILLE","Zip":"32578","COUNTY":"OKALOOSA","X":-86.476546639999995,"Y":30.524280569999998,"LONGLAT":"-86.47654664,30.52428057","USNG":"16R EU 50218 76998","OWNERSHIP":null,"PARCELID":null,"FACILITY_TYPE":"LIBRARY"}},{"type":"Feature","id":46,"geometry":{"type":"Point","coordinates":[-87.160388543470972,30.951852237727625]},"properties":{"OBJECTID":46,"Name":"JAY LIBRARY","Address":"5259 BOOKER LN","City":"JAY","Zip":"32565","COUNTY":"SANTA ROSA","X":-87.16038854,"Y":30.951852240000001,"LONGLAT":"-87.16038854,30.95185224","USNG":"16R DV 84680 24277","OWNERSHIP":"MUNICIPAL","PARCELID":"19-5N-29-0000-00300-0000","FACILITY_TYPE":"LIBRARY"}},{"type":"Feature","id":47,"geometry":{"type":"Point","coordinates":[-86.182520273224654,30.375768925394436]},"properties":{"OBJECTID":47,"Name":"WALTON COUNTY COASTAL BRANCH","Address":"437 GREENWAY TRL ","City":"SANTA ROSA BEACH","Zip":"32459","COUNTY":"WALTON","X":-86.182520269999998,"Y":30.37576893,"LONGLAT":"-86.18252027,30.37576893","USNG":"16R EU 78546 60708","OWNERSHIP":"COUNTY","PARCELID":"01-3S-20-34120-000-0010","FACILITY_TYPE":"LIBRARY"}},{"type":"Feature","id":48,"geometry":{"type":"Point","coordinates":[-80.162611356649364,25.696234662171584]},"properties":{"OBJECTID":48,"Name":"KEY BISCAYNE BRANCH LIBRARY","Address":"299 CRANDON BLVD","City":"KEY BISCAYNE","Zip":"33149","COUNTY":"MIAMI-DADE","X":-80.16261136,"Y":25.696234659999998,"LONGLAT":"-80.16261136,25.69623466","USNG":"17R NJ 84020 42310","OWNERSHIP":"COUNTY","PARCELID":" ","FACILITY_TYPE":"LIBRARY"}},{"type":"Feature","id":49,"geometry":{"type":"Point","coordinates":[-87.235103861476802,30.420706566102279]},"properties":{"OBJECTID":49,"Name":"WESTSIDE BRANCH LIBRARY","Address":"1580 W CERVANTES ST","City":"PENSACOLA","Zip":"32501","COUNTY":"ESCAMBIA","X":-87.235103859999995,"Y":30.42070657,"LONGLAT":"-87.23510386,30.42070657","USNG":"16R DU 77421 65428","OWNERSHIP":null,"PARCELID":null,"FACILITY_TYPE":"LIBRARY"}},{"type":"Feature","id":50,"geometry":{"type":"Point","coordinates":[-80.308912446728755,25.923427980639602]},"properties":{"OBJECTID":50,"Name":"MIAMI LAKES BRANCH LIBRARY","Address":"6699 WINDMILL GATE RD","City":"HIALEAH","Zip":"33014","COUNTY":"MIAMI-DADE","X":-80.308912449999994,"Y":25.92342798,"LONGLAT":"-80.30891245,25.92342798","USNG":"17R NJ 69208 67386","OWNERSHIP":"COUNTY","PARCELID":"3220130042420","FACILITY_TYPE":"LIBRARY"}},{"type":"Feature","id":51,"geometry":{"type":"Point","coordinates":[-81.800049250457519,24.557585936481278]},"properties":{"OBJECTID":51,"Name":"COUNTY OF MONROE","Address":"700 FLEMING ST","City":"KEY WEST","Zip":"33040","COUNTY":"MONROE","X":-81.800049250000001,"Y":24.557585939999999,"LONGLAT":"-81.80004925,24.55758594","USNG":"17R MH 18978 16196","OWNERSHIP":"COUNTY","PARCELID":"0668 25 00008790000000","FACILITY_TYPE":"LIBRARY"}},{"type":"Feature","id":52,"geometry":{"type":"Point","coordinates":[-80.299422107257897,25.762860687450544]},"properties":{"OBJECTID":52,"Name":"FAIRLAWN BRANCH LIBRARY","Address":"6376 SW 8TH ST","City":"WEST MIAMI","Zip":"33144","COUNTY":"MIAMI-DADE","X":-80.299422109999995,"Y":25.76286069,"LONGLAT":"-80.29942211,25.76286069","USNG":"17R NJ 70253 49609","OWNERSHIP":null,"PARCELID":null,"FACILITY_TYPE":"LIBRARY"}},{"type":"Feature","id":53,"geometry":{"type":"Point","coordinates":[-81.654047676105748,30.309163451409443]},"properties":{"OBJECTID":53,"Name":"SAN MARCO BRANCH LIBRARY","Address":"1513 LASALLE ST","City":"JACKSONVILLE","Zip":"32207","COUNTY":"DUVAL","X":-81.654047680000005,"Y":30.30916345,"LONGLAT":"-81.65404768,30.30916345","USNG":"17R MP 37114 53225","OWNERSHIP":null,"PARCELID":null,"FACILITY_TYPE":"LIBRARY"}},{"type":"Feature","id":54,"geometry":{"type":"Point","coordinates":[-80.204610857674908,26.142322517586852]},"properties":{"OBJECTID":54,"Name":"COUNTY OF BROWARD","Address":"4257 NW 12TH ST","City":"FORT LAUDERDALE","Zip":"33313","COUNTY":"BROWARD","X":-80.204610860000003,"Y":26.14232252,"LONGLAT":"-80.20461086,26.14232252","USNG":"17R NJ 79506 91688","OWNERSHIP":null,"PARCELID":"494136000012","FACILITY_TYPE":"LIBRARY"}},{"type":"Feature","id":55,"geometry":{"type":"Point","coordinates":[-80.505697626057966,27.882318920614289]},"properties":{"OBJECTID":55,"Name":"SOUTH MAINLAND PUBLIC LIBRARY","Address":"7921 RON BEATTY BLVD","City":"SEBASTIAN","Zip":"32976","COUNTY":"BREVARD","X":-80.50569763,"Y":27.882318919999999,"LONGLAT":"-80.50569763,27.88231892","USNG":"17R NL 48654 84264","OWNERSHIP":"COUNTY","PARCELID":"30 381100  538","FACILITY_TYPE":"LIBRARY"}},{"type":"Feature","id":56,"geometry":{"type":"Point","coordinates":[-80.359117975286637,27.534760921611031]},"properties":{"OBJECTID":56,"Name":"HARBOUR BRANCH OCEANOGRAP","Address":"5600 N OLD DIXIE HWY","City":"FORT PIERCE","Zip":"34946","COUNTY":"ST. LUCIE","X":-80.359117979999994,"Y":27.53476092,"LONGLAT":"-80.35911798,27.53476092","USNG":"17R NL 63282 45830","OWNERSHIP":null,"PARCELID":"1408-311-0001-000-7","FACILITY_TYPE":"LIBRARY"}},{"type":"Feature","id":57,"geometry":{"type":"Point","coordinates":[-80.242710042794172,25.941786893127798]},"properties":{"OBJECTID":57,"Name":"NORTH DADE REGIONAL LIBRARY","Address":"2455 NW 183RD ST","City":"OPA LOCKA","Zip":"33056","COUNTY":"MIAMI-DADE","X":-80.242710040000006,"Y":25.941786889999999,"LONGLAT":"-80.24271004,25.94178689","USNG":"17R NJ 75826 69456","OWNERSHIP":"COUNTY","PARCELID":"3421030010719","FACILITY_TYPE":"LIBRARY"}},{"type":"Feature","id":58,"geometry":{"type":"Point","coordinates":[-82.508683243393236,27.930820697450457]},"properties":{"OBJECTID":58,"Name":"CHARLES J. FENDIG PUBLIC LIBRARY","Address":"3909 W NEPTUNE ST","City":"TAMPA","Zip":"33629","COUNTY":"HILLSBOROUGH","X":-82.508683239999996,"Y":27.930820700000002,"LONGLAT":"-82.50868324,27.93082070","USNG":"17R LL 51558 90454","OWNERSHIP":null,"PARCELID":null,"FACILITY_TYPE":"LIBRARY"}},{"type":"Feature","id":59,"geometry":{"type":"Point","coordinates":[-82.483175982959978,27.287957328197258]},"properties":{"OBJECTID":59,"Name":"BURROW LIBRARY SERVICES INC","Address":"4474 GOLDEN LAKE DR","City":"SARASOTA","Zip":"34233","COUNTY":"SARASOTA","X":-82.483175979999999,"Y":27.287957330000001,"LONGLAT":"-82.48317598,27.28795733","USNG":"17R LL 53213 19200","OWNERSHIP":null,"PARCELID":"0071-08-0021","FACILITY_TYPE":"LIBRARY"}},{"type":"Feature","id":60,"geometry":{"type":"Point","coordinates":[-81.585365034436634,28.556254986997313]},"properties":{"OBJECTID":60,"Name":"ORANGE COUNTY LIBRARY SYSTEM","Address":"1 E CYPRESS ST","City":"WINTER GARDEN","Zip":"34787","COUNTY":"ORANGE","X":-81.585365030000006,"Y":28.556254989999999,"LONGLAT":"-81.58536503,28.55625499","USNG":"17R MM 42743 58963","OWNERSHIP":null,"PARCELID":"272223806000010","FACILITY_TYPE":"LIBRARY"}},{"type":"Feature","id":61,"geometry":{"type":"Point","coordinates":[-86.554549630223079,30.790111140866067]},"properties":{"OBJECTID":61,"Name":"ROBERT LF SIKES PUBLIC LIBRARY","Address":"1445 COMMERCE DR","City":"CRESTVIEW","Zip":"32539","COUNTY":"OKALOOSA","X":-86.554549629999997,"Y":30.79011114,"LONGLAT":"-86.55454963,30.79011114","USNG":"16R EV 42618 06426","OWNERSHIP":null,"PARCELID":"05-3N-23-0000-0005-0000","FACILITY_TYPE":"LIBRARY"}},{"type":"Feature","id":62,"geometry":{"type":"Point","coordinates":[-82.498967961018622,27.446723440983781]},"properties":{"OBJECTID":62,"Name":"COUNTY OF MANATEE","Address":"4915 53RD AVE E","City":"BRADENTON","Zip":"34203","COUNTY":"MANATEE","X":-82.498967960000002,"Y":27.44672344,"LONGLAT":"-82.49896796,27.44672344","USNG":"17R LL 51862 36808","OWNERSHIP":null,"PARCELID":null,"FACILITY_TYPE":"LIBRARY"}},{"type":"Feature","id":63,"geometry":{"type":"Point","coordinates":[-82.437782535983331,27.13351157777176]},"properties":{"OBJECTID":63,"Name":"BURROW LIBRARY SERVICES","Address":"700 SHAKETT CREEK DR","City":"NOKOMIS","Zip":"34275","COUNTY":"SARASOTA","X":-82.437782540000001,"Y":27.13351158,"LONGLAT":"-82.43778254,27.13351158","USNG":"17R LL 57510 02038","OWNERSHIP":null,"PARCELID":"0383-09-0042","FACILITY_TYPE":"LIBRARY"}},{"type":"Feature","id":64,"geometry":{"type":"Point","coordinates":[-80.134016309950084,26.133555117429808]},"properties":{"OBJECTID":64,"Name":"STONEWALL LIBRARY & ARCHIVES","Address":"800 NE 8TH ST","City":"FORT LAUDERDALE","Zip":"33304","COUNTY":"BROWARD","X":-80.134016310000007,"Y":26.13355512,"LONGLAT":"-80.13401631,26.13355512","USNG":"17R NJ 86569 90762","OWNERSHIP":"MUNICIPAL","PARCELID":"504202280010","FACILITY_TYPE":"LIBRARY"}},{"type":"Feature","id":65,"geometry":{"type":"Point","coordinates":[-81.385209604568146,30.224568245411202]},"properties":{"OBJECTID":65,"Name":"Ponte Vedra Beach Branch Library","Address":"101 Library Blvd","City":"Ponte Vedra Beach","Zip":"32082","COUNTY":"ST. JOHNS","X":-81.385209599999996,"Y":30.224568250000001,"LONGLAT":"-81.38520960,30.22456825","USNG":"17R MP 62931 43732","OWNERSHIP":null,"PARCELID":null,"FACILITY_TYPE":"LIBRARY"}},{"type":"Feature","id":66,"geometry":{"type":"Point","coordinates":[-80.261683290028017,26.121547397552124]},"properties":{"OBJECTID":66,"Name":"COUNTY OF BROWARD","Address":"8601 W BROWARD BLVD","City":"FORT LAUDERDALE","Zip":"33324","COUNTY":"BROWARD","X":-80.261683289999993,"Y":26.121547400000001,"LONGLAT":"-80.26168329,26.12154740","USNG":"17R NJ 73814 89353","OWNERSHIP":"COUNTY","PARCELID":"504104400010","FACILITY_TYPE":"LIBRARY"}},{"type":"Feature","id":67,"geometry":{"type":"Point","coordinates":[-84.836643537527593,30.707631676086379]},"properties":{"OBJECTID":67,"Name":"FLORIDA STATE HOSPITAL LIBRARY","Address":"1049 N MAIN ST","City":"CHATTAHOOCHEE","Zip":"32324","COUNTY":"GADSDEN","X":-84.836643539999997,"Y":30.707631679999999,"LONGLAT":"-84.83664354,30.70763168","USNG":"16R GU 07178 99198","OWNERSHIP":null,"PARCELID":null,"FACILITY_TYPE":"LIBRARY"}},{"type":"Feature","id":68,"geometry":{"type":"Point","coordinates":[-81.740387047049794,26.099627074949101]},"properties":{"OBJECTID":68,"Name":"COUNTY OF COLLIER","Address":"8787 TAMIAMI TRL E","City":"NAPLES","Zip":"34113","COUNTY":"COLLIER","X":-81.740387049999995,"Y":26.099627080000001,"LONGLAT":"-81.74038705,26.09962708","USNG":"17R MJ 25965 86927","OWNERSHIP":null,"PARCELID":"0","FACILITY_TYPE":"LIBRARY"}},{"type":"Feature","id":69,"geometry":{"type":"Point","coordinates":[-80.171697379275585,26.242025083061332]},"properties":{"OBJECTID":69,"Name":"NORTH REGIONAL/BCC LIBRARY","Address":"1100 COCONUT CREEK BLVD","City":"POMPANO BEACH","Zip":"33066","COUNTY":"BROWARD","X":-80.171697379999998,"Y":26.242025080000001,"LONGLAT":"-80.17169738,26.24202508","USNG":"17R NK 82725 02751","OWNERSHIP":"STATE","PARCELID":"484232000021","FACILITY_TYPE":"LIBRARY"}},{"type":"Feature","id":70,"geometry":{"type":"Point","coordinates":[-84.287103309820736,30.426847205639223]},"properties":{"OBJECTID":70,"Name":"FLORIDA A & M UNIVERSITY","Address":"1744 PINDER DR","City":"TALLAHASSEE","Zip":"32307","COUNTY":"LEON","X":-84.287103310000006,"Y":30.426847209999998,"LONGLAT":"-84.28710331,30.42684721","USNG":"16R GU 60573 69210","OWNERSHIP":null,"PARCELID":null,"FACILITY_TYPE":"LIBRARY"}},{"type":"Feature","id":71,"geometry":{"type":"Point","coordinates":[-82.355167449569748,26.963126582121372]},"properties":{"OBJECTID":71,"Name":"FRIENDS OF ELISE QUIRK LBRY","Address":"100 W DEARBORN ST","City":"ENGLEWOOD","Zip":"34223","COUNTY":"SARASOTA","X":-82.355167449999996,"Y":26.963126580000001,"LONGLAT":"-82.35516745,26.96312658","USNG":"17R LK 65495 83072","OWNERSHIP":"SPECIAL TAXING DISTRICT","PARCELID":"0497-16-0034","FACILITY_TYPE":"LIBRARY"}},{"type":"Feature","id":72,"geometry":{"type":"Point","coordinates":[-80.232633486114594,26.705187841830085]},"properties":{"OBJECTID":72,"Name":"COUNTY OF PALM BEACH","Address":"500 CIVIC CENTER WAY","City":"WEST PALM BEACH","Zip":"33411","COUNTY":"PALM BEACH","X":-80.232633489999998,"Y":26.705187840000001,"LONGLAT":"-80.23263349,26.70518784","USNG":"17R NK 76333 54012","OWNERSHIP":null,"PARCELID":null,"FACILITY_TYPE":"LIBRARY"}},{"type":"Feature","id":73,"geometry":{"type":"Point","coordinates":[-80.452470955639328,27.633751110493801]},"properties":{"OBJECTID":73,"Name":"INDIAN RIVER COUNTY BRACKETT LIBRARY","Address":"6155 COLLEGE LN","City":"VERO BEACH","Zip":"32966","COUNTY":"INDIAN RIVER","X":-80.452470959999999,"Y":27.633751109999999,"LONGLAT":"-80.45247096,27.63375111","USNG":"17R NL 54015 56751","OWNERSHIP":"SPECIAL TAXING DISTRICT","PARCELID":"33390500001015000001.0","FACILITY_TYPE":"LIBRARY"}},{"type":"Feature","id":74,"geometry":{"type":"Point","coordinates":[-81.86285312253635,26.605119655488249]},"properties":{"OBJECTID":74,"Name":"BRANCH INVESTMENTS GOB INC","Address":"3980 FOWLER ST","City":"FORT MYERS","Zip":"33901","COUNTY":"LEE","X":-81.862853119999997,"Y":26.60511966,"LONGLAT":"-81.86285312,26.60511966","USNG":"17R MK 14092 42989","OWNERSHIP":null,"PARCELID":"364424P2000230000","FACILITY_TYPE":"LIBRARY"}},{"type":"Feature","id":75,"geometry":{"type":"Point","coordinates":[-80.128989628549334,25.798013375803443]},"properties":{"OBJECTID":75,"Name":"MIAMI BEACH REGIONAL LIBRARY","Address":"227 22ND ST","City":"MIAMI BEACH","Zip":"33139","COUNTY":"MIAMI-DADE","X":-80.128989630000007,"Y":25.79801338,"LONGLAT":"-80.12898963,25.79801338","USNG":"17R NJ 87319 53604","OWNERSHIP":"COUNTY","PARCELID":null,"FACILITY_TYPE":"LIBRARY"}},{"type":"Feature","id":76,"geometry":{"type":"Point","coordinates":[-84.533341162969009,30.426782867156746]},"properties":{"OBJECTID":76,"Name":"FORT BRADEN BRANCH","Address":"16327 BLOUNTSTOWN HWY","City":"TALLAHASSEE","Zip":"32310","COUNTY":"LEON","X":-84.533341160000006,"Y":30.42678287,"LONGLAT":"-84.53334116,30.42678287","USNG":"16R GU 36914 68661","OWNERSHIP":"COUNTY","PARCELID":"112212  A0051","FACILITY_TYPE":"LIBRARY"}},{"type":"Feature","id":77,"geometry":{"type":"Point","coordinates":[-81.351230521541126,28.330951098948926]},"properties":{"OBJECTID":77,"Name":"OSCEOLA COUNTY PUBLIC LIBRARY (BVL)","Address":"405 BUENAVENTURA BLVD","City":"KISSIMMEE","Zip":"34743","COUNTY":"OSCEOLA","X":-81.351230520000001,"Y":28.3309511,"LONGLAT":"-81.35123052,28.33095110","USNG":"17R MM 65572 33914","OWNERSHIP":"COUNTY","PARCELID":"07-25-30-2703-0113-0070","FACILITY_TYPE":"LIBRARY"}},{"type":"Feature","id":78,"geometry":{"type":"Point","coordinates":[-84.285000492411115,30.438166814872794]},"properties":{"OBJECTID":78,"Name":"STATE LIBRARY OF FLORIDA","Address":"500 S BRONOUGH ST","City":"TALLAHASSEE","Zip":"32301","COUNTY":"LEON","X":-84.285000490000002,"Y":30.438166819999999,"LONGLAT":"-84.28500049,30.43816682","USNG":"16R GU 60745 70470","OWNERSHIP":"STATE","PARCELID":"2136253012115","FACILITY_TYPE":"LIBRARY"}},{"type":"Feature","id":79,"geometry":{"type":"Point","coordinates":[-84.253002558681771,30.331640435048286]},"properties":{"OBJECTID":79,"Name":"WOODVILLE COMMUNITY LIBRARY","Address":"8000 OLD WOODVILLE RD","City":"TALLAHASSEE","Zip":"32305","COUNTY":"LEON","X":-84.253002559999999,"Y":30.331640440000001,"LONGLAT":"-84.25300256,30.33164044","USNG":"16R GU 64106 58733","OWNERSHIP":null,"PARCELID":null,"FACILITY_TYPE":"LIBRARY"}},{"type":"Feature","id":80,"geometry":{"type":"Point","coordinates":[-82.321577918724046,29.65154061168062]},"properties":{"OBJECTID":80,"Name":"ALACHUA COUNTY LIBRARY","Address":"401 E UNIVERSITY AVE","City":"GAINESVILLE","Zip":"32601","COUNTY":"ALACHUA","X":-82.321577919999996,"Y":29.651540610000001,"LONGLAT":"-82.32157792,29.65154061","USNG":"17R LN 72088 80904","OWNERSHIP":null,"PARCELID":null,"FACILITY_TYPE":"LIBRARY"}},{"type":"Feature","id":81,"geometry":{"type":"Point","coordinates":[-80.3988033622621,27.322496696300341]},"properties":{"OBJECTID":81,"Name":"PRUITT CAMPUS LIBRARY","Address":"500 NW CALIFORNIA BLVD","City":"PORT SAINT LUCIE","Zip":"34986","COUNTY":"ST. LUCIE","X":-80.398803360000002,"Y":27.322496699999999,"LONGLAT":"-80.39880336,27.32249670","USNG":"17R NL 59477 22298","OWNERSHIP":null,"PARCELID":null,"FACILITY_TYPE":"LIBRARY"}},{"type":"Feature","id":82,"geometry":{"type":"Point","coordinates":[-80.08949761090679,26.235694989382019]},"properties":{"OBJECTID":82,"Name":"COUNTY OF BROWARD","Address":"221 N POMPANO BEACH BLVD","City":"POMPANO BEACH","Zip":"33062","COUNTY":"BROWARD","X":-80.089497609999995,"Y":26.235694989999999,"LONGLAT":"-80.08949761,26.23569499","USNG":"17R NK 90940 02105","OWNERSHIP":"MUNICIPAL","PARCELID":"484331010210","FACILITY_TYPE":"LIBRARY"}},{"type":"Feature","id":83,"geometry":{"type":"Point","coordinates":[-87.17879629160123,30.468226923638699]},"properties":{"OBJECTID":83,"Name":"WEST FLORIDA PUBLIC LIBRARY FO","Address":"4111 BRITTANY PL","City":"PENSACOLA","Zip":"32504","COUNTY":"ESCAMBIA","X":-87.178796289999994,"Y":30.468226919999999,"LONGLAT":"-87.17879629,30.46822692","USNG":"16R DU 82837 70684","OWNERSHIP":null,"PARCELID":"161S290150000011","FACILITY_TYPE":"LIBRARY"}},{"type":"Feature","id":84,"geometry":{"type":"Point","coordinates":[-81.533676842322024,27.746636493612503]},"properties":{"OBJECTID":84,"Name":"CITY OF FROSTPROOF","Address":"15 N MAGNOLIA AVE","City":"FROSTPROOF","Zip":"33843","COUNTY":"POLK","X":-81.533676839999998,"Y":27.74663649,"LONGLAT":"-81.53367684,27.74663649","USNG":"17R ML 47404 69250","OWNERSHIP":"MUNICIPAL","PARCELID":"283132971000002201","FACILITY_TYPE":"LIBRARY"}},{"type":"Feature","id":85,"geometry":{"type":"Point","coordinates":[-80.219131050794786,26.219324490381172]},"properties":{"OBJECTID":85,"Name":"NORTH LAUDERDALE BRANCH","Address":"6901 KIMBERLY BLVD","City":"POMPANO BEACH","Zip":"33068","COUNTY":"BROWARD","X":-80.219131050000001,"Y":26.219324490000002,"LONGLAT":"-80.21913105,26.21932449","USNG":"17R NK 78003 00207","OWNERSHIP":"COUNTY","PARCELID":"494101122930","FACILITY_TYPE":"LIBRARY"}},{"type":"Feature","id":86,"geometry":{"type":"Point","coordinates":[-80.065320101253917,26.784135729832776]},"properties":{"OBJECTID":86,"Name":"CITY OF RIVIERA BEACH","Address":"600 W BLUE HERON BLVD","City":"WEST PALM BEACH","Zip":"33404","COUNTY":"PALM BEACH","X":-80.065320099999994,"Y":26.784135729999999,"LONGLAT":"-80.06532010,26.78413573","USNG":"17R NK 92913 62868","OWNERSHIP":null,"PARCELID":null,"FACILITY_TYPE":"LIBRARY"}},{"type":"Feature","id":87,"geometry":{"type":"Point","coordinates":[-80.068767148613091,26.46067712328373]},"properties":{"OBJECTID":87,"Name":"DELRAY BEACH PUBLIC LIB ASSN","Address":"29 SE 4TH AVE","City":"DELRAY BEACH","Zip":"33483","COUNTY":"PALM BEACH","X":-80.068767149999999,"Y":26.46067712,"LONGLAT":"-80.06876715,26.46067712","USNG":"17R NK 92831 27038","OWNERSHIP":null,"PARCELID":null,"FACILITY_TYPE":"LIBRARY"}},{"type":"Feature","id":88,"geometry":{"type":"Point","coordinates":[-82.327714486683931,28.141025081946992]},"properties":{"OBJECTID":88,"Name":"NEW TAMPA REGIONAL LIBRARY","Address":"10001 CROSS CREEK BLVD","City":"TAMPA","Zip":"33647","COUNTY":"HILLSBOROUGH","X":-82.327714490000005,"Y":28.141025079999999,"LONGLAT":"-82.32771449,28.14102508","USNG":"17R LM 69619 13537","OWNERSHIP":"COUNTY","PARCELID":"20271722V000000000001A","FACILITY_TYPE":"LIBRARY"}},{"type":"Feature","id":89,"geometry":{"type":"Point","coordinates":[-80.4669753825941,27.021372849401864]},"properties":{"OBJECTID":89,"Name":"ELISABETH LAHTI LIBRARY","Address":"15200 SW ADAMS AVE","City":"INDIANTOWN","Zip":"34956","COUNTY":"MARTIN","X":-80.466975379999994,"Y":27.021372849999999,"LONGLAT":"-80.46697538,27.02137285","USNG":"17R NK 52874 88914","OWNERSHIP":null,"PARCELID":"ROW","FACILITY_TYPE":"LIBRARY"}},{"type":"Feature","id":90,"geometry":{"type":"Point","coordinates":[-81.298410613209569,28.947924075606952]},"properties":{"OBJECTID":90,"Name":"ORANGE CITY PUBLIC LIBRARY","Address":"148 ALBERTUS WAY","City":"ORANGE CITY","Zip":"32763","COUNTY":"VOLUSIA","X":-81.298410610000005,"Y":28.94792408,"LONGLAT":"-81.29841061,28.94792408","USNG":"17R MN 70920 02252","OWNERSHIP":"MUNICIPAL","PARCELID":"30181108010060","FACILITY_TYPE":"LIBRARY"}},{"type":"Feature","id":91,"geometry":{"type":"Point","coordinates":[-80.831873898575211,27.228932195391028]},"properties":{"OBJECTID":91,"Name":"OKEECHOBEE PUBLIC LIBRARY","Address":"206 SW 16TH ST","City":"OKEECHOBEE","Zip":"34974","COUNTY":"OKEECHOBEE","X":-80.831873900000005,"Y":27.228932199999999,"LONGLAT":"-80.83187390,27.22893220","USNG":"17R NL 16646 11803","OWNERSHIP":"COUNTY","PARCELID":"3-28-37-35-0050-00270-0030","FACILITY_TYPE":"LIBRARY"}},{"type":"Feature","id":92,"geometry":{"type":"Point","coordinates":[-81.881259829191961,30.062508190481299]},"properties":{"OBJECTID":92,"Name":"MIDDLEBURG CLAY-HILL LIBRARY","Address":"2245 ASTER AVE","City":"MIDDLEBURG","Zip":"32068","COUNTY":"CLAY","X":-81.881259830000005,"Y":30.062508189999999,"LONGLAT":"-81.88125983,30.06250819","USNG":"17R MP 15056 26039","OWNERSHIP":"COUNTY","PARCELID":"09-05-24-005953-840-00","FACILITY_TYPE":"LIBRARY"}},{"type":"Feature","id":93,"geometry":{"type":"Point","coordinates":[-87.219201340393383,30.415191532470864]},"properties":{"OBJECTID":93,"Name":"WEST FLORIDA REGIONAL LIBRARY SYSTEM","Address":"200 W GREGORY ST","City":"PENSACOLA","Zip":"32502","COUNTY":"ESCAMBIA","X":-87.219201339999998,"Y":30.415191530000001,"LONGLAT":"-87.21920134,30.41519153","USNG":"16R DU 78947 64813","OWNERSHIP":"MUNICIPAL","PARCELID":"000S009010001001","FACILITY_TYPE":"LIBRARY"}},{"type":"Feature","id":94,"geometry":{"type":"Point","coordinates":[-80.089119577449154,26.962209777492593]},"properties":{"OBJECTID":94,"Name":"COUNTY OF PALM BEACH - TEQUESTA BRANCH LIBRARY","Address":"461 OLD DIXIE HWY","City":"JUPITER","Zip":"33469","COUNTY":"PALM BEACH","X":-80.089119580000002,"Y":26.962209779999998,"LONGLAT":"-80.08911958,26.96220978","USNG":"17R NK 90405 82575","OWNERSHIP":null,"PARCELID":null,"FACILITY_TYPE":"LIBRARY"}},{"type":"Feature","id":95,"geometry":{"type":"Point","coordinates":[-87.219201340393383,30.415191532470864]},"properties":{"OBJECTID":95,"Name":"DIAL A STORY","Address":"200 W GREGORY ST","City":"PENSACOLA","Zip":"32502","COUNTY":"ESCAMBIA","X":-87.219201339999998,"Y":30.415191530000001,"LONGLAT":"-87.21920134,30.41519153","USNG":"16R DU 78947 64813","OWNERSHIP":"MUNICIPAL","PARCELID":"000S009010001001","FACILITY_TYPE":"LIBRARY"}},{"type":"Feature","id":96,"geometry":{"type":"Point","coordinates":[-82.564433784476947,28.522251367080234]},"properties":{"OBJECTID":96,"Name":"WEST HERNANDO BRANCH LIBRARY","Address":"6335 BLACKBIRD AVE","City":"BROOKSVILLE","Zip":"34613","COUNTY":"HERNANDO","X":-82.564433780000002,"Y":28.522251369999999,"LONGLAT":"-82.56443378,28.52225137","USNG":"17R LM 46918 56055","OWNERSHIP":"COUNTY","PARCELID":"R01 423 17 0000 0010 0020","FACILITY_TYPE":"LIBRARY"}},{"type":"Feature","id":97,"geometry":{"type":"Point","coordinates":[-81.621026444089978,30.205207883939281]},"properties":{"OBJECTID":97,"Name":"MANDARIN BRANCH LIBRARY","Address":"3330 KORI RD","City":"JACKSONVILLE","Zip":"32257","COUNTY":"DUVAL","X":-81.621026439999994,"Y":30.20520788,"LONGLAT":"-81.62102644,30.20520788","USNG":"17R MP 40226 41687","OWNERSHIP":null,"PARCELID":null,"FACILITY_TYPE":"LIBRARY"}},{"type":"Feature","id":98,"geometry":{"type":"Point","coordinates":[-80.224693043080933,26.652177992016956]},"properties":{"OBJECTID":98,"Name":"COUNTY OF PALM BEACH","Address":"1951 ROYAL FERN DR","City":"WEST PALM BEACH","Zip":"33414","COUNTY":"PALM BEACH","X":-80.224693040000005,"Y":26.652177989999998,"LONGLAT":"-80.22469304,26.65217799","USNG":"17R NK 77158 48145","OWNERSHIP":null,"PARCELID":"73414411160030010","FACILITY_TYPE":"LIBRARY"}},{"type":"Feature","id":99,"geometry":{"type":"Point","coordinates":[-86.602002181191764,30.414684571811584]},"properties":{"OBJECTID":99,"Name":"BICKERS FAMILY HISTORY LIBRARY","Address":"216 HOSPITAL DR NE","City":"FORT WALTON BEACH","Zip":"32548","COUNTY":"OKALOOSA","X":-86.602002179999999,"Y":30.414684569999999,"LONGLAT":"-86.60200218,30.41468457","USNG":"16R EU 38225 64804","OWNERSHIP":"COUNTY","PARCELID":"13-2S-24-195B-000F-0010","FACILITY_TYPE":"LIBRARY"}},{"type":"Feature","id":100,"geometry":{"type":"Point","coordinates":[-82.743033950836278,28.078955012860177]},"properties":{"OBJECTID":100,"Name":"COUNTY OF PINELLAS","Address":"2330 NEBRASKA AVE","City":"PALM HARBOR","Zip":"34683","COUNTY":"PINELLAS","X":-82.743033949999997,"Y":28.078955010000001,"LONGLAT":"-82.74303395,28.07895501","USNG":"17R LM 28730 07175","OWNERSHIP":null,"PARCELID":null,"FACILITY_TYPE":"LIBRARY"}},{"type":"Feature","id":101,"geometry":{"type":"Point","coordinates":[-87.160388543470972,30.951852237727625]},"properties":{"OBJECTID":101,"Name":"JAY LIBRARY","Address":"5259 BOOKER LN","City":"JAY","Zip":"32565","COUNTY":"SANTA ROSA","X":-87.16038854,"Y":30.951852240000001,"LONGLAT":"-87.16038854,30.95185224","USNG":"16R DV 84680 24277","OWNERSHIP":"MUNICIPAL","PARCELID":"19-5N-29-0000-00300-0000","FACILITY_TYPE":"LIBRARY"}},{"type":"Feature","id":102,"geometry":{"type":"Point","coordinates":[-81.904928192819156,26.548876257474944]},"properties":{"OBJECTID":102,"Name":"FRIENDS OF S FORT MYERS LIB","Address":"6490 S POINTE BLVD","City":"FORT MYERS","Zip":"33919","COUNTY":"LEE","X":-81.904928190000007,"Y":26.54887626,"LONGLAT":"-81.90492819,26.54887626","USNG":"17R MK 09859 36788","OWNERSHIP":null,"PARCELID":"2145240000013008B","FACILITY_TYPE":"LIBRARY"}},{"type":"Feature","id":103,"geometry":{"type":"Point","coordinates":[-80.266709580904447,26.194389306819499]},"properties":{"OBJECTID":103,"Name":"TAMARAC BRANCH","Address":"8701 W COMMERCIAL BLVD","City":"FORT LAUDERDALE","Zip":"33351","COUNTY":"BROWARD","X":-80.266709579999997,"Y":26.194389309999998,"LONGLAT":"-80.26670958,26.19438931","USNG":"17R NJ 73266 97418","OWNERSHIP":"COUNTY","PARCELID":"494109040201","FACILITY_TYPE":"LIBRARY"}},{"type":"Feature","id":104,"geometry":{"type":"Point","coordinates":[-81.934788454152979,30.392136116155235]},"properties":{"OBJECTID":104,"Name":"BRYCEVILLE BRANCH LIBRARY","Address":"7280 MOTES RD","City":"BRYCEVILLE","Zip":"32009","COUNTY":"NASSAU","X":-81.934788449999999,"Y":30.39213612,"LONGLAT":"-81.93478845,30.39213612","USNG":"17R MP 10196 62609","OWNERSHIP":null,"PARCELID":null,"FACILITY_TYPE":"LIBRARY"}},{"type":"Feature","id":105,"geometry":{"type":"Point","coordinates":[-80.376151394337029,25.733544041492266]},"properties":{"OBJECTID":105,"Name":"CONCORD BRANCH LIBRARY","Address":"3882 SW 112TH AVE","City":"MIAMI","Zip":"33165","COUNTY":"MIAMI-DADE","X":-80.376151390000004,"Y":25.733544040000002,"LONGLAT":"-80.37615139,25.73354404","USNG":"17R NJ 62574 46323","OWNERSHIP":null,"PARCELID":null,"FACILITY_TYPE":"LIBRARY"}},{"type":"Feature","id":106,"geometry":{"type":"Point","coordinates":[-80.094646927509942,26.964023353195323]},"properties":{"OBJECTID":106,"Name":"HARBOUR BRANCH OCEANOGRAPHICS","Address":"6 OAK RIDGE LN","City":"JUPITER","Zip":"33469","COUNTY":"PALM BEACH","X":-80.094646929999996,"Y":26.964023350000001,"LONGLAT":"-80.09464693,26.96402335","USNG":"17R NK 89855 82772","OWNERSHIP":null,"PARCELID":null,"FACILITY_TYPE":"LIBRARY"}},{"type":"Feature","id":107,"geometry":{"type":"Point","coordinates":[-81.278340159375205,29.845890908781996]},"properties":{"OBJECTID":107,"Name":"Anastasia Island Branch Library","Address":"124 Sea Grove Main St","City":"Saint Augustine Beach","Zip":"32080","COUNTY":"ST. JOHNS","X":-81.278340159999999,"Y":29.845890910000001,"LONGLAT":"-81.27834016,29.84589091","USNG":"17R MP 73113 01741","OWNERSHIP":null,"PARCELID":null,"FACILITY_TYPE":"LIBRARY"}},{"type":"Feature","id":108,"geometry":{"type":"Point","coordinates":[-81.697877349900423,30.307610183395223]},"properties":{"OBJECTID":108,"Name":"WILLOW BRANCH LIBRARY","Address":"2875 PARK ST","City":"JACKSONVILLE","Zip":"32205","COUNTY":"DUVAL","X":-81.697877349999999,"Y":30.307610180000001,"LONGLAT":"-81.69787735,30.30761018","USNG":"17R MP 32899 53078","OWNERSHIP":null,"PARCELID":null,"FACILITY_TYPE":"LIBRARY"}},{"type":"Feature","id":109,"geometry":{"type":"Point","coordinates":[-81.302142648776012,29.025878830817788]},"properties":{"OBJECTID":109,"Name":"DELAND REGIONAL LIBRARY","Address":"130 E HOWRY AVE","City":"DELAND","Zip":"32724","COUNTY":"VOLUSIA","X":-81.302142649999993,"Y":29.02587883,"LONGLAT":"-81.30214265,29.02587883","USNG":"17R MN 70578 10890","OWNERSHIP":null,"PARCELID":null,"FACILITY_TYPE":"LIBRARY"}},{"type":"Feature","id":110,"geometry":{"type":"Point","coordinates":[-81.658351878244829,30.328974970214119]},"properties":{"OBJECTID":110,"Name":"JACKSONVILLE MAIN PUBLIC LIBRARY","Address":"303 N LAURA ST","City":"JACKSONVILLE","Zip":"32202","COUNTY":"DUVAL","X":-81.658351879999998,"Y":30.328974970000001,"LONGLAT":"-81.65835188,30.32897497","USNG":"17R MP 36713 55422","OWNERSHIP":null,"PARCELID":null,"FACILITY_TYPE":"LIBRARY"}},{"type":"Feature","id":111,"geometry":{"type":"Point","coordinates":[-82.433159752386658,28.198018988109489]},"properties":{"OBJECTID":111,"Name":"HUDSON AREA BRANCH LIBRARY","Address":"2818 COLLIER PKWY","City":"LAND O LAKES","Zip":"34639","COUNTY":"PASCO","X":-82.433159750000002,"Y":28.198018990000001,"LONGLAT":"-82.43315975,28.19801899","USNG":"17R LM 59338 19969","OWNERSHIP":"COUNTY","PARCELID":"19262900004990000X0","FACILITY_TYPE":"LIBRARY"}},{"type":"Feature","id":112,"geometry":{"type":"Point","coordinates":[-80.120768454225484,25.86090495133335]},"properties":{"OBJECTID":112,"Name":"NORTH SHORE BRANCH LIBRARY","Address":"7501 COLLINS AVE","City":"MIAMI BEACH","Zip":"33141","COUNTY":"MIAMI-DADE","X":-80.12076845,"Y":25.860904949999998,"LONGLAT":"-80.12076845,25.86090495","USNG":"17R NJ 88096 60574","OWNERSHIP":"MUNICIPAL","PARCELID":"0232020040400","FACILITY_TYPE":"LIBRARY"}},{"type":"Feature","id":113,"geometry":{"type":"Point","coordinates":[-85.648329782481397,30.245052679911172]},"properties":{"OBJECTID":113,"Name":"CITY OF LYNN HAVEN","Address":"901 OHIO AVE","City":"LYNN HAVEN","Zip":"32444","COUNTY":"BAY","X":-85.648329779999997,"Y":30.245052680000001,"LONGLAT":"-85.64832978,30.24505268","USNG":"16R FU 30049 46712","OWNERSHIP":null,"PARCELID":null,"FACILITY_TYPE":"LIBRARY"}},{"type":"Feature","id":114,"geometry":{"type":"Point","coordinates":[-82.665040787165339,27.71103457260789]},"properties":{"OBJECTID":114,"Name":"CITY OF ST PETERSBURG","Address":"2300 ROY HANNA DR S","City":"SAINT PETERSBURG","Zip":"33712","COUNTY":"PINELLAS","X":-82.665040790000006,"Y":27.711034569999999,"LONGLAT":"-82.66504079,27.71103457","USNG":"17R LL 35841 66302","OWNERSHIP":null,"PARCELID":null,"FACILITY_TYPE":"LIBRARY"}},{"type":"Feature","id":115,"geometry":{"type":"Point","coordinates":[-81.633704230680095,29.771073831662964]},"properties":{"OBJECTID":115,"Name":"BOSTWICK PUBLIC LIBRARY","Address":"125 TILLMAN ST","City":"PALATKA","Zip":"32177","COUNTY":"PUTNAM","X":-81.633704230000006,"Y":29.771073829999999,"LONGLAT":"-81.63370423,29.77107383","USNG":"17R MN 38740 93587","OWNERSHIP":"COUNTY","PARCELID":"30-08-27-0750-0340-0010","FACILITY_TYPE":"LIBRARY"}},{"type":"Feature","id":116,"geometry":{"type":"Point","coordinates":[-83.12925955388765,29.636041032318527]},"properties":{"OBJECTID":116,"Name":"DIXIE COUNTY PUBLIC LIBRARY","Address":"16328 SE 19 HWY","City":"CROSS CITY","Zip":"32628","COUNTY":"DIXIE","X":-83.12925955,"Y":29.636041030000001,"LONGLAT":"-83.12925955,29.63604103","USNG":"17R KN 93868 80351","OWNERSHIP":null,"PARCELID":"041012000018030000","FACILITY_TYPE":"LIBRARY"}},{"type":"Feature","id":117,"geometry":{"type":"Point","coordinates":[-80.092522531810786,26.318689033788239]},"properties":{"OBJECTID":117,"Name":"COUNTY OF BROWARD","Address":"837 E HILLSBORO BLVD","City":"DEERFIELD BEACH","Zip":"33441","COUNTY":"BROWARD","X":-80.092522529999997,"Y":26.318689030000002,"LONGLAT":"-80.09252253,26.31868903","USNG":"17R NK 90574 11295","OWNERSHIP":"MUNICIPAL","PARCELID":"484306250080","FACILITY_TYPE":"LIBRARY"}},{"type":"Feature","id":118,"geometry":{"type":"Point","coordinates":[-81.278648253247312,28.246780634038512]},"properties":{"OBJECTID":118,"Name":"OSCEOLA COUNTY PUBLIC LIBRARY VETERANS MEMORIAL","Address":"810 13TH ST","City":"SAINT CLOUD","Zip":"34769","COUNTY":"OSCEOLA","X":-81.278648250000003,"Y":28.24678063,"LONGLAT":"-81.27864825,28.24678063","USNG":"17R MM 72665 24571","OWNERSHIP":"COUNTY","PARCELID":"01-26-30-0001-0224-0010","FACILITY_TYPE":"LIBRARY"}},{"type":"Feature","id":119,"geometry":{"type":"Point","coordinates":[-81.535382008090025,28.496979005133145]},"properties":{"OBJECTID":119,"Name":"DENSON BRANCH INVESTMENT PROPE","Address":"103 E 4TH AVE","City":"WINDERMERE","Zip":"34786","COUNTY":"ORANGE","X":-81.535382010000006,"Y":28.49697901,"LONGLAT":"-81.53538201,28.49697901","USNG":"17R MM 47602 52374","OWNERSHIP":null,"PARCELID":"282317933603401","FACILITY_TYPE":"LIBRARY"}},{"type":"Feature","id":120,"geometry":{"type":"Point","coordinates":[-82.801420421167833,27.96745384169612]},"properties":{"OBJECTID":120,"Name":"CITY OF CLEARWATER PUBLIC LIBRARY","Address":"100 N OSCEOLA AVE","City":"CLEARWATER","Zip":"33755","COUNTY":"PINELLAS","X":-82.801420419999999,"Y":27.967453840000001,"LONGLAT":"-82.80142042,27.96745384","USNG":"17R LL 22810 94903","OWNERSHIP":null,"PARCELID":null,"FACILITY_TYPE":"LIBRARY"}},{"type":"Feature","id":121,"geometry":{"type":"Point","coordinates":[-80.234936654139034,26.007695433343915]},"properties":{"OBJECTID":121,"Name":"COUNTY OF BROWARD","Address":"7300 PINES BLVD","City":"HOLLYWOOD","Zip":"33023","COUNTY":"BROWARD","X":-80.234936649999995,"Y":26.007695429999998,"LONGLAT":"-80.23493665,26.00769543","USNG":"17R NJ 76562 76760","OWNERSHIP":null,"PARCELID":"514115000051","FACILITY_TYPE":"LIBRARY"}},{"type":"Feature","id":122,"geometry":{"type":"Point","coordinates":[-81.94962779045899,28.037503741248646]},"properties":{"OBJECTID":122,"Name":"COL LIBRARY MAIN","Address":"100 LAKE MORTON DR","City":"LAKELAND","Zip":"33801","COUNTY":"POLK","X":-81.949627789999994,"Y":28.037503739999998,"LONGLAT":"-81.94962779,28.03750374","USNG":"17R MM 06660 01720","OWNERSHIP":"MUNICIPAL","PARCELID":"242819000000031110","FACILITY_TYPE":"LIBRARY"}},{"type":"Feature","id":123,"geometry":{"type":"Point","coordinates":[-80.074059253913987,26.481192152081007]},"properties":{"OBJECTID":123,"Name":"PRETEND PARTY PRODUCTIONS","Address":"4 NW 16TH ST","City":"DELRAY BEACH","Zip":"33444","COUNTY":"PALM BEACH","X":-80.074059250000005,"Y":26.481192149999998,"LONGLAT":"-80.07405925,26.48119215","USNG":"17R NK 92287 29307","OWNERSHIP":null,"PARCELID":null,"FACILITY_TYPE":"LIBRARY"}},{"type":"Feature","id":124,"geometry":{"type":"Point","coordinates":[-82.576564575008049,28.134771784875518]},"properties":{"OBJECTID":124,"Name":"COUNTY OF HILLSBOROUGH","Address":"17808 WAYNE RD","City":"ODESSA","Zip":"33556","COUNTY":"HILLSBOROUGH","X":-82.576564579999996,"Y":28.134771789999999,"LONGLAT":"-82.57656458,28.13477179","USNG":"17R LM 45170 13136","OWNERSHIP":null,"PARCELID":null,"FACILITY_TYPE":"LIBRARY"}},{"type":"Feature","id":125,"geometry":{"type":"Point","coordinates":[-82.292464013903611,26.935231404639403]},"properties":{"OBJECTID":125,"Name":"ENGLEWOOD CHARLOTTE LIBRARY","Address":"2450 N ACCESS RD","City":"ENGLEWOOD","Zip":"34224","COUNTY":"CHARLOTTE","X":-82.292464010000003,"Y":26.93523141,"LONGLAT":"-82.29246401,26.93523141","USNG":"17R LK 71688 79917","OWNERSHIP":"COUNTY","PARCELID":"412003433001","FACILITY_TYPE":"LIBRARY"}},{"type":"Feature","id":126,"geometry":{"type":"Point","coordinates":[-82.574690264254315,27.498619859408105]},"properties":{"OBJECTID":126,"Name":"COUNTY OF MANATEE - TALKING BOOK LIBRARY","Address":"1301 BARCARROTA BLVD","City":"BRADENTON","Zip":"34205","COUNTY":"MANATEE","X":-82.574690259999997,"Y":27.498619860000002,"LONGLAT":"-82.57469026,27.49861986","USNG":"17R LL 44450 42651","OWNERSHIP":"COUNTY","PARCELID":"3329300002","FACILITY_TYPE":"LIBRARY"}},{"type":"Feature","id":127,"geometry":{"type":"Point","coordinates":[-82.481351911576837,27.174300321495004]},"properties":{"OBJECTID":127,"Name":"BRANCH ASSOC INC","Address":"1483 SEAFARER DR","City":"OSPREY","Zip":"34229","COUNTY":"SARASOTA","X":-82.481351910000001,"Y":27.17430032,"LONGLAT":"-82.48135191,27.17430032","USNG":"17R LL 53245 06607","OWNERSHIP":null,"PARCELID":"0156-04-0015","FACILITY_TYPE":"LIBRARY"}},{"type":"Feature","id":128,"geometry":{"type":"Point","coordinates":[-81.346256733100816,28.595667552135051]},"properties":{"OBJECTID":128,"Name":"WINTER PARK PUBLIC LIBRARY","Address":"460 E NEW ENGLAND AVE","City":"WINTER PARK","Zip":"32789","COUNTY":"ORANGE","X":-81.346256729999993,"Y":28.595667550000002,"LONGLAT":"-81.34625673,28.59566755","USNG":"17R MM 66144 63239","OWNERSHIP":null,"PARCELID":null,"FACILITY_TYPE":"LIBRARY"}},{"type":"Feature","id":129,"geometry":{"type":"Point","coordinates":[-83.305290517722085,30.423170935244933]},"properties":{"OBJECTID":129,"Name":"SUWANNEE RIVER REGIONAL LIBRARY","Address":"7731 E US HWY 90","City":"LEE","Zip":"32059","COUNTY":"MADISON","X":-83.30529052,"Y":30.423170939999999,"LONGLAT":"-83.30529052,30.42317094","USNG":"17R KP 78580 67934","OWNERSHIP":null,"PARCELID":null,"FACILITY_TYPE":"LIBRARY"}},{"type":"Feature","id":130,"geometry":{"type":"Point","coordinates":[-80.670421298609526,27.996246709938511]},"properties":{"OBJECTID":130,"Name":"FRANKLIN T. DEGROODT MEMORIAL LIBRARY","Address":"6475 MINTON RD SW","City":"PALM BAY","Zip":"32909","COUNTY":"BREVARD","X":-80.670421300000001,"Y":27.996246710000001,"LONGLAT":"-80.67042130,27.99624671","USNG":"17R NL 32406 96830","OWNERSHIP":null,"PARCELID":null,"FACILITY_TYPE":"LIBRARY"}},{"type":"Feature","id":131,"geometry":{"type":"Point","coordinates":[-81.601082063784048,28.567659045352872]},"properties":{"OBJECTID":131,"Name":"FRIENDS OF THE WEST ORANGE LIB","Address":"150 TEMPLE GROVE DR","City":"WINTER GARDEN","Zip":"34787","COUNTY":"ORANGE","X":-81.601082059999996,"Y":28.56765905,"LONGLAT":"-81.60108206,28.56765905","USNG":"17R MM 41212 60234","OWNERSHIP":null,"PARCELID":"272215249002040","FACILITY_TYPE":"LIBRARY"}},{"type":"Feature","id":132,"geometry":{"type":"Point","coordinates":[-80.228569283464751,25.754762232185239]},"properties":{"OBJECTID":132,"Name":"SHENANDOAH BRANCH LIBRARY","Address":"2111 SW 19TH ST","City":"MIAMI","Zip":"33145","COUNTY":"MIAMI-DADE","X":-80.228569280000002,"Y":25.754762230000001,"LONGLAT":"-80.22856928,25.75476223","USNG":"17R NJ 77364 48752","OWNERSHIP":"COUNTY","PARCELID":"0141100340030","FACILITY_TYPE":"LIBRARY"}},{"type":"Feature","id":133,"geometry":{"type":"Point","coordinates":[-80.365590422433158,25.570787822880327]},"properties":{"OBJECTID":133,"Name":"SOUTH DADE REGIONAL LIBRARY","Address":"10750 SW 211TH ST","City":"MIAMI","Zip":"33189","COUNTY":"MIAMI-DADE","X":-80.365590420000004,"Y":25.57078782,"LONGLAT":"-80.36559042,25.57078782","USNG":"17R NJ 63719 28304","OWNERSHIP":"COUNTY","PARCELID":"3660070000537","FACILITY_TYPE":"LIBRARY"}},{"type":"Feature","id":134,"geometry":{"type":"Point","coordinates":[-80.11020694791651,26.39860289201799]},"properties":{"OBJECTID":134,"Name":"OCE DIGITAL DOCUMENT SYSTEMS","Address":"5600 BROKEN SOUND BLVD","City":"BOCA RATON","Zip":"33487","COUNTY":"PALM BEACH","X":-80.110206950000006,"Y":26.398602889999999,"LONGLAT":"-80.11020695,26.39860289","USNG":"17R NK 88747 20134","OWNERSHIP":null,"PARCELID":"06424701030000010","FACILITY_TYPE":"LIBRARY"}},{"type":"Feature","id":135,"geometry":{"type":"Point","coordinates":[-84.294479017176016,30.436191276746033]},"properties":{"OBJECTID":135,"Name":"FSU LIBRARY TECH SERVICES","Address":"711 W MADISON ST","City":"TALLAHASSEE","Zip":"32304","COUNTY":"LEON","X":-84.294479019999997,"Y":30.436191279999999,"LONGLAT":"-84.29447902,30.43619128","USNG":"16R GU 59839 70229","OWNERSHIP":null,"PARCELID":null,"FACILITY_TYPE":"LIBRARY"}},{"type":"Feature","id":136,"geometry":{"type":"Point","coordinates":[-80.220877970512902,26.024200255040043]},"properties":{"OBJECTID":136,"Name":"MIGUN MIAMI BRANCH","Address":"6600 TAFT ST","City":"HOLLYWOOD","Zip":"33024","COUNTY":"BROWARD","X":-80.220877970000004,"Y":26.024200260000001,"LONGLAT":"-80.22087797,26.02420026","USNG":"17R NJ 77958 78596","OWNERSHIP":null,"PARCELID":"514111190190","FACILITY_TYPE":"LIBRARY"}},{"type":"Feature","id":137,"geometry":{"type":"Point","coordinates":[-80.28769569023116,25.821498361664858]},"properties":{"OBJECTID":137,"Name":"MIAMI SPRINGS BRANCH LIBRARY","Address":"401 WESTWARD DR","City":"MIAMI","Zip":"33166","COUNTY":"MIAMI-DADE","X":-80.287695690000007,"Y":25.82149836,"LONGLAT":"-80.28769569,25.82149836","USNG":"17R NJ 71394 56109","OWNERSHIP":null,"PARCELID":null,"FACILITY_TYPE":"LIBRARY"}},{"type":"Feature","id":138,"geometry":{"type":"Point","coordinates":[-81.912453857583159,26.522204006427334]},"properties":{"OBJECTID":138,"Name":"RUTENBERG BRANCH LIBRARY","Address":"15290 BASS RD","City":"FORT MYERS","Zip":"33919","COUNTY":"LEE","X":-81.912453859999999,"Y":26.522204009999999,"LONGLAT":"-81.91245386,26.52220401","USNG":"17R MK 09088 33839","OWNERSHIP":null,"PARCELID":null,"FACILITY_TYPE":"LIBRARY"}},{"type":"Feature","id":139,"geometry":{"type":"Point","coordinates":[-82.528974054815961,27.30784221186234]},"properties":{"OBJECTID":139,"Name":"JACKS BRANCH GROVE LLP","Address":"2000 WEBBER ST","City":"SARASOTA","Zip":"34239","COUNTY":"SARASOTA","X":-82.528974050000002,"Y":27.30784221,"LONGLAT":"-82.52897405,27.30784221","USNG":"17R LL 48707 21458","OWNERSHIP":null,"PARCELID":"0057-04-0099","FACILITY_TYPE":"LIBRARY"}},{"type":"Feature","id":140,"geometry":{"type":"Point","coordinates":[-81.939096170974665,26.447799430520526]},"properties":{"OBJECTID":140,"Name":"FORT MYERS BEACH PUB LIB DIST","Address":"2755 ESTERO BLVD","City":"FORT MYERS BEACH","Zip":"33931","COUNTY":"LEE","X":-81.939096169999999,"Y":26.44779943,"LONGLAT":"-81.93909617,26.44779943","USNG":"17R MK 06374 25618","OWNERSHIP":"MUNICIPAL","PARCELID":"194624W3002K00130","FACILITY_TYPE":"LIBRARY"}},{"type":"Feature","id":141,"geometry":{"type":"Point","coordinates":[-82.450781082483061,27.958305285651818]},"properties":{"OBJECTID":141,"Name":"ROBERT W. SAUNDERS, SR. PUBLIC LIBRARY","Address":"1505 N NEBRASKA AVE","City":"TAMPA","Zip":"33605","COUNTY":"HILLSBOROUGH","X":-82.450781079999999,"Y":27.958305289999998,"LONGLAT":"-82.45078108,27.95830529","USNG":"17R LL 57292 93430","OWNERSHIP":null,"PARCELID":null,"FACILITY_TYPE":"LIBRARY"}},{"type":"Feature","id":142,"geometry":{"type":"Point","coordinates":[-87.116074575008639,30.371913440404246]},"properties":{"OBJECTID":142,"Name":"ROBERT CLAUD","Address":"941 AQUAMARINE DR","City":"GULF BREEZE","Zip":"32563","COUNTY":"SANTA ROSA","X":-87.116074580000003,"Y":30.37191344,"LONGLAT":"-87.11607458,30.37191344","USNG":"16R DU 88846 60003","OWNERSHIP":null,"PARCELID":"36-2S-29-5540-00300-0100","FACILITY_TYPE":"LIBRARY"}},{"type":"Feature","id":143,"geometry":{"type":"Point","coordinates":[-87.204357663490882,30.481498590709389]},"properties":{"OBJECTID":143,"Name":"GENEALOGY LIBRARY","Address":"5740 N 9TH AVE","City":"PENSACOLA","Zip":"32504","COUNTY":"ESCAMBIA","X":-87.204357659999999,"Y":30.481498590000001,"LONGLAT":"-87.20435766,30.48149859","USNG":"16R DU 80386 72159","OWNERSHIP":null,"PARCELID":null,"FACILITY_TYPE":"LIBRARY"}},{"type":"Feature","id":144,"geometry":{"type":"Point","coordinates":[-81.559134698346242,28.805951971368405]},"properties":{"OBJECTID":144,"Name":"EAST LAKE COUNTY LIBRARY","Address":"31340 COUNTY ROAD 437","City":"SORRENTO","Zip":"32776","COUNTY":"LAKE","X":-81.559134700000001,"Y":28.805951969999999,"LONGLAT":"-81.55913470,28.80595197","USNG":"17R MM 45438 86615","OWNERSHIP":null,"PARCELID":null,"FACILITY_TYPE":"LIBRARY"}},{"type":"Feature","id":145,"geometry":{"type":"Point","coordinates":[-81.801292521458279,26.708964856548356]},"properties":{"OBJECTID":145,"Name":"BRYAN B BRANCH","Address":"16850 TARPON WAY","City":"NORTH FORT MYERS","Zip":"33917","COUNTY":"LEE","X":-81.801292520000004,"Y":26.708964859999998,"LONGLAT":"-81.80129252,26.70896486","USNG":"17R MK 20294 54451","OWNERSHIP":null,"PARCELID":"2743250000001006D","FACILITY_TYPE":"LIBRARY"}},{"type":"Feature","id":146,"geometry":{"type":"Point","coordinates":[-81.754351437748468,27.977043298586786]},"properties":{"OBJECTID":146,"Name":"CITY OF EAGLE LAKE","Address":"75 N 7TH ST","City":"EAGLE LAKE","Zip":"33839","COUNTY":"POLK","X":-81.754351439999994,"Y":27.977043299999998,"LONGLAT":"-81.75435144,27.97704330","USNG":"17R ML 25813 94888","OWNERSHIP":null,"PARCELID":"262907682500000070","FACILITY_TYPE":"LIBRARY"}},{"type":"Feature","id":147,"geometry":{"type":"Point","coordinates":[-80.304055683781769,25.89000932455221]},"properties":{"OBJECTID":147,"Name":"NORTH HIALEAH E-LIBRARY","Address":"7400 W 10TH AVE","City":"HIALEAH","Zip":"33014","COUNTY":"MIAMI-DADE","X":-80.304055680000005,"Y":25.890009330000002,"LONGLAT":"-80.30405568,25.89000933","USNG":"17R NJ 69714 63688","OWNERSHIP":"MUNICIPAL","PARCELID":"0420250010470","FACILITY_TYPE":"LIBRARY"}},{"type":"Feature","id":148,"geometry":{"type":"Point","coordinates":[-81.644974096563715,28.814280983060385]},"properties":{"OBJECTID":148,"Name":"CITY OF MOUNT DORA","Address":"1995 N DONNELLY ST","City":"MOUNT DORA","Zip":"32757","COUNTY":"LAKE","X":-81.644974099999999,"Y":28.814280979999999,"LONGLAT":"-81.64497410,28.81428098","USNG":"17R MM 37066 87580","OWNERSHIP":"MUNICIPAL","PARCELID":"301927000100000300","FACILITY_TYPE":"LIBRARY"}},{"type":"Feature","id":149,"geometry":{"type":"Point","coordinates":[-82.440720200510526,27.420428322103664]},"properties":{"OBJECTID":149,"Name":"SANDY BRANCH RANCH LLC","Address":"10009 CLUBHOUSE DR","City":"BRADENTON","Zip":"34202","COUNTY":"MANATEE","X":-82.440720200000001,"Y":27.420428319999999,"LONGLAT":"-82.44072020,27.42042832","USNG":"17R LL 57585 33827","OWNERSHIP":null,"PARCELID":null,"FACILITY_TYPE":"LIBRARY"}},{"type":"Feature","id":150,"geometry":{"type":"Point","coordinates":[-86.663827099658135,30.413303287730059]},"properties":{"OBJECTID":150,"Name":"MARY ESTHER PUBLIC LIBRARY","Address":"100 W HOLLYWOOD BLVD","City":"MARY ESTHER","Zip":"32569","COUNTY":"OKALOOSA","X":-86.663827100000006,"Y":30.413303290000002,"LONGLAT":"-86.66382710,30.41330329","USNG":"16R EU 32287 64632","OWNERSHIP":"MUNICIPAL","PARCELID":"16-2S-24-1710-000L-00B0","FACILITY_TYPE":"LIBRARY"}},{"type":"Feature","id":151,"geometry":{"type":"Point","coordinates":[-81.514081024816605,28.572412718752485]},"properties":{"OBJECTID":151,"Name":"ORANGE COUNTY LIBRARY SYSTEM","Address":"1821 E SILVER STAR RD","City":"OCOEE","Zip":"34761","COUNTY":"ORANGE","X":-81.514081020000006,"Y":28.572412719999999,"LONGLAT":"-81.51408102,28.57241272","USNG":"17R MM 49723 60721","OWNERSHIP":null,"PARCELID":null,"FACILITY_TYPE":"LIBRARY"}},{"type":"Feature","id":152,"geometry":{"type":"Point","coordinates":[-81.884183063819322,26.66130602360602]},"properties":{"OBJECTID":152,"Name":"COUNTY OF LEE","Address":"13240 N CLVLAND AVE STE 5","City":"NORTH FORT MYERS","Zip":"33903","COUNTY":"LEE","X":-81.884183059999998,"Y":26.661306020000001,"LONGLAT":"-81.88418306,26.66130602","USNG":"17R MK 12012 49227","OWNERSHIP":null,"PARCELID":"11442400000174B40","FACILITY_TYPE":"LIBRARY"}},{"type":"Feature","id":153,"geometry":{"type":"Point","coordinates":[-81.365649522113017,28.658739434695121]},"properties":{"OBJECTID":153,"Name":"CITY OF ALTAMONTE SPRINGS LIBRARY","Address":"281 MAITLAND AVE","City":"ALTAMONTE SPRINGS","Zip":"32701","COUNTY":"SEMINOLE","X":-81.365649520000005,"Y":28.658739440000002,"LONGLAT":"-81.36564952,28.65873944","USNG":"17R MM 64269 70232","OWNERSHIP":null,"PARCELID":null,"FACILITY_TYPE":"LIBRARY"}},{"type":"Feature","id":154,"geometry":{"type":"Point","coordinates":[-81.586305672692703,27.90365870707268]},"properties":{"OBJECTID":154,"Name":"CITY OF LAKE WALES","Address":"290 CYPRESS GARDEN LN","City":"LAKE WALES","Zip":"33853","COUNTY":"POLK","X":-81.586305670000002,"Y":27.903658709999998,"LONGLAT":"-81.58630567,27.90365871","USNG":"17R ML 42301 86668","OWNERSHIP":"MUNICIPAL","PARCELID":"273001883000063010","FACILITY_TYPE":"LIBRARY"}},{"type":"Feature","id":155,"geometry":{"type":"Point","coordinates":[-82.756026945231326,28.144748894012395]},"properties":{"OBJECTID":155,"Name":"FRIENDS TARPON SPRINGS LIBRARY","Address":"138 E LEMON ST","City":"TARPON SPRINGS","Zip":"34689","COUNTY":"PINELLAS","X":-82.756026950000006,"Y":28.144748889999999,"LONGLAT":"-82.75602695,28.14474889","USNG":"17R LM 27559 14483","OWNERSHIP":null,"PARCELID":"15 27 12 89982 076 0900","FACILITY_TYPE":"LIBRARY"}},{"type":"Feature","id":156,"geometry":{"type":"Point","coordinates":[-81.995026836761056,26.579950794427987]},"properties":{"OBJECTID":156,"Name":"LEE COUNTY LIBRARY SYSTEM","Address":"921 SW 39TH TER","City":"CAPE CORAL","Zip":"33914","COUNTY":"LEE","X":-81.995026839999994,"Y":26.579950799999999,"LONGLAT":"-81.99502684,26.57995080","USNG":"17R MK 00911 40297","OWNERSHIP":null,"PARCELID":"034523C3033030000","FACILITY_TYPE":"LIBRARY"}},{"type":"Feature","id":157,"geometry":{"type":"Point","coordinates":[-80.322161457302698,27.448324957159279]},"properties":{"OBJECTID":157,"Name":"FT PIERCE BRANCH LIBRARY","Address":"101 MELODY LN","City":"FORT PIERCE","Zip":"34950","COUNTY":"ST. LUCIE","X":-80.322161460000004,"Y":27.448324960000001,"LONGLAT":"-80.32216146,27.44832496","USNG":"17R NL 66984 36275","OWNERSHIP":"COUNTY","PARCELID":"2410-510-0002-000-5","FACILITY_TYPE":"LIBRARY"}},{"type":"Feature","id":158,"geometry":{"type":"Point","coordinates":[-81.683661290995218,29.642764613089408]},"properties":{"OBJECTID":158,"Name":"PALATKA PUBLIC LIBRARY","Address":"601 COLLEGE RD","City":"PALATKA","Zip":"32177","COUNTY":"PUTNAM","X":-81.683661290000003,"Y":29.64276461,"LONGLAT":"-81.68366129,29.64276461","USNG":"17R MN 33826 79397","OWNERSHIP":"MUNICIPAL","PARCELID":"10-10-26-0000-0010-0010","FACILITY_TYPE":"LIBRARY"}},{"type":"Feature","id":159,"geometry":{"type":"Point","coordinates":[-82.350113886564358,29.655293768958114]},"properties":{"OBJECTID":159,"Name":"LUBAVITCH-CHABAD JEWISH CENTER LIBRARY","Address":"2021 NW 5TH AVE","City":"GAINESVILLE","Zip":"32603","COUNTY":"ALACHUA","X":-82.350113890000003,"Y":29.65529377,"LONGLAT":"-82.35011389,29.65529377","USNG":"17R LN 69330 81351","OWNERSHIP":null,"PARCELID":"15088 002 000","FACILITY_TYPE":"LIBRARY"}},{"type":"Feature","id":160,"geometry":{"type":"Point","coordinates":[-81.890970540957568,29.180470564527468]},"properties":{"OBJECTID":160,"Name":"FOREST PUBLIC LIBRARY","Address":"777 SE COUNTY ROAD 314A","City":"SILVER SPRINGS","Zip":"34488","COUNTY":"MARION","X":-81.890970539999998,"Y":29.180470570000001,"LONGLAT":"-81.89097054,29.18047057","USNG":"17R MN 13368 28308","OWNERSHIP":"COUNTY","PARCELID":"32387-000-00","FACILITY_TYPE":"LIBRARY"}},{"type":"Feature","id":161,"geometry":{"type":"Point","coordinates":[-80.093034286621091,26.277493506401854]},"properties":{"OBJECTID":161,"Name":"LIGHTHOUSE POINT LIBRARY","Address":"2200 NE 38TH ST STE A","City":"POMPANO BEACH","Zip":"33064","COUNTY":"BROWARD","X":-80.093034290000006,"Y":26.277493509999999,"LONGLAT":"-80.09303429,26.27749351","USNG":"17R NK 90555 06732","OWNERSHIP":"MUNICIPAL","PARCELID":"484318100260","FACILITY_TYPE":"LIBRARY"}},{"type":"Feature","id":162,"geometry":{"type":"Point","coordinates":[-80.702870819655928,28.378088630508604]},"properties":{"OBJECTID":162,"Name":"MERRITT ISLAND PUBLIC LIBRARY","Address":"1195 N COURTENAY PKWY","City":"MERRITT ISLAND","Zip":"32953","COUNTY":"BREVARD","X":-80.702870820000001,"Y":28.378088630000001,"LONGLAT":"-80.70287082,28.37808863","USNG":"17R NM 29111 39122","OWNERSHIP":null,"PARCELID":null,"FACILITY_TYPE":"LIBRARY"}},{"type":"Feature","id":163,"geometry":{"type":"Point","coordinates":[-87.336727086637467,30.715886870439359]},"properties":{"OBJECTID":163,"Name":"FRIENDS NORTHWEST BRANCH LIBRARY","Address":"6450 HIGHWAY 95A N","City":"MOLINO","Zip":"32577","COUNTY":"ESCAMBIA","X":-87.336727089999997,"Y":30.715886869999999,"LONGLAT":"-87.33672709,30.71588687","USNG":"16R DU 67758 98164","OWNERSHIP":"COUNTY","PARCELID":"032N313000002001","FACILITY_TYPE":"LIBRARY"}},{"type":"Feature","id":164,"geometry":{"type":"Point","coordinates":[-85.198639015028135,30.115885059718309]},"properties":{"OBJECTID":164,"Name":"BAY COUNTY PUBLIC LIBRARY","Address":"324 N STATE ROAD 71","City":"WEWAHITCHKA","Zip":"32465","COUNTY":"GULF","X":-85.198639020000002,"Y":30.11588506,"LONGLAT":"-85.19863902,30.11588506","USNG":"16R FU 73549 32995","OWNERSHIP":"MUNICIPAL","PARCELID":"02018-050R","FACILITY_TYPE":"LIBRARY"}},{"type":"Feature","id":165,"geometry":{"type":"Point","coordinates":[-81.632291562833004,26.228759446894486]},"properties":{"OBJECTID":165,"Name":"GOLDEN GATE LIBRARY","Address":"1266 GOLDEN GATE BLVD W","City":"NAPLES","Zip":"34117","COUNTY":"COLLIER","X":-81.632291559999999,"Y":26.228759449999998,"LONGLAT":"-81.63229156,26.22875945","USNG":"17R MK 36844 01171","OWNERSHIP":"COUNTY","PARCELID":"37013400000","FACILITY_TYPE":"LIBRARY"}},{"type":"Feature","id":166,"geometry":{"type":"Point","coordinates":[-80.252025859392887,26.018951563034584]},"properties":{"OBJECTID":166,"Name":"TOP BRANCH LANDSCAPING","Address":"8250 NW 12TH ST","City":"HOLLYWOOD","Zip":"33024","COUNTY":"BROWARD","X":-80.252025860000003,"Y":26.018951560000001,"LONGLAT":"-80.25202586,26.01895156","USNG":"17R NJ 74844 77996","OWNERSHIP":null,"PARCELID":"514109030000","FACILITY_TYPE":"LIBRARY"}},{"type":"Feature","id":167,"geometry":{"type":"Point","coordinates":[-80.340817333782326,25.876636363700065]},"properties":{"OBJECTID":167,"Name":"HIALEAH GARDENS BRANCH LIBRARY","Address":"11300 NW 87TH CT STE 112","City":"HIALEAH","Zip":"33018","COUNTY":"MIAMI-DADE","X":-80.340817329999993,"Y":25.876636359999999,"LONGLAT":"-80.34081733,25.87663636","USNG":"17R NJ 66039 62188","OWNERSHIP":null,"PARCELID":"2720330060010","FACILITY_TYPE":"LIBRARY"}},{"type":"Feature","id":168,"geometry":{"type":"Point","coordinates":[-80.830525675027758,27.206723720572199]},"properties":{"OBJECTID":168,"Name":"SEMINOLE TRIBAL LIBRARY SYSTEM","Address":" ","City":"OKEECHOBEE","Zip":"34974","COUNTY":"OKEECHOBEE","X":-80.830525679999994,"Y":27.206723719999999,"LONGLAT":"-80.83052568,27.20672372","USNG":"17R NL 16783 09343","OWNERSHIP":null,"PARCELID":"1-33-37-35-0A00-00007-F000","FACILITY_TYPE":"LIBRARY"}},{"type":"Feature","id":169,"geometry":{"type":"Point","coordinates":[-81.927171835242362,30.685482974078962]},"properties":{"OBJECTID":169,"Name":"HILLARD BRANCH LIBRARY","Address":"15821 COUNTY ROAD 108","City":"HILLIARD","Zip":"32046","COUNTY":"NASSAU","X":-81.92717184,"Y":30.685482969999999,"LONGLAT":"-81.92717184,30.68548297","USNG":"17R MP 11195 95113","OWNERSHIP":"COUNTY","PARCELID":"17-3N-24-2020-0054-0010","FACILITY_TYPE":"LIBRARY"}},{"type":"Feature","id":170,"geometry":{"type":"Point","coordinates":[-81.356585793802381,24.672319907495837]},"properties":{"OBJECTID":170,"Name":"COUNTY OF MONROE","Address":"213 KEY DEER BLVD","City":"BIG PINE KEY","Zip":"33043","COUNTY":"MONROE","X":-81.356585789999997,"Y":24.672319909999999,"LONGLAT":"-81.35658579,24.67231991","USNG":"17R MH 63922 28711","OWNERSHIP":"OTHER PUBLIC","PARCELID":"2366 29 00111071034001","FACILITY_TYPE":"LIBRARY"}},{"type":"Feature","id":171,"geometry":{"type":"Point","coordinates":[-81.408256798043382,28.606768062848747]},"properties":{"OBJECTID":171,"Name":"ORANGE COUNTY LIBRARIES - EDGEWATER BRANCH","Address":"5049 EDGEWATER DR","City":"ORLANDO","Zip":"32810","COUNTY":"ORANGE","X":-81.408256800000004,"Y":28.60676806,"LONGLAT":"-81.40825680,28.60676806","USNG":"17R MM 60086 64488","OWNERSHIP":null,"PARCELID":null,"FACILITY_TYPE":"LIBRARY"}},{"type":"Feature","id":172,"geometry":{"type":"Point","coordinates":[-84.386645140572369,30.123965638945904]},"properties":{"OBJECTID":172,"Name":"WAKULLA COUNTY PUBLIC LIBRARY","Address":"4330 CRAWFORDVILLE HWY","City":"CRAWFORDVILLE","Zip":"32327","COUNTY":"WAKULLA","X":-84.386645139999999,"Y":30.123965640000002,"LONGLAT":"-84.38664514,30.12396564","USNG":"16R GU 51781 35404","OWNERSHIP":"COUNTY","PARCELID":"24-4S-02W-171-02078-GCN","FACILITY_TYPE":"LIBRARY"}},{"type":"Feature","id":173,"geometry":{"type":"Point","coordinates":[-80.116293076534433,26.344035092887466]},"properties":{"OBJECTID":173,"Name":"THE CORPORATION OF THE PRES OF","Address":"1530 W CAMINO REAL","City":"BOCA RATON","Zip":"33486","COUNTY":"PALM BEACH","X":-80.116293080000005,"Y":26.344035089999998,"LONGLAT":"-80.11629308,26.34403509","USNG":"17R NK 88182 14086","OWNERSHIP":null,"PARCELID":"06424725040440010","FACILITY_TYPE":"LIBRARY"}},{"type":"Feature","id":174,"geometry":{"type":"Point","coordinates":[-81.505061653839206,27.597616897741851]},"properties":{"OBJECTID":174,"Name":"AVON PARK PUBLIC LIBRARY","Address":"100 N MUSEUM AVE","City":"AVON PARK","Zip":"33825","COUNTY":"HIGHLANDS","X":-81.505061650000002,"Y":27.597616899999998,"LONGLAT":"-81.50506165,27.59761690","USNG":"17R ML 50157 52731","OWNERSHIP":"COUNTY","PARCELID":"A22332801005200170","FACILITY_TYPE":"LIBRARY"}},{"type":"Feature","id":175,"geometry":{"type":"Point","coordinates":[-84.283613885755386,30.438123976791342]},"properties":{"OBJECTID":175,"Name":"SUPREME COURT LAW LIBRARY","Address":"500 S DUVAL ST","City":"TALLAHASSEE","Zip":"32301","COUNTY":"LEON","X":-84.283613889999998,"Y":30.43812398,"LONGLAT":"-84.28361389,30.43812398","USNG":"16R GU 60878 70469","OWNERSHIP":"STATE","PARCELID":"2136252741805","FACILITY_TYPE":"LIBRARY"}},{"type":"Feature","id":176,"geometry":{"type":"Point","coordinates":[-80.221853787653089,26.311773780738868]},"properties":{"OBJECTID":176,"Name":"PARKLAND LIBRARY","Address":"6500 PARKSIDE DR","City":"POMPANO BEACH","Zip":"33067","COUNTY":"BROWARD","X":-80.221853789999997,"Y":26.311773779999999,"LONGLAT":"-80.22185379,26.31177378","USNG":"17R NK 77669 10445","OWNERSHIP":"MUNICIPAL","PARCELID":"474135024710","FACILITY_TYPE":"LIBRARY"}},{"type":"Feature","id":177,"geometry":{"type":"Point","coordinates":[-80.076061921607959,26.701729347002978]},"properties":{"OBJECTID":177,"Name":"LIBRARY MEDIA SERVICES","Address":"1400 N FLORIDA MANGO RD","City":"WEST PALM BEACH","Zip":"33409","COUNTY":"PALM BEACH","X":-80.076061920000001,"Y":26.701729350000001,"LONGLAT":"-80.07606192,26.70172935","USNG":"17R NK 91911 53732","OWNERSHIP":null,"PARCELID":null,"FACILITY_TYPE":"LIBRARY"}},{"type":"Feature","id":178,"geometry":{"type":"Point","coordinates":[-80.39933395267451,27.402450114757663]},"properties":{"OBJECTID":178,"Name":"HICKORY BRANCH PROPERTIES INC","Address":"3433 GORDY RD","City":"FORT PIERCE","Zip":"34945","COUNTY":"ST. LUCIE","X":-80.399333949999999,"Y":27.402450120000001,"LONGLAT":"-80.39933395,27.40245012","USNG":"17R NL 59382 31154","OWNERSHIP":null,"PARCELID":"2326-411-0002-000-3","FACILITY_TYPE":"LIBRARY"}},{"type":"Feature","id":179,"geometry":{"type":"Point","coordinates":[-81.445869215278648,28.693949389937213]},"properties":{"OBJECTID":179,"Name":"WEST BRANCH LIBRARY","Address":"245 HUNT CLUB BLVD","City":"LONGWOOD","Zip":"32779","COUNTY":"SEMINOLE","X":-81.445869220000006,"Y":28.69394939,"LONGLAT":"-81.44586922,28.69394939","USNG":"17R MM 56444 74159","OWNERSHIP":null,"PARCELID":"062129300007C0000","FACILITY_TYPE":"LIBRARY"}},{"type":"Feature","id":180,"geometry":{"type":"Point","coordinates":[-80.238589878696843,26.154595263363277]},"properties":{"OBJECTID":180,"Name":"COUNTY OF BROWARD","Address":"6600 SUNSET STRIP","City":"FORT LAUDERDALE","Zip":"33313","COUNTY":"BROWARD","X":-80.238589880000006,"Y":26.154595260000001,"LONGLAT":"-80.23858988,26.15459526","USNG":"17R NJ 76101 93027","OWNERSHIP":null,"PARCELID":"494127BG0010","FACILITY_TYPE":"LIBRARY"}},{"type":"Feature","id":181,"geometry":{"type":"Point","coordinates":[-81.710564928004047,30.092729281859242]},"properties":{"OBJECTID":181,"Name":"FLEMING ISLAND (HEADQUARTERS LIBRARY)","Address":"1895 TOWN CENTER BLVD","City":"ORANGE PARK","Zip":"32003","COUNTY":"CLAY","X":-81.710564930000004,"Y":30.09272928,"LONGLAT":"-81.71056493,30.09272928","USNG":"17R MP 31530 29273","OWNERSHIP":"COUNTY","PARCELID":"05-05-26-014190-000-01","FACILITY_TYPE":"LIBRARY"}},{"type":"Feature","id":182,"geometry":{"type":"Point","coordinates":[-82.527919100466136,27.864065599263132]},"properties":{"OBJECTID":182,"Name":"PORT TAMPA CITY LIBRARY","Address":"4902 W COMMERCE ST","City":"TAMPA","Zip":"33616","COUNTY":"HILLSBOROUGH","X":-82.527919100000005,"Y":27.8640656,"LONGLAT":"-82.52791910,27.86406560","USNG":"17R LL 49572 83081","OWNERSHIP":null,"PARCELID":null,"FACILITY_TYPE":"LIBRARY"}},{"type":"Feature","id":183,"geometry":{"type":"Point","coordinates":[-80.130623412562571,26.708540753522989]},"properties":{"OBJECTID":183,"Name":"COUNTY OF PALM BEACH","Address":"5689 OKEECHOBEE BLVD","City":"WEST PALM BEACH","Zip":"33417","COUNTY":"PALM BEACH","X":-80.130623409999998,"Y":26.708540750000001,"LONGLAT":"-80.13062341,26.70854075","USNG":"17R NK 86478 54449","OWNERSHIP":null,"PARCELID":null,"FACILITY_TYPE":"LIBRARY"}},{"type":"Feature","id":184,"geometry":{"type":"Point","coordinates":[-80.669857077078035,26.680793220746498]},"properties":{"OBJECTID":184,"Name":"CITY OF BELLE GLADE","Address":"530 S MAIN ST","City":"BELLE GLADE","Zip":"33430","COUNTY":"PALM BEACH","X":-80.66985708,"Y":26.680793220000002,"LONGLAT":"-80.66985708,26.68079322","USNG":"17R NK 32847 51123","OWNERSHIP":null,"PARCELID":null,"FACILITY_TYPE":"LIBRARY"}},{"type":"Feature","id":185,"geometry":{"type":"Point","coordinates":[-80.145967898450849,26.622651272651343]},"properties":{"OBJECTID":185,"Name":"COUNTY OF PALM BEACH","Address":"3750 JOG RD","City":"LAKE WORTH","Zip":"33463","COUNTY":"PALM BEACH","X":-80.145967900000002,"Y":26.622651269999999,"LONGLAT":"-80.14596790,26.62265127","USNG":"17R NK 85015 44925","OWNERSHIP":null,"PARCELID":null,"FACILITY_TYPE":"LIBRARY"}},{"type":"Feature","id":186,"geometry":{"type":"Point","coordinates":[-80.139960651436084,26.158999633035542]},"properties":{"OBJECTID":186,"Name":"WILTON MANORS PUBLIC LIBRARY","Address":"500 NE 26TH ST","City":"FORT LAUDERDALE","Zip":"33305","COUNTY":"BROWARD","X":-80.139960650000006,"Y":26.15899963,"LONGLAT":"-80.13996065,26.15899963","USNG":"17R NJ 85956 93576","OWNERSHIP":"MUNICIPAL","PARCELID":"494226060390","FACILITY_TYPE":"LIBRARY"}},{"type":"Feature","id":187,"geometry":{"type":"Point","coordinates":[-80.318221253981335,25.871194144418805]},"properties":{"OBJECTID":187,"Name":"WILDE E-LIBRARY","Address":"1701 W 53RD TER","City":"HIALEAH","Zip":"33012","COUNTY":"MIAMI-DADE","X":-80.318221249999993,"Y":25.871194150000001,"LONGLAT":"-80.31822125,25.87119415","USNG":"17R NJ 68306 61596","OWNERSHIP":null,"PARCELID":null,"FACILITY_TYPE":"LIBRARY"}},{"type":"Feature","id":188,"geometry":{"type":"Point","coordinates":[-80.430766014660108,25.50634378557853]},"properties":{"OBJECTID":188,"Name":"NARANJA BRANCH LIBRARY","Address":"14850 SW 280TH ST","City":"MIAMI","Zip":"33032","COUNTY":"MIAMI-DADE","X":-80.430766009999999,"Y":25.506343789999999,"LONGLAT":"-80.43076601,25.50634379","USNG":"17R NJ 57204 21138","OWNERSHIP":null,"PARCELID":null,"FACILITY_TYPE":"LIBRARY"}},{"type":"Feature","id":189,"geometry":{"type":"Point","coordinates":[-82.638454179229612,30.192524332236044]},"properties":{"OBJECTID":189,"Name":"COLUMBIA COUNTY PUBLIC LIBRARY","Address":"308 NW COLUMBIA AVE","City":"LAKE CITY","Zip":"32055","COUNTY":"COLUMBIA","X":-82.638454179999997,"Y":30.192524330000001,"LONGLAT":"-82.63845418,30.19252433","USNG":"17R LP 42270 41253","OWNERSHIP":"COUNTY","PARCELID":"00-00-00-11987-000","FACILITY_TYPE":"LIBRARY"}},{"type":"Feature","id":190,"geometry":{"type":"Point","coordinates":[-87.25296032763913,30.426703617143719]},"properties":{"OBJECTID":190,"Name":"WEST FLRDIA VSSEL DCUMENTATION","Address":"1324 N Z ST","City":"PENSACOLA","Zip":"32505","COUNTY":"ESCAMBIA","X":-87.252960329999993,"Y":30.426703620000001,"LONGLAT":"-87.25296033,30.42670362","USNG":"16R DU 75707 66096","OWNERSHIP":null,"PARCELID":"332S301000001014","FACILITY_TYPE":"LIBRARY"}},{"type":"Feature","id":191,"geometry":{"type":"Point","coordinates":[-82.338367810183939,30.024039709925791]},"properties":{"OBJECTID":191,"Name":"NEW RIVER PUBLIC LIBRARY COOPERATIVE","Address":"110 N LAKE AVE","City":"LAKE BUTLER","Zip":"32054","COUNTY":"UNION","X":-82.338367809999994,"Y":30.02403971,"LONGLAT":"-82.33836781,30.02403971","USNG":"17R LP 70942 22203","OWNERSHIP":"COUNTY","PARCELID":"30-05-20-00-000-0880-0","FACILITY_TYPE":"LIBRARY"}},{"type":"Feature","id":192,"geometry":{"type":"Point","coordinates":[-85.51545921834142,30.954646982781632]},"properties":{"OBJECTID":192,"Name":"GRACEVILLE BRANCH LIBRARY","Address":"5314 BROWN ST","City":"GRACEVILLE","Zip":"32440","COUNTY":"JACKSON","X":-85.515459219999997,"Y":30.95464698,"LONGLAT":"-85.51545922,30.95464698","USNG":"16R FV 41797 25520","OWNERSHIP":null,"PARCELID":null,"FACILITY_TYPE":"LIBRARY"}},{"type":"Feature","id":193,"geometry":{"type":"Point","coordinates":[-82.454874722455173,27.988473567313317]},"properties":{"OBJECTID":193,"Name":"SEMINOLE HEIGHTS BRANCH LIBRARY","Address":"4711 N CENTRAL AVE","City":"TAMPA","Zip":"33603","COUNTY":"HILLSBOROUGH","X":-82.454874720000007,"Y":27.98847357,"LONGLAT":"-82.45487472,27.98847357","USNG":"17R LL 56929 96778","OWNERSHIP":null,"PARCELID":null,"FACILITY_TYPE":"LIBRARY"}},{"type":"Feature","id":194,"geometry":{"type":"Point","coordinates":[-80.400193846786067,27.256330084230807]},"properties":{"OBJECTID":194,"Name":"ROSSER LIBRARY","Address":"2950 SW ROSSER RD","City":"PORT SAINT LUCIE","Zip":"34953","COUNTY":"ST. LUCIE","X":-80.400193849999994,"Y":27.256330080000001,"LONGLAT":"-80.40019385,27.25633008","USNG":"17R NL 59374 14969","OWNERSHIP":"MUNICIPAL","PARCELID":"4314-502-0015-000-5","FACILITY_TYPE":"LIBRARY"}},{"type":"Feature","id":195,"geometry":{"type":"Point","coordinates":[-81.957734801168385,28.068664010119718]},"properties":{"OBJECTID":195,"Name":"LAKELAND PUBLIC LIBRARY","Address":"1700 N FLORIDA AVE","City":"LAKELAND","Zip":"33805","COUNTY":"POLK","X":-81.957734799999997,"Y":28.068664009999999,"LONGLAT":"-81.95773480,28.06866401","USNG":"17R MM 05890 05178","OWNERSHIP":null,"PARCELID":"232812043500006010","FACILITY_TYPE":"LIBRARY"}},{"type":"Feature","id":196,"geometry":{"type":"Point","coordinates":[-84.981326504916467,30.427672090581876]},"properties":{"OBJECTID":196,"Name":"HARRELL MEMORIAL LIBRARY","Address":"12818 NW COUNTY ROAD 12 RD","City":"BRISTOL","Zip":"32321","COUNTY":"LIBERTY","X":-84.981326499999994,"Y":30.427672090000002,"LONGLAT":"-84.98132650,30.42767209","USNG":"16R FU 93875 67906","OWNERSHIP":"COUNTY","PARCELID":"007-2S-7W-02018 000","FACILITY_TYPE":"LIBRARY"}},{"type":"Feature","id":197,"geometry":{"type":"Point","coordinates":[-85.228062665574043,30.778042158511543]},"properties":{"OBJECTID":197,"Name":"JACKSON COUNTY PUBLIC LIBRARY","Address":"2929 GREEN ST","City":"MARIANNA","Zip":"32446","COUNTY":"JACKSON","X":-85.22806267,"Y":30.778042159999998,"LONGLAT":"-85.22806267,30.77804216","USNG":"16R FV 69563 06345","OWNERSHIP":"COUNTY","PARCELID":"03-4N-10-0331-0000-0253","FACILITY_TYPE":"LIBRARY"}},{"type":"Feature","id":198,"geometry":{"type":"Point","coordinates":[-81.773569037551454,28.713859502251275]},"properties":{"OBJECTID":198,"Name":"HOWEY IN HILLS LIBRARY","Address":"112 W CENTRAL AVE","City":"HOWEY IN THE HILLS","Zip":"34737","COUNTY":"LAKE","X":-81.773569039999998,"Y":28.713859500000002,"LONGLAT":"-81.77356904,28.71385950","USNG":"17R MM 24446 76529","OWNERSHIP":null,"PARCELID":null,"FACILITY_TYPE":"LIBRARY"}},{"type":"Feature","id":199,"geometry":{"type":"Point","coordinates":[-80.304046068801597,27.503266937138537]},"properties":{"OBJECTID":199,"Name":"W GOZDZ ENT LIBRARY MGT & CONS","Address":"3880 N HIGHWAY A1A PH 3","City":"FORT PIERCE","Zip":"34949","COUNTY":"ST. LUCIE","X":-80.304046069999998,"Y":27.50326694,"LONGLAT":"-80.30404607,27.50326694","USNG":"17R NL 68740 42371","OWNERSHIP":null,"PARCELID":null,"FACILITY_TYPE":"LIBRARY"}},{"type":"Feature","id":200,"geometry":{"type":"Point","coordinates":[-82.278249530911779,28.001347633030246]},"properties":{"OBJECTID":200,"Name":"SEFFNER-MANGO BRANCH LIBRARY","Address":"410 N KINGSWAY RD","City":"SEFFNER","Zip":"33584","COUNTY":"HILLSBOROUGH","X":-82.278249529999997,"Y":28.001347630000001,"LONGLAT":"-82.27824953,28.00134763","USNG":"17R LL 74314 98009","OWNERSHIP":"COUNTY","PARCELID":"202835ZZZ000002285600U","FACILITY_TYPE":"LIBRARY"}},{"type":"Feature","id":201,"geometry":{"type":"Point","coordinates":[-84.247470389958465,30.498293178935363]},"properties":{"OBJECTID":201,"Name":"U.S. DRUG ENFORCEMENT ADMINISTRATION - TALLAHASSEE FIELD OFFICE","Address":"3384 CAPITAL CIR NE","City":"TALLAHASSEE","Zip":"32308","COUNTY":"LEON","X":-84.247470390000004,"Y":30.498293180000001,"LONGLAT":"-84.24747039,30.49829318","USNG":"16R GU 64188 77224","OWNERSHIP":"FEDERAL","PARCELID":"110835   0001","FACILITY_TYPE":"LIBRARY"}},{"type":"Feature","id":202,"geometry":{"type":"Point","coordinates":[-80.998831457149095,27.875951685342248]},"properties":{"OBJECTID":202,"Name":"OSCEOLA COUNTY PUBLIC LIBRARY KENANSVILLE","Address":"1154 S CANOE CREEK RD","City":"KENANSVILLE","Zip":" ","COUNTY":"OSCEOLA","X":-80.998831460000005,"Y":27.875951690000001,"LONGLAT":"-80.99883146,27.87595169","USNG":"17R NL 00115 83461","OWNERSHIP":null,"PARCELID":null,"FACILITY_TYPE":"LIBRARY"}},{"type":"Feature","id":203,"geometry":{"type":"Point","coordinates":[-80.326530395318997,25.934116132115541]},"properties":{"OBJECTID":203,"Name":"PALM SPRINGS NORTH BRANCH LIBRARY","Address":"17601 NW 78TH AVE","City":"HIALEAH","Zip":"33015","COUNTY":"MIAMI-DADE","X":-80.326530399999996,"Y":25.93411613,"LONGLAT":"-80.32653040,25.93411613","USNG":"17R NJ 67437 68560","OWNERSHIP":null,"PARCELID":"3020100000011","FACILITY_TYPE":"LIBRARY"}},{"type":"Feature","id":204,"geometry":{"type":"Point","coordinates":[-80.139133210081013,25.952932340783232]},"properties":{"OBJECTID":204,"Name":"NORTHEAST BRACH LIBRARY","Address":"19200 W COUNTRY CLUB DR","City":"MIAMI","Zip":"33180","COUNTY":"MIAMI-DADE","X":-80.139133209999997,"Y":25.95293234,"LONGLAT":"-80.13913321,25.95293234","USNG":"17R NJ 86189 70754","OWNERSHIP":"MUNICIPAL","PARCELID":"2812350790010","FACILITY_TYPE":"LIBRARY"}},{"type":"Feature","id":205,"geometry":{"type":"Point","coordinates":[-80.44043583135047,25.72656259265981]},"properties":{"OBJECTID":205,"Name":"LAKES OF THE MEADOW BRANCH LIBRARY","Address":"4284 SW 152ND AVE","City":"MIAMI","Zip":"33185","COUNTY":"MIAMI-DADE","X":-80.440435829999998,"Y":25.72656259,"LONGLAT":"-80.44043583,25.72656259","USNG":"17R NJ 56129 45521","OWNERSHIP":"COUNTY","PARCELID":null,"FACILITY_TYPE":"LIBRARY"}},{"type":"Feature","id":206,"geometry":{"type":"Point","coordinates":[-80.118899981389205,26.377379985338134]},"properties":{"OBJECTID":206,"Name":"SEXUAL HEALTH SCIENCES INC","Address":" ","City":"BOCA RATON","Zip":"33431","COUNTY":"PALM BEACH","X":-80.118899979999995,"Y":26.377379990000001,"LONGLAT":"-80.11889998,26.37737999","USNG":"17R NK 87896 17777","OWNERSHIP":null,"PARCELID":"06424713000003070","FACILITY_TYPE":"LIBRARY"}},{"type":"Feature","id":207,"geometry":{"type":"Point","coordinates":[-80.921130325257934,29.015337792518451]},"properties":{"OBJECTID":207,"Name":"NEW SMYRNA BEACH REGIONAL LIBRARY","Address":"1001 S DIXIE FWY","City":"NEW SMYRNA BEACH","Zip":"32168","COUNTY":"VOLUSIA","X":-80.921130329999997,"Y":29.01533779,"LONGLAT":"-80.92113033,29.01533779","USNG":"17R NN 07680 09687","OWNERSHIP":null,"PARCELID":null,"FACILITY_TYPE":"LIBRARY"}},{"type":"Feature","id":208,"geometry":{"type":"Point","coordinates":[-86.507863309851473,30.398728271288377]},"properties":{"OBJECTID":208,"Name":"CITY OF DESTIN","Address":"150 SIBERT AVE","City":"DESTIN","Zip":"32541","COUNTY":"OKALOOSA","X":-86.507863310000005,"Y":30.398728269999999,"LONGLAT":"-86.50786331,30.39872827","USNG":"16R EU 47274 63071","OWNERSHIP":"MUNICIPAL","PARCELID":"00-2S-22-0310-000D-3750","FACILITY_TYPE":"LIBRARY"}},{"type":"Feature","id":209,"geometry":{"type":"Point","coordinates":[-80.164494014356279,25.987585925483874]},"properties":{"OBJECTID":209,"Name":"BEST BRANCH GRANITE INC","Address":"311 W ANSIN BLVD","City":"HALLANDALE","Zip":"33009","COUNTY":"BROWARD","X":-80.164494009999999,"Y":25.987585930000002,"LONGLAT":"-80.16449401,25.98758593","USNG":"17R NJ 83626 74576","OWNERSHIP":null,"PARCELID":"514228000086","FACILITY_TYPE":"LIBRARY"}},{"type":"Feature","id":210,"geometry":{"type":"Point","coordinates":[-81.306431876652567,28.898688459297972]},"properties":{"OBJECTID":210,"Name":"DEBARY PUBLIC LIBRARY","Address":"200 N CHARLES R BEALL BLVD","City":"DEBARY","Zip":"32713","COUNTY":"VOLUSIA","X":-81.306431880000005,"Y":28.898688459999999,"LONGLAT":"-81.30643188,28.89868846","USNG":"17R MM 70124 96799","OWNERSHIP":null,"PARCELID":null,"FACILITY_TYPE":"LIBRARY"}},{"type":"Feature","id":211,"geometry":{"type":"Point","coordinates":[-84.666949323156459,29.852566791778319]},"properties":{"OBJECTID":211,"Name":"CARRABELLE BRANCH LIBRARY","Address":"311 ST JAMES AVE SE","City":"CARRABELLE","Zip":"32322","COUNTY":"FRANKLIN","X":-84.666949320000001,"Y":29.852566790000001,"LONGLAT":"-84.66694932,29.85256679","USNG":"16R GU 25380 04733","OWNERSHIP":"MUNICIPAL","PARCELID":"20-07S-04W-4190-0004-0041","FACILITY_TYPE":"LIBRARY"}},{"type":"Feature","id":212,"geometry":{"type":"Point","coordinates":[-82.541390990356689,27.357731189677786]},"properties":{"OBJECTID":212,"Name":"COUNTY OF SARASOTA","Address":"2300 JANIE POE DR","City":"SARASOTA","Zip":"34234","COUNTY":"SARASOTA","X":-82.541390989999996,"Y":27.357731189999999,"LONGLAT":"-82.54139099,27.35773119","USNG":"17R LL 47546 27000","OWNERSHIP":null,"PARCELID":"NO PID","FACILITY_TYPE":"LIBRARY"}},{"type":"Feature","id":213,"geometry":{"type":"Point","coordinates":[-80.28695143825918,25.668866882872464]},"properties":{"OBJECTID":213,"Name":"PINECREST BRANCH LIBRARY","Address":"5835 SW 111TH ST","City":"PINECREST","Zip":"33156","COUNTY":"MIAMI-DADE","X":-80.286951439999996,"Y":25.668866879999999,"LONGLAT":"-80.28695144,25.66886688","USNG":"17R NJ 71560 39206","OWNERSHIP":"COUNTY","PARCELID":null,"FACILITY_TYPE":"LIBRARY"}},{"type":"Feature","id":214,"geometry":{"type":"Point","coordinates":[-80.052867271045955,26.584692099714413]},"properties":{"OBJECTID":214,"Name":"TOWN OF LANTANA","Address":"205 W OCEAN AVE","City":"LAKE WORTH","Zip":"33462","COUNTY":"PALM BEACH","X":-80.052867269999993,"Y":26.584692100000002,"LONGLAT":"-80.05286727,26.58469210","USNG":"17R NK 94315 40786","OWNERSHIP":null,"PARCELID":null,"FACILITY_TYPE":"LIBRARY"}},{"type":"Feature","id":215,"geometry":{"type":"Point","coordinates":[-80.215187625194801,26.037650737273736]},"properties":{"OBJECTID":215,"Name":"SEMINOLE TRIBE OF FLORIDA INC","Address":"3100 NW 63RD AVE","City":"HOLLYWOOD","Zip":"33024","COUNTY":"BROWARD","X":-80.215187630000003,"Y":26.03765074,"LONGLAT":"-80.21518763,26.03765074","USNG":"17R NJ 78518 80089","OWNERSHIP":"FEDERAL","PARCELID":"514101050010","FACILITY_TYPE":"LIBRARY"}},{"type":"Feature","id":216,"geometry":{"type":"Point","coordinates":[-80.225646425404022,25.808762472130393]},"properties":{"OBJECTID":216,"Name":"ALLAPATTAH BRANCH LIBRARY","Address":"1799 NW 35TH ST","City":"MIAMI","Zip":"33142","COUNTY":"MIAMI-DADE","X":-80.225646429999998,"Y":25.808762470000001,"LONGLAT":"-80.22564643,25.80876247","USNG":"17R NJ 77622 54734","OWNERSHIP":null,"PARCELID":null,"FACILITY_TYPE":"LIBRARY"}},{"type":"Feature","id":217,"geometry":{"type":"Point","coordinates":[-82.483360150311199,27.95773729406373]},"properties":{"OBJECTID":217,"Name":"WEST TAMPA BRANCH LIBRARY","Address":"2312 W UNION ST","City":"TAMPA","Zip":"33607","COUNTY":"HILLSBOROUGH","X":-82.483360149999996,"Y":27.957737290000001,"LONGLAT":"-82.48336015,27.95773729","USNG":"17R LL 54086 93406","OWNERSHIP":null,"PARCELID":null,"FACILITY_TYPE":"LIBRARY"}},{"type":"Feature","id":218,"geometry":{"type":"Point","coordinates":[-82.492079251558508,28.086872098497597]},"properties":{"OBJECTID":218,"Name":"JIMMY B KEEL REGIONAL LIBRARY","Address":"2902 W BEARSS AVE","City":"TAMPA","Zip":"33618","COUNTY":"HILLSBOROUGH","X":-82.492079250000003,"Y":28.086872100000001,"LONGLAT":"-82.49207925,28.08687210","USNG":"17R LM 53403 07724","OWNERSHIP":null,"PARCELID":null,"FACILITY_TYPE":"LIBRARY"}},{"type":"Feature","id":219,"geometry":{"type":"Point","coordinates":[-82.73009291934639,27.833230922285146]},"properties":{"OBJECTID":219,"Name":"JUVENILE WELFARE BOARD LIBRARY","Address":"6698 68TH AVE","City":"PINELLAS PARK","Zip":"33781","COUNTY":"PINELLAS","X":-82.730092920000004,"Y":27.833230919999998,"LONGLAT":"-82.73009292,27.83323092","USNG":"17R LL 29617 79930","OWNERSHIP":null,"PARCELID":null,"FACILITY_TYPE":"LIBRARY"}},{"type":"Feature","id":220,"geometry":{"type":"Point","coordinates":[-80.220626915469282,27.134187168220386]},"properties":{"OBJECTID":220,"Name":"ROBERT MORGADE LIBRARY","Address":"5851 SE COMMUNITY DR","City":"STUART","Zip":"34997","COUNTY":"MARTIN","X":-80.220626920000001,"Y":27.134187170000001,"LONGLAT":"-80.22062692,27.13418717","USNG":"17R NL 77235 01537","OWNERSHIP":null,"PARCELID":null,"FACILITY_TYPE":"LIBRARY"}},{"type":"Feature","id":221,"geometry":{"type":"Point","coordinates":[-81.71441392484482,30.336876493830143]},"properties":{"OBJECTID":221,"Name":"WESTBROOK BRANCH LIBRARY","Address":"2809 COMMONWEALTH AVE","City":"JACKSONVILLE","Zip":"32254","COUNTY":"DUVAL","X":-81.714413919999998,"Y":30.336876490000002,"LONGLAT":"-81.71441392,30.33687649","USNG":"17R MP 31329 56331","OWNERSHIP":null,"PARCELID":null,"FACILITY_TYPE":"LIBRARY"}},{"type":"Feature","id":222,"geometry":{"type":"Point","coordinates":[-80.605268167319338,28.063225414247515]},"properties":{"OBJECTID":222,"Name":"DR MARTIN LUTHER KING JR PUBLIC LIBRARY","Address":"955 E UNIVERSITY BLVD","City":"MELBOURNE","Zip":"32901","COUNTY":"BREVARD","X":-80.605268170000002,"Y":28.063225419999998,"LONGLAT":"-80.60526817,28.06322542","USNG":"17R NM 38788 04269","OWNERSHIP":null,"PARCELID":null,"FACILITY_TYPE":"LIBRARY"}},{"type":"Feature","id":223,"geometry":{"type":"Point","coordinates":[-82.988728805420138,30.276225830000254]},"properties":{"OBJECTID":223,"Name":"SUWANNEE RIVER REGIONAL LIBRARY","Address":"1848 OHIO AVE S","City":"LIVE OAK","Zip":"32064","COUNTY":"SUWANNEE","X":-82.988728809999998,"Y":30.276225830000001,"LONGLAT":"-82.98872881,30.27622583","USNG":"17R LP 08706 51068","OWNERSHIP":null,"PARCELID":null,"FACILITY_TYPE":"LIBRARY"}},{"type":"Feature","id":224,"geometry":{"type":"Point","coordinates":[-81.09014340383348,26.832422231258317]},"properties":{"OBJECTID":224,"Name":"GLADES COUNTY PUBLIC LIBRARY ","Address":"201 RIVERSIDE DR","City":"MOORE HAVEN","Zip":"33471","COUNTY":"GLADES","X":-81.090143400000002,"Y":26.832422229999999,"LONGLAT":"-81.09014340,26.83242223","USNG":"17R MK 91043 67877","OWNERSHIP":"COUNTY","PARCELID":"A27-42-32-A00-0020-0000","FACILITY_TYPE":"LIBRARY"}},{"type":"Feature","id":225,"geometry":{"type":"Point","coordinates":[-84.283613885755386,30.438123976791342]},"properties":{"OBJECTID":225,"Name":"SUPREME COURT LAW LIBRARY","Address":"500 S DUVAL ST","City":"TALLAHASSEE","Zip":"32301","COUNTY":"LEON","X":-84.283613889999998,"Y":30.43812398,"LONGLAT":"-84.28361389,30.43812398","USNG":"16R GU 60878 70469","OWNERSHIP":"STATE","PARCELID":"2136252741805","FACILITY_TYPE":"LIBRARY"}},{"type":"Feature","id":226,"geometry":{"type":"Point","coordinates":[-87.170381322623214,30.365217521385606]},"properties":{"OBJECTID":226,"Name":"COUNTY HEALTH DEPT","Address":"409 GULF BREEZE PKWY","City":"GULF BREEZE","Zip":"32561","COUNTY":"SANTA ROSA","X":-87.170381320000004,"Y":30.365217520000002,"LONGLAT":"-87.17038132,30.36521752","USNG":"16R DU 83627 59267","OWNERSHIP":null,"PARCELID":"05-3S-29-0000-00300-0000","FACILITY_TYPE":"LIBRARY"}},{"type":"Feature","id":227,"geometry":{"type":"Point","coordinates":[-82.344995817134517,29.640890660272511]},"properties":{"OBJECTID":227,"Name":"J HILLIS MILLER HEALTH CENTER LIBRARY","Address":"1600 SW ARCHER RD","City":"GAINESVILLE","Zip":"32611","COUNTY":"ALACHUA","X":-82.344995819999994,"Y":29.64089066,"LONGLAT":"-82.34499582,29.64089066","USNG":"17R LN 69807 79750","OWNERSHIP":"SPECIAL TAXING DISTRICT","PARCELID":"15505 000 000","FACILITY_TYPE":"LIBRARY"}},{"type":"Feature","id":228,"geometry":{"type":"Point","coordinates":[-82.826773140800967,27.981505374399386]},