{"type":"FeatureCollection","features":[{"type":"Feature","id":1,"geometry":{"type":"Point","coordinates":[-80.328664747506679,26.156248975895981]},"properties":{"OBJECTID":1,"Name":"BANK ATLANTIC CENTER - WEST BROWARD","Address":"2555 NW 137TH WAY","City":"FORT LAUDERDALE","Zip":"33323","COUNTY":"BROWARD","X":-80.328664750000002,"Y":26.156248980000001,"LONGLAT":"-80.32866475,26.15624898","USNG":"17R NJ 67097 93160","OWNERSHIP":null,"PARCELID":"494026070010","FACILITY_TYPE":"LOGISTICAL STAGING AREA","ADDRESSCITYZIP":"2555 NW 137TH WAY FORT LAUDERDALE , FL 33323"}},{"type":"Feature","id":2,"geometry":{"type":"Point","coordinates":[-80.241674111246112,26.003957595767289]},"properties":{"OBJECTID":2,"Name":"NORTH PERRY AIRPORT","Address":"401 SW 77TH WAY","City":"HOLLYWOOD","Zip":"33023","COUNTY":"BROWARD","X":-80.241674110000005,"Y":26.0039576,"LONGLAT":"-80.24167411,26.00395760","USNG":"17R NJ 75890 76342","OWNERSHIP":"COUNTY","PARCELID":"514115060010","FACILITY_TYPE":"LOGISTICAL STAGING AREA","ADDRESSCITYZIP":"401 SW 77TH WAY HOLLYWOOD , FL 33023"}},{"type":"Feature","id":3,"geometry":{"type":"Point","coordinates":[-80.141668831560111,26.0685628097755]},"properties":{"OBJECTID":3,"Name":"FORT LAUDERDALE/HOLLYWOOD INTERNATIONAL AIRPORT","Address":"320 TERMINAL WAY","City":"DANIA","Zip":"33004","COUNTY":"BROWARD","X":-80.14166883,"Y":26.06856281,"LONGLAT":"-80.14166883,26.06856281","USNG":"17R NJ 85851 83559","OWNERSHIP":"COUNTY","PARCELID":"504227070010","FACILITY_TYPE":"LOGISTICAL STAGING AREA","ADDRESSCITYZIP":"320 TERMINAL WAY DANIA , FL 33004"}},{"type":"Feature","id":4,"geometry":{"type":"Point","coordinates":[-80.170900371070857,26.194825800170861]},"properties":{"OBJECTID":4,"Name":"FORT LAUDERDALE EXECUTIVE AIRPORT","Address":"6000 NW 21ST AVE","City":"FORT LAUDERDALE","Zip":"33309","COUNTY":"BROWARD","X":-80.170900369999998,"Y":26.1948258,"LONGLAT":"-80.17090037,26.19482580","USNG":"17R NJ 82838 97524","OWNERSHIP":"MUNICIPAL","PARCELID":"494209290010","FACILITY_TYPE":"LOGISTICAL STAGING AREA","ADDRESSCITYZIP":"6000 NW 21ST AVE FORT LAUDERDALE , FL 33309"}},{"type":"Feature","id":5,"geometry":{"type":"Point","coordinates":[-81.986146505529902,26.920103808194813]},"properties":{"OBJECTID":5,"Name":"CHARLOTTE COUNTY AIRPORT","Address":"28000 AIRPORT ROAD, A-1","City":"PUNTA GORDA","Zip":"33982","COUNTY":"CHARLOTTE","X":-81.986146509999998,"Y":26.920103810000001,"LONGLAT":"-81.98614651,26.92010381","USNG":"17R MK 02087 77967","OWNERSHIP":"OTHER PUBLIC","PARCELID":"412310300001","FACILITY_TYPE":"LOGISTICAL STAGING AREA","ADDRESSCITYZIP":"28000 AIRPORT ROAD, A-1 PUNTA GORDA , FL 33982"}},{"type":"Feature","id":6,"geometry":{"type":"Point","coordinates":[-82.180651567875969,26.998846726309143]},"properties":{"OBJECTID":6,"Name":"RANGERS SPORTS STADIUM","Address":"2300 EL JOBEAN ROAD","City":"PORT CHARLOTTE","Zip":"33948","COUNTY":"CHARLOTTE","X":-82.180651569999995,"Y":26.99884673,"LONGLAT":"-82.18065157,26.99884673","USNG":"17R LK 82855 86855","OWNERSHIP":"OTHER PUBLIC","PARCELID":"402114100007","FACILITY_TYPE":"LOGISTICAL STAGING AREA","ADDRESSCITYZIP":"2300 EL JOBEAN ROAD PORT CHARLOTTE , FL 33948"}},{"type":"Feature","id":7,"geometry":{"type":"Point","coordinates":[-81.987235855490695,29.977240976206016]},"properties":{"OBJECTID":7,"Name":"CAMP BLANDING","Address":"5629 STATE ROAD 16 W","City":"STARKE","Zip":"32091","COUNTY":"CLAY","X":-81.987235859999998,"Y":29.977240980000001,"LONGLAT":"-81.98723586,29.97724098","USNG":"17R MP 04759 16673","OWNERSHIP":"STATE","PARCELID":"15-06-23-000572-000-00","FACILITY_TYPE":"LOGISTICAL STAGING AREA","ADDRESSCITYZIP":"5629 STATE ROAD 16 W STARKE , FL 32091"}},{"type":"Feature","id":8,"geometry":{"type":"Point","coordinates":[-81.876143472323591,30.217651038667213]},"properties":{"OBJECTID":8,"Name":"CECIL FIELD","Address":"6211 AVIATION AVE","City":"JACKSONVILLE","Zip":"32221","COUNTY":"DUVAL","X":-81.876143470000002,"Y":30.21765104,"LONGLAT":"-81.87614347,30.21765104","USNG":"17R MP 15681 43227","OWNERSHIP":"COUNTY","PARCELID":"0022490000R","FACILITY_TYPE":"LOGISTICAL STAGING AREA","ADDRESSCITYZIP":"6211 AVIATION AVE JACKSONVILLE , FL 32221"}},{"type":"Feature","id":9,"geometry":{"type":"Point","coordinates":[-81.623001149376492,30.352926584976927]},"properties":{"OBJECTID":9,"Name":"TALLYRAND TERMINAL","Address":"2831 TALLEYRAND AVE","City":"JACKSONVILLE","Zip":"32206","COUNTY":"DUVAL","X":-81.623001149999993,"Y":30.352926589999999,"LONGLAT":"-81.62300115,30.35292659","USNG":"17R MP 40126 58058","OWNERSHIP":"COUNTY","PARCELID":"1153275000R","FACILITY_TYPE":"LOGISTICAL STAGING AREA","ADDRESSCITYZIP":"2831 TALLEYRAND AVE JACKSONVILLE , FL 32206"}},{"type":"Feature","id":10,"geometry":{"type":"Point","coordinates":[-81.623001149376492,30.352926584976927]},"properties":{"OBJECTID":10,"Name":"TALLYRAND TERMINAL","Address":"2831 TALLEYRAND AVE","City":"JACKSONVILLE","Zip":"32206","COUNTY":"DUVAL","X":-81.623001149999993,"Y":30.352926589999999,"LONGLAT":"-81.62300115,30.35292659","USNG":"17R MP 40126 58058","OWNERSHIP":"COUNTY","PARCELID":"1153275000R","FACILITY_TYPE":"LOGISTICAL STAGING AREA","ADDRESSCITYZIP":"2831 TALLEYRAND AVE JACKSONVILLE , FL 32206"}},{"type":"Feature","id":11,"geometry":{"type":"Point","coordinates":[-81.565867059893861,30.396358848033426]},"properties":{"OBJECTID":11,"Name":"ED AUSTIN TERMINAL ON DAMES POINT","Address":"9834 NEW BERLIN RD","City":"JACKSONVILLE","Zip":"32226","COUNTY":"DUVAL","X":-81.565867060000002,"Y":30.396358849999999,"LONGLAT":"-81.56586706,30.39635885","USNG":"17R MP 45641 62842","OWNERSHIP":"COUNTY","PARCELID":"1092310000R","FACILITY_TYPE":"LOGISTICAL STAGING AREA","ADDRESSCITYZIP":"9834 NEW BERLIN RD JACKSONVILLE , FL 32226"}},{"type":"Feature","id":12,"geometry":{"type":"Point","coordinates":[-81.876143472323591,30.217651038667213]},"properties":{"OBJECTID":12,"Name":"CECIL FIELD","Address":"6211 AVIATION AVE","City":"JACKSONVILLE","Zip":"32221","COUNTY":"DUVAL","X":-81.876143470000002,"Y":30.21765104,"LONGLAT":"-81.87614347,30.21765104","USNG":"17R MP 15681 43227","OWNERSHIP":"COUNTY","PARCELID":"0022490000R","FACILITY_TYPE":"LOGISTICAL STAGING AREA","ADDRESSCITYZIP":"6211 AVIATION AVE JACKSONVILLE , FL 32221"}},{"type":"Feature","id":13,"geometry":{"type":"Point","coordinates":[-81.54680482171139,30.388938878558328]},"properties":{"OBJECTID":13,"Name":"JAXPORT - BLOUNT IS. TERMINAL","Address":"PROPELLER DR","City":"JACKSONVILLE","Zip":"32226","COUNTY":"DUVAL","X":-81.546804820000006,"Y":30.388938880000001,"LONGLAT":"-81.54680482,30.38893888","USNG":"17R MP 47468 62011","OWNERSHIP":"COUNTY","PARCELID":"1602430000R","FACILITY_TYPE":"LOGISTICAL STAGING AREA","ADDRESSCITYZIP":"PROPELLER DR JACKSONVILLE , FL 32226"}},{"type":"Feature","id":14,"geometry":{"type":"Point","coordinates":[-81.623001149376492,30.352926584976927]},"properties":{"OBJECTID":14,"Name":"TALLYRAND TERMINAL","Address":"2831 TALLEYRAND AVE","City":"JACKSONVILLE","Zip":"32206","COUNTY":"DUVAL","X":-81.623001149999993,"Y":30.352926589999999,"LONGLAT":"-81.62300115,30.35292659","USNG":"17R MP 40126 58058","OWNERSHIP":"COUNTY","PARCELID":"1153275000R","FACILITY_TYPE":"LOGISTICAL STAGING AREA","ADDRESSCITYZIP":"2831 TALLEYRAND AVE JACKSONVILLE , FL 32206"}},{"type":"Feature","id":15,"geometry":{"type":"Point","coordinates":[-81.876143472323591,30.217651038667213]},"properties":{"OBJECTID":15,"Name":"CECIL FIELD","Address":"6211 AVIATION AVE","City":"JACKSONVILLE","Zip":"32221","COUNTY":"DUVAL","X":-81.876143470000002,"Y":30.21765104,"LONGLAT":"-81.87614347,30.21765104","USNG":"17R MP 15681 43227","OWNERSHIP":"COUNTY","PARCELID":"0022490000R","FACILITY_TYPE":"LOGISTICAL STAGING AREA","ADDRESSCITYZIP":"6211 AVIATION AVE JACKSONVILLE , FL 32221"}},{"type":"Feature","id":16,"geometry":{"type":"Point","coordinates":[-81.526372399168125,30.402143167628239]},"properties":{"OBJECTID":16,"Name":"BLOUNT ISLAND LSA","Address":"5880 CHANNEL VIEW BLVD","City":"JACKSONVILLE","Zip":" ","COUNTY":"DUVAL","X":null,"Y":null,"LONGLAT":null,"USNG":null,"OWNERSHIP":null,"PARCELID":null,"FACILITY_TYPE":"LOGISTICAL STAGING AREA","ADDRESSCITYZIP":"5880 CHANNEL VIEW BLVD JACKSONVILLE , FL  "}},{"type":"Feature","id":17,"geometry":{"type":"Point","coordinates":[-87.206560690481339,30.416538672623453]},"properties":{"OBJECTID":17,"Name":"PENSACOLA CIVIC CENTER","Address":"201 E GREGORY ST","City":"PENSACOLA","Zip":"32502","COUNTY":"ESCAMBIA","X":-87.206560690000003,"Y":30.416538670000001,"LONGLAT":"-87.20656069,30.41653867","USNG":"16R DU 80161 64960","OWNERSHIP":null,"PARCELID":"000S009007002073","FACILITY_TYPE":"LOGISTICAL STAGING AREA","ADDRESSCITYZIP":"201 E GREGORY ST PENSACOLA , FL 32502"}},{"type":"Feature","id":18,"geometry":{"type":"Point","coordinates":[-87.32515293152521,30.656061552316167]},"properties":{"OBJECTID":18,"Name":"QUINTETTE COMMUNITY CENTER","Address":"2490 QUINTETTE LN","City":"CANTONMENT","Zip":"32533","COUNTY":"ESCAMBIA","X":-87.325152930000002,"Y":30.65606155,"LONGLAT":"-87.32515293,30.65606155","USNG":"16R DU 68848 91531","OWNERSHIP":null,"PARCELID":null,"FACILITY_TYPE":"LOGISTICAL STAGING AREA","ADDRESSCITYZIP":"2490 QUINTETTE LN CANTONMENT , FL 32533"}},{"type":"Feature","id":19,"geometry":{"type":"Point","coordinates":[-87.311142625725964,30.472406421815538]},"properties":{"OBJECTID":19,"Name":"PENSACOLA FAIRGROUNDS","Address":"6655 MOBILE HWY","City":"PENSACOLA","Zip":"32526","COUNTY":"ESCAMBIA","X":-87.311142630000006,"Y":30.472406419999999,"LONGLAT":"-87.31114263,30.47240642","USNG":"16R DU 70134 71174","OWNERSHIP":null,"PARCELID":"391S312201000000","FACILITY_TYPE":"LOGISTICAL STAGING AREA","ADDRESSCITYZIP":"6655 MOBILE HWY PENSACOLA , FL 32526"}},{"type":"Feature","id":20,"geometry":{"type":"Point","coordinates":[-87.335019837724559,30.462612354018596]},"properties":{"OBJECTID":20,"Name":"SAUFLEY FIELD LSA","Address":"480 SPRAGUE AVE","City":"PENSACOLA","Zip":"32509","COUNTY":"ESCAMBIA","X":-87.335019840000001,"Y":30.462612350000001,"LONGLAT":"-87.33501984,30.46261235","USNG":"16R DU 67838 70096","OWNERSHIP":null,"PARCELID":null,"FACILITY_TYPE":"LOGISTICAL STAGING AREA","ADDRESSCITYZIP":"480 SPRAGUE AVE PENSACOLA , FL 32509"}},{"type":"Feature","id":21,"geometry":{"type":"Point","coordinates":[-87.194266841847494,30.477412621274343]},"properties":{"OBJECTID":21,"Name":"PENSACOLA REGIONAL AIRPORT","Address":"2430 AIRPORT BLVD","City":"PENSACOLA","Zip":"32504","COUNTY":"ESCAMBIA","X":-87.194266839999997,"Y":30.477412619999999,"LONGLAT":"-87.19426684,30.47741262","USNG":"16R DU 81353 71704","OWNERSHIP":"MUNICIPAL","PARCELID":"331S305101000000","FACILITY_TYPE":"LOGISTICAL STAGING AREA","ADDRESSCITYZIP":"2430 AIRPORT BLVD PENSACOLA , FL 32504"}},{"type":"Feature","id":22,"geometry":{"type":"Point","coordinates":[-82.406082302266157,28.596948830520859]},"properties":{"OBJECTID":22,"Name":"PASCO HERNANDO COMMUNITY COLLEGE NORTH","Address":"11417 PONCE DE LEON BLVD","City":"BROOKSVILLE","Zip":"34601","COUNTY":"HERNANDO","X":-82.406082299999994,"Y":28.596948829999999,"LONGLAT":"-82.40608230,28.59694883","USNG":"17R LM 62512 64139","OWNERSHIP":"SPECIAL TAXING DISTRICT","PARCELID":"R04 422 19 0000 0070 0031","FACILITY_TYPE":"LOGISTICAL STAGING AREA","ADDRESSCITYZIP":"11417 PONCE DE LEON BLVD BROOKSVILLE , FL 34601"}},{"type":"Feature","id":23,"geometry":{"type":"Point","coordinates":[-82.409546000056835,28.524897377153462]},"properties":{"OBJECTID":23,"Name":"HERNANDO COUNTY FAIRGROUNDS","Address":"6432 BROAD ST","City":"BROOKSVILLE","Zip":"34601","COUNTY":"HERNANDO","X":-82.409546000000006,"Y":28.524897379999999,"LONGLAT":"-82.40954600,28.52489738","USNG":"17R LM 62079 56160","OWNERSHIP":"COUNTY","PARCELID":"R33 422 19 0000 0510 0000","FACILITY_TYPE":"LOGISTICAL STAGING AREA","ADDRESSCITYZIP":"6432 BROAD ST BROOKSVILLE , FL 34601"}},{"type":"Feature","id":24,"geometry":{"type":"Point","coordinates":[-82.454982838626904,28.468280149185091]},"properties":{"OBJECTID":24,"Name":"HERNANDO COUNTY AIRPORT","Address":"2225 AMERICAN FLYER WAY","City":"BROOKSVILLE","Zip":"34604","COUNTY":"HERNANDO","X":-82.45498284,"Y":28.468280149999998,"LONGLAT":"-82.45498284,28.46828015","USNG":"17R LM 57557 49940","OWNERSHIP":"COUNTY","PARCELID":"R24 423 18 0000 0010 0000","FACILITY_TYPE":"LOGISTICAL STAGING AREA","ADDRESSCITYZIP":"2225 AMERICAN FLYER WAY BROOKSVILLE , FL 34604"}},{"type":"Feature","id":25,"geometry":{"type":"Point","coordinates":[-82.537470491599436,28.521745921165017]},"properties":{"OBJECTID":25,"Name":"GULF RIDGE COUNCIL BOY SCOUT CAMP","Address":"6001 HUNT LN","City":"SPRING HILL","Zip":"34608","COUNTY":"HERNANDO","X":-82.537470490000004,"Y":28.521745920000001,"LONGLAT":"-82.53747049,28.52174592","USNG":"17R LM 49556 55965","OWNERSHIP":null,"PARCELID":"R31 422 18 0000 0020 0000","FACILITY_TYPE":"LOGISTICAL STAGING AREA","ADDRESSCITYZIP":"6001 HUNT LN SPRING HILL , FL 34608"}},{"type":"Feature","id":26,"geometry":{"type":"Point","coordinates":[-82.37824287070697,28.567449352712273]},"properties":{"OBJECTID":26,"Name":"BROOKSVILLE ELEMENTARY SCHOOL","Address":"1036 VARSITY DR","City":"BROOKSVILLE","Zip":"34601","COUNTY":"HERNANDO","X":-82.378242869999994,"Y":28.56744935,"LONGLAT":"-82.37824287,28.56744935","USNG":"17R LM 65197 60839","OWNERSHIP":null,"PARCELID":null,"FACILITY_TYPE":"LOGISTICAL STAGING AREA","ADDRESSCITYZIP":"1036 VARSITY DR BROOKSVILLE , FL 34601"}},{"type":"Feature","id":27,"geometry":{"type":"Point","coordinates":[-82.509200000119179,27.975229998932729]},"properties":{"OBJECTID":27,"Name":"HCC DALE MABRY CAMPUS STAGING AREA","Address":"4002 N DALE MABRY HW","City":"TAMPA","Zip":" ","COUNTY":"HILLSBOROUGH","X":-82.509200000000007,"Y":27.97523,"LONGLAT":"-82.50920000,27.97523000","USNG":"17R LL 51568 95375","OWNERSHIP":null,"PARCELID":null,"FACILITY_TYPE":"LOGISTICAL STAGING AREA","ADDRESSCITYZIP":"4002 N DALE MABRY HW TAMPA , FL  "}},{"type":"Feature","id":28,"geometry":{"type":"Point","coordinates":[-82.364651742003247,27.989780506623465]},"properties":{"OBJECTID":28,"Name":"FLORIDA EXPO FAIRGROUNDS","Address":"4800 US HWY 301 N","City":"TAMPA","Zip":"33610","COUNTY":"HILLSBOROUGH","X":-82.364651739999999,"Y":27.989780509999999,"LONGLAT":"-82.36465174,27.98978051","USNG":"17R LL 65804 96820","OWNERSHIP":null,"PARCELID":null,"FACILITY_TYPE":"LOGISTICAL STAGING AREA","ADDRESSCITYZIP":"4800 US HWY 301 N TAMPA , FL 33610"}},{"type":"Feature","id":29,"geometry":{"type":"Point","coordinates":[-82.344773598606295,28.01168162549116]},"properties":{"OBJECTID":29,"Name":"VANDENBERG AIRPORT","Address":"6582 EUREKA SPRINGS RD","City":"TAMPA","Zip":"33610","COUNTY":"HILLSBOROUGH","X":-82.344773599999996,"Y":28.011681630000002,"LONGLAT":"-82.34477360,28.01168163","USNG":"17R LL 67785 99225","OWNERSHIP":"COUNTY","PARCELID":"202831ZZZ000002240700U","FACILITY_TYPE":"LOGISTICAL STAGING AREA","ADDRESSCITYZIP":"6582 EUREKA SPRINGS RD TAMPA , FL 33610"}},{"type":"Feature","id":30,"geometry":{"type":"Point","coordinates":[-82.528855729915321,27.970677093535517]},"properties":{"OBJECTID":30,"Name":"TAMPA INTERNATIONAL AIRPORT","Address":"5020 W TAMPA BAY BLVD","City":"TAMPA","Zip":"33607","COUNTY":"HILLSBOROUGH","X":-82.528855730000004,"Y":27.970677089999999,"LONGLAT":"-82.52885573,27.97067709","USNG":"17R LL 49628 94895","OWNERSHIP":"COUNTY","PARCELID":"182907ZZZ000005454400A","FACILITY_TYPE":"LOGISTICAL STAGING AREA","ADDRESSCITYZIP":"5020 W TAMPA BAY BLVD TAMPA , FL 33607"}},{"type":"Feature","id":31,"geometry":{"type":"Point","coordinates":[-80.442807225648863,27.734758930751685]},"properties":{"OBJECTID":31,"Name":"HOBART PARK","Address":"5350 77TH ST","City":"VERO BEACH","Zip":"32967","COUNTY":"INDIAN RIVER","X":-80.44280723,"Y":27.734758930000002,"LONGLAT":"-80.44280723,27.73475893","USNG":"17R NL 54918 67945","OWNERSHIP":"COUNTY","PARCELID":"31393300000500000003.0","FACILITY_TYPE":"LOGISTICAL STAGING AREA","ADDRESSCITYZIP":"5350 77TH ST VERO BEACH , FL 32967"}},{"type":"Feature","id":32,"geometry":{"type":"Point","coordinates":[-80.487536928012091,27.778921873957533]},"properties":{"OBJECTID":32,"Name":"BARBER STREET SPORTS COMPLEX","Address":"1115 BARBER ST","City":"SEBASTIAN","Zip":"32958","COUNTY":"INDIAN RIVER","X":-80.487536930000005,"Y":27.778921870000001,"LONGLAT":"-80.48753693,27.77892187","USNG":"17R NL 50489 72818","OWNERSHIP":"MUNICIPAL","PARCELID":"31382400001208000001.0","FACILITY_TYPE":"LOGISTICAL STAGING AREA","ADDRESSCITYZIP":"1115 BARBER ST SEBASTIAN , FL 32958"}},{"type":"Feature","id":33,"geometry":{"type":"Point","coordinates":[-80.419117667568187,27.650377870023291]},"properties":{"OBJECTID":33,"Name":"VERO BEACH MUNICIPAL AIRPORT","Address":"3400 CHEROKEE DR","City":"VERO BEACH","Zip":"32960","COUNTY":"INDIAN RIVER","X":-80.419117670000006,"Y":27.65037787,"LONGLAT":"-80.41911767,27.65037787","USNG":"17R NL 57297 58608","OWNERSHIP":null,"PARCELID":"32392600011008000001.1","FACILITY_TYPE":"LOGISTICAL STAGING AREA","ADDRESSCITYZIP":"3400 CHEROKEE DR VERO BEACH , FL 32960"}},{"type":"Feature","id":34,"geometry":{"type":"Point","coordinates":[-85.294173360745262,30.782578094578419]},"properties":{"OBJECTID":34,"Name":"JACKSON COUNTY AGRICULTURAL CENTER","Address":"3631 HWY 90","City":"MARIANNA","Zip":"32448","COUNTY":"JACKSON","X":-85.294173360000002,"Y":30.782578099999998,"LONGLAT":"-85.29417336,30.78257810","USNG":"16R FV 63228 06750","OWNERSHIP":"COUNTY","PARCELID":"36-5N-11-0000-0140-0000","FACILITY_TYPE":"LOGISTICAL STAGING AREA","ADDRESSCITYZIP":"3631 HWY 90 MARIANNA , FL 32448"}},{"type":"Feature","id":35,"geometry":{"type":"Point","coordinates":[-81.868227579521076,26.601685858601659]},"properties":{"OBJECTID":35,"Name":"EDISON MALL","Address":"4125 CLEVELAND AVE","City":"FORT MYERS","Zip":"33901","COUNTY":"LEE","X":-81.868227579999996,"Y":26.60168586,"LONGLAT":"-81.86822758,26.60168586","USNG":"17R MK 13555 42612","OWNERSHIP":"COUNTY","PARCELID":null,"FACILITY_TYPE":"LOGISTICAL STAGING AREA","ADDRESSCITYZIP":"4125 CLEVELAND AVE FORT MYERS , FL 33901"}},{"type":"Feature","id":36,"geometry":{"type":"Point","coordinates":[-81.709203868257973,26.643231547971581]},"properties":{"OBJECTID":36,"Name":"LEE COUNTY MOSQUITO CONTROL DISTRICT","Address":"6550-6580 FELIX ROMANO AVE","City":"FORT MYERS","Zip":"33905","COUNTY":"LEE","X":-81.709203869999996,"Y":26.643231549999999,"LONGLAT":"-81.70920387,26.64323155","USNG":"17R MK 29414 47116","OWNERSHIP":null,"PARCELID":null,"FACILITY_TYPE":"LOGISTICAL STAGING AREA","ADDRESSCITYZIP":"6550-6580 FELIX ROMANO AVE FORT MYERS , FL 33905"}},{"type":"Feature","id":37,"geometry":{"type":"Point","coordinates":[-81.836674824363129,26.477803476648262]},"properties":{"OBJECTID":37,"Name":"US41 @ CONSTITUTION","Address":"18011 S TAMIAMI TRL","City":"FORT MYERS","Zip":" ","COUNTY":"LEE","X":null,"Y":null,"LONGLAT":null,"USNG":null,"OWNERSHIP":null,"PARCELID":null,"FACILITY_TYPE":"LOGISTICAL STAGING AREA","ADDRESSCITYZIP":"18011 S TAMIAMI TRL FORT MYERS , FL  "}},{"type":"Feature","id":38,"geometry":{"type":"Point","coordinates":[-81.902174652011098,26.686869687765071]},"properties":{"OBJECTID":38,"Name":"MERCHANT'S CROSSING","Address":"15201 N CLEVELAND AVE","City":"FORT MYERS","Zip":" ","COUNTY":"LEE","X":null,"Y":null,"LONGLAT":null,"USNG":null,"OWNERSHIP":null,"PARCELID":null,"FACILITY_TYPE":"LOGISTICAL STAGING AREA","ADDRESSCITYZIP":"15201 N CLEVELAND AVE FORT MYERS , FL  "}},{"type":"Feature","id":39,"geometry":{"type":"Point","coordinates":[-81.708105000123751,26.641895999001051]},"properties":{"OBJECTID":39,"Name":"LEE COUNTY MOSQUITO FIELD AREA BASE CAMP-LSA","Address":"15191 HOMESTEAD ROAD","City":"LEHIGH ACRES","Zip":"33971","COUNTY":"LEE","X":-81.708105000000003,"Y":26.641895999999999,"LONGLAT":"-81.70810500,26.64189600","USNG":"17R MK 29522 46968","OWNERSHIP":null,"PARCELID":null,"FACILITY_TYPE":"LOGISTICAL STAGING AREA","ADDRESSCITYZIP":"15191 HOMESTEAD ROAD LEHIGH ACRES , FL 33971"}},{"type":"Feature","id":40,"geometry":{"type":"Point","coordinates":[-81.87661907406104,26.556862631556051]},"properties":{"OBJECTID":40,"Name":"PARAMOUNT TRANSPORTATION LOGISTICS","Address":"7290 COLLEGE PKWY","City":"FORT MYERS","Zip":"33907","COUNTY":"LEE","X":-81.876619070000004,"Y":26.556862630000001,"LONGLAT":"-81.87661907,26.55686263","USNG":"17R MK 12685 37653","OWNERSHIP":null,"PARCELID":null,"FACILITY_TYPE":"LOGISTICAL STAGING AREA","ADDRESSCITYZIP":"7290 COLLEGE PKWY FORT MYERS , FL 33907"}},{"type":"Feature","id":41,"geometry":{"type":"Point","coordinates":[-81.905351128185174,26.724346961014191]},"properties":{"OBJECTID":41,"Name":"PUBLIX NFM","Address":"17940 N TAMIAMI TRL","City":"FORT MYERS","Zip":" ","COUNTY":"LEE","X":null,"Y":null,"LONGLAT":null,"USNG":null,"OWNERSHIP":null,"PARCELID":null,"FACILITY_TYPE":"LOGISTICAL STAGING AREA","ADDRESSCITYZIP":"17940 N TAMIAMI TRL FORT MYERS , FL  "}},{"type":"Feature","id":42,"geometry":{"type":"Point","coordinates":[-81.975985295153421,26.649324781567977]},"properties":{"OBJECTID":42,"Name":"SANTA BARBARA @ PINE  ISLAND ROAD PUBLIX","Address":"30 HANCOCK BRIDGE PKWY W","City":"CAPE CORAL","Zip":" ","COUNTY":"LEE","X":null,"Y":null,"LONGLAT":null,"USNG":null,"OWNERSHIP":null,"PARCELID":null,"FACILITY_TYPE":"LOGISTICAL STAGING AREA","ADDRESSCITYZIP":"30 HANCOCK BRIDGE PKWY W CAPE CORAL , FL  "}},{"type":"Feature","id":43,"geometry":{"type":"Point","coordinates":[-81.76420021982446,26.723023931385857]},"properties":{"OBJECTID":43,"Name":"Lee County Fairground","Address":"11831 BAYSHORE RD","City":"NORTH FORT MYERS","Zip":"33917","COUNTY":"LEE","X":-81.764200220000006,"Y":26.72302393,"LONGLAT":"-81.76420022,26.72302393","USNG":"17R MK 23993 55986","OWNERSHIP":null,"PARCELID":null,"FACILITY_TYPE":"LOGISTICAL STAGING AREA","ADDRESSCITYZIP":"11831 BAYSHORE RD NORTH FORT MYERS , FL 33917"}},{"type":"Feature","id":44,"geometry":{"type":"Point","coordinates":[-81.809534094468319,26.407853308398753]},"properties":{"OBJECTID":44,"Name":"COCONUT POINT MALL","Address":"23106 FASHION DR","City":"ESTERO","Zip":" ","COUNTY":"LEE","X":null,"Y":null,"LONGLAT":null,"USNG":null,"OWNERSHIP":null,"PARCELID":null,"FACILITY_TYPE":"LOGISTICAL STAGING AREA","ADDRESSCITYZIP":"23106 FASHION DR ESTERO , FL  "}},{"type":"Feature","id":45,"geometry":{"type":"Point","coordinates":[-81.708187652673914,26.646078188113648]},"properties":{"OBJECTID":45,"Name":"BUCKINGHAM FIELD","Address":" ","City":"FORT MYERS","Zip":"33905","COUNTY":"LEE","X":-81.708187649999999,"Y":26.646078190000001,"LONGLAT":"-81.70818765,26.64607819","USNG":"17R MK 29517 47431","OWNERSHIP":"MUNICIPAL","PARCELID":"15442601000170110","FACILITY_TYPE":"LOGISTICAL STAGING AREA","ADDRESSCITYZIP":"  FORT MYERS , FL 33905"}},{"type":"Feature","id":46,"geometry":{"type":"Point","coordinates":[-84.354396284029903,30.400719198485323]},"properties":{"OBJECTID":46,"Name":"BUDGET CAR RENTAL","Address":"3300 CAPITAL CIRCLE SW STE 19","City":"TALLAHASSEE","Zip":"32310","COUNTY":"LEON","X":-84.354396280000003,"Y":30.400719200000001,"LONGLAT":"-84.35439628,30.40071920","USNG":"16R GU 54175 66160","OWNERSHIP":"MUNICIPAL","PARCELID":"4107208010000","FACILITY_TYPE":"LOGISTICAL STAGING AREA","ADDRESSCITYZIP":"3300 CAPITAL CIRCLE SW STE 19 TALLAHASSEE , FL 32310"}},{"type":"Feature","id":47,"geometry":{"type":"Point","coordinates":[-84.345034112638004,30.391387091796489]},"properties":{"OBJECTID":47,"Name":"TALLAHASSEE REGIONAL AIRPORT","Address":"3300 CAPITOL CIRCLE SW","City":"TALLAHASSEE","Zip":"32310","COUNTY":"LEON","X":-84.34503411,"Y":30.391387089999998,"LONGLAT":"-84.34503411,30.39138709","USNG":"16R GU 55099 65146","OWNERSHIP":"MUNICIPAL","PARCELID":"4117208010000","FACILITY_TYPE":"LOGISTICAL STAGING AREA","ADDRESSCITYZIP":"3300 CAPITOL CIRCLE SW TALLAHASSEE , FL 32310"}},{"type":"Feature","id":48,"geometry":{"type":"Point","coordinates":[-84.277347935212333,30.404490387218434]},"properties":{"OBJECTID":48,"Name":"NORTH FLORIDA FAIR GROUNDS","Address":"441 PAUL RUSSELL RD","City":"TALLAHASSEE","Zip":"32305","COUNTY":"LEON","X":-84.277347939999999,"Y":30.404490389999999,"LONGLAT":"-84.27734794,30.40449039","USNG":"16R GU 61570 66754","OWNERSHIP":"COUNTY","PARCELID":"4113208530000","FACILITY_TYPE":"LOGISTICAL STAGING AREA","ADDRESSCITYZIP":"441 PAUL RUSSELL RD TALLAHASSEE , FL 32305"}},{"type":"Feature","id":49,"geometry":{"type":"Point","coordinates":[-82.471225682427388,29.358739131939796]},"properties":{"OBJECTID":49,"Name":"WILLISTON MUNICIPAL AIRPORT","Address":"1800 SW 19TH AVE","City":"WILLISTON","Zip":"32696","COUNTY":"LEVY","X":-82.471225680000003,"Y":29.35873913,"LONGLAT":"-82.47122568,29.35873913","USNG":"17R LN 57192 48630","OWNERSHIP":null,"PARCELID":null,"FACILITY_TYPE":"LOGISTICAL STAGING AREA","ADDRESSCITYZIP":"1800 SW 19TH AVE WILLISTON , FL 32696"}},{"type":"Feature","id":50,"geometry":{"type":"Point","coordinates":[-82.630683512237255,29.465267636545143]},"properties":{"OBJECTID":50,"Name":"BRONSON HIGH SCHOOL (NEW)","Address":"8691 NE 90TH ST","City":"BRONSON","Zip":"32621","COUNTY":"LEVY","X":-82.630683509999997,"Y":29.46526764,"LONGLAT":"-82.63068351,29.46526764","USNG":"17R LN 41876 60642","OWNERSHIP":null,"PARCELID":null,"FACILITY_TYPE":"LOGISTICAL STAGING AREA","ADDRESSCITYZIP":"8691 NE 90TH ST BRONSON , FL 32621"}},{"type":"Feature","id":51,"geometry":{"type":"Point","coordinates":[-82.203240218665684,29.179863010566752]},"properties":{"OBJECTID":51,"Name":"K-MART REGIONAL DISTRIBUTION","Address":"655 SW 52ND AVE","City":"OCALA","Zip":"34474","COUNTY":"MARION","X":-82.203240219999998,"Y":29.179863009999998,"LONGLAT":"-82.20324022,29.17986301","USNG":"17R LN 83003 28512","OWNERSHIP":null,"PARCELID":"23320-003-01","FACILITY_TYPE":"LOGISTICAL STAGING AREA","ADDRESSCITYZIP":"655 SW 52ND AVE OCALA , FL 34474"}},{"type":"Feature","id":52,"geometry":{"type":"Point","coordinates":[-82.220729191111573,29.171965025476855]},"properties":{"OBJECTID":52,"Name":"OCALA INTERNATIONAL AIRPORT","Address":"1770 SW 60TH AVE","City":"OCALA","Zip":"34474","COUNTY":"MARION","X":-82.22072919,"Y":29.171965029999999,"LONGLAT":"-82.22072919,29.17196503","USNG":"17R LN 81293 27654","OWNERSHIP":"MUNICIPAL","PARCELID":"23320-000-00","FACILITY_TYPE":"LOGISTICAL STAGING AREA","ADDRESSCITYZIP":"1770 SW 60TH AVE OCALA , FL 34474"}},{"type":"Feature","id":53,"geometry":{"type":"Point","coordinates":[-80.26795799967789,25.909927999369014]},"properties":{"OBJECTID":53,"Name":"OPA LOCKA EXECUTIVE AIRPORT","Address":"14201 NW 42ND AVE","City":"OPA LOCKA","Zip":"33054","COUNTY":"MIAMI-DADE","X":-80.267957999999993,"Y":25.909928000000001,"LONGLAT":"-80.26795800,25.90992800","USNG":"17R NJ 73318 65913","OWNERSHIP":"FEDERAL","PARCELID":"0821200000010","FACILITY_TYPE":"LOGISTICAL STAGING AREA","ADDRESSCITYZIP":"14201 NW 42ND AVE OPA LOCKA , FL 33054"}},{"type":"Feature","id":54,"geometry":{"type":"Point","coordinates":[-80.370450814179151,25.750579851889512]},"properties":{"OBJECTID":54,"Name":"DADE COUNTY FAIRGROUNDS","Address":"10901 CORAL WAY","City":"MIAMI","Zip":"33165","COUNTY":"MIAMI-DADE","X":-80.370450809999994,"Y":25.750579850000001,"LONGLAT":"-80.37045081,25.75057985","USNG":"17R NJ 63137 48213","OWNERSHIP":null,"PARCELID":null,"FACILITY_TYPE":"LOGISTICAL STAGING AREA","ADDRESSCITYZIP":"10901 CORAL WAY MIAMI , FL 33165"}},{"type":"Feature","id":55,"geometry":{"type":"Point","coordinates":[-80.170404831600649,25.775319837821932]},"properties":{"OBJECTID":55,"Name":"PORT OF MIAMI","Address":"1015 N AMERICA WAY","City":"MIAMI","Zip":"33132","COUNTY":"MIAMI-DADE","X":-80.170404829999995,"Y":25.775319840000002,"LONGLAT":"-80.17040483,25.77531984","USNG":"17R NJ 83183 51064","OWNERSHIP":"COUNTY","PARCELID":"0142050000010","FACILITY_TYPE":"LOGISTICAL STAGING AREA","ADDRESSCITYZIP":"1015 N AMERICA WAY MIAMI , FL 33132"}},{"type":"Feature","id":56,"geometry":{"type":"Point","coordinates":[-80.276263888883079,25.798787776755468]},"properties":{"OBJECTID":56,"Name":"MIAMI INTERNATIONAL AIRPORT","Address":"2100 NW 42ND AVE","City":"MIAMI","Zip":"33122","COUNTY":"MIAMI-DADE","X":-80.276263889999996,"Y":25.798787780000001,"LONGLAT":"-80.27626389,25.79878778","USNG":"17R NJ 72553 53600","OWNERSHIP":"COUNTY","PARCELID":"3030360000010","FACILITY_TYPE":"LOGISTICAL STAGING AREA","ADDRESSCITYZIP":"2100 NW 42ND AVE MIAMI , FL 33122"}},{"type":"Feature","id":57,"geometry":{"type":"Point","coordinates":[-80.383666667106525,25.48844166554067]},"properties":{"OBJECTID":57,"Name":"HOMESTEAD AIRPORT","Address":" ","City":"HOMESTEAD","Zip":"33039","COUNTY":"MIAMI-DADE","X":-80.383666669999997,"Y":25.48844167,"LONGLAT":"-80.38366667,25.48844167","USNG":"17R NJ 61946 19177","OWNERSHIP":null,"PARCELID":"3079120000100","FACILITY_TYPE":"LOGISTICAL STAGING AREA","ADDRESSCITYZIP":"  HOMESTEAD , FL 33039"}},{"type":"Feature","id":58,"geometry":{"type":"Point","coordinates":[-80.400399999132674,25.499429998842434]},"properties":{"OBJECTID":58,"Name":"HOMESTEAD AIR RESERVE BASE CAMP-LSA","Address":"360 CORAL SEA BLVD","City":"HOMESTEAD AFB","Zip":"33039","COUNTY":"MIAMI-DADE","X":-80.400400000000005,"Y":25.49943,"LONGLAT":"-80.40040000,25.49943000","USNG":"17R NJ 60259 20386","OWNERSHIP":null,"PARCELID":"3079020000190","FACILITY_TYPE":"LOGISTICAL STAGING AREA","ADDRESSCITYZIP":"360 CORAL SEA BLVD HOMESTEAD AFB , FL 33039"}},{"type":"Feature","id":59,"geometry":{"type":"Point","coordinates":[-81.791896204795719,24.56446524562632]},"properties":{"OBJECTID":59,"Name":"Trumbo Point - Seaplane Base","Address":"Trumbo Point","City":"Key West","Zip":"33040","COUNTY":"MONROE","X":-81.791896199999996,"Y":24.564465250000001,"LONGLAT":"-81.79189620,24.56446525","USNG":"17R MH 19808 16953","OWNERSHIP":null,"PARCELID":null,"FACILITY_TYPE":"LOGISTICAL STAGING AREA","ADDRESSCITYZIP":"Trumbo Point Key West , FL 33040"}},{"type":"Feature","id":60,"geometry":{"type":"Point","coordinates":[-80.421252394171319,25.113442261744954]},"properties":{"OBJECTID":60,"Name":"K Mart Shopping Center","Address":" ","City":"Key Largo","Zip":"33037","COUNTY":"MONROE","X":-80.421252390000006,"Y":25.113442259999999,"LONGLAT":"-80.42125239,25.11344226","USNG":"17R NH 58348 77634","OWNERSHIP":null,"PARCELID":null,"FACILITY_TYPE":"LOGISTICAL STAGING AREA","ADDRESSCITYZIP":"  Key Largo , FL 33037"}},{"type":"Feature","id":61,"geometry":{"type":"Point","coordinates":[-81.738196183413251,24.568110623821177]},"properties":{"OBJECTID":61,"Name":"Dog Track","Address":"3rd Street","City":"Stock Island","Zip":"33040","COUNTY":"MONROE","X":-81.738196180000003,"Y":24.568110619999999,"LONGLAT":"-81.73819618,24.56811062","USNG":"17R MH 25249 17326","OWNERSHIP":null,"PARCELID":null,"FACILITY_TYPE":"LOGISTICAL STAGING AREA","ADDRESSCITYZIP":"3rd Street Stock Island , FL 33040"}},{"type":"Feature","id":62,"geometry":{"type":"Point","coordinates":[-81.355843610128119,24.669657095843302]},"properties":{"OBJECTID":62,"Name":"BIG PINE KEY BASE CAMP","Address":"450 KEY DEER BLCD","City":"BIG PINE KEY","Zip":"33043","COUNTY":"MONROE","X":-81.355843609999994,"Y":24.669657099999998,"LONGLAT":"-81.35584361,24.66965710","USNG":"17R MH 63996 28416","OWNERSHIP":null,"PARCELID":null,"FACILITY_TYPE":"LOGISTICAL STAGING AREA","ADDRESSCITYZIP":"450 KEY DEER BLCD BIG PINE KEY , FL 33043"}},{"type":"Feature","id":63,"geometry":{"type":"Point","coordinates":[-81.76522689803268,24.562630844453352]},"properties":{"OBJECTID":63,"Name":"WICKER'S FIELD ESA","Address":"FLAGLER BETWEEN KENNEDY AND GLEN ARCHER","City":"KEY WEST","Zip":"33041","COUNTY":"MONROE","X":-81.765226900000002,"Y":24.562630850000001,"LONGLAT":"-81.76522690,24.56263085","USNG":"17R MH 22508 16735","OWNERSHIP":null,"PARCELID":null,"FACILITY_TYPE":"LOGISTICAL STAGING AREA","ADDRESSCITYZIP":"FLAGLER BETWEEN KENNEDY AND GLEN ARCHER KEY WEST , FL 33041"}},{"type":"Feature","id":64,"geometry":{"type":"Point","coordinates":[-81.800000000090591,24.561748999096714]},"properties":{"OBJECTID":64,"Name":"KEY WEST BIGHT PARKING AREA","Address":"WEST END OF MARGARET ST","City":"KEY WEST","Zip":"33040","COUNTY":"MONROE","X":-81.799999999999997,"Y":24.561748999999999,"LONGLAT":"-81.80000000,24.56174900","USNG":"17R MH 18986 16657","OWNERSHIP":null,"PARCELID":"3167 25 00072082004506","FACILITY_TYPE":"LOGISTICAL STAGING AREA","ADDRESSCITYZIP":"WEST END OF MARGARET ST KEY WEST , FL 33040"}},{"type":"Feature","id":65,"geometry":{"type":"Point","coordinates":[-80.423318521978558,25.111526644781069]},"properties":{"OBJECTID":65,"Name":"FRIENDSHIP PARK SITE","Address":"HIBISCUS LANE","City":"KEY LARGO","Zip":"33037","COUNTY":"MONROE","X":-80.423318519999995,"Y":25.111526649999998,"LONGLAT":"-80.42331852,25.11152665","USNG":"17R NH 58140 77421","OWNERSHIP":null,"PARCELID":"2761 39 00507740000000","FACILITY_TYPE":"LOGISTICAL STAGING AREA","ADDRESSCITYZIP":"HIBISCUS LANE KEY LARGO , FL 33037"}},{"type":"Feature","id":66,"geometry":{"type":"Point","coordinates":[-81.769699000206501,24.556608999824739]},"properties":{"OBJECTID":66,"Name":"SALT PONDS BUNKER AREA","Address":"GOVERNMENT ROAD","City":"KEY WEST","Zip":"33040","COUNTY":"MONROE","X":-81.769699000000003,"Y":24.556609000000002,"LONGLAT":"-81.76969900,24.55660900","USNG":"17R MH 22051 16070","OWNERSHIP":null,"PARCELID":"0468 25 00064850000100","FACILITY_TYPE":"LOGISTICAL STAGING AREA","ADDRESSCITYZIP":"GOVERNMENT ROAD KEY WEST , FL 33040"}},{"type":"Feature","id":67,"geometry":{"type":"Point","coordinates":[-80.538009393120433,24.993983138752789]},"properties":{"OBJECTID":67,"Name":"CORAL SHORES HIGH SCHOOL","Address":"89901 OVERSEAS HWY","City":"TAVERNIER","Zip":"33070","COUNTY":"MONROE","X":-80.538009389999999,"Y":24.993983140000001,"LONGLAT":"-80.53800939,24.99398314","USNG":"17R NH 46621 64360","OWNERSHIP":null,"PARCELID":"0563 38 00418340000000","FACILITY_TYPE":"LOGISTICAL STAGING AREA","ADDRESSCITYZIP":"89901 OVERSEAS HWY TAVERNIER , FL 33070"}},{"type":"Feature","id":68,"geometry":{"type":"Point","coordinates":[-81.788427423894532,24.557455386323237]},"properties":{"OBJECTID":68,"Name":"Jose Marti Park","Address":"Roosevelt Blvd & Jose Marti Dr","City":"Key West","Zip":"33040","COUNTY":"MONROE","X":-81.788427420000005,"Y":24.557455390000001,"LONGLAT":"-81.78842742,24.55745539","USNG":"17R MH 20155 16175","OWNERSHIP":null,"PARCELID":null,"FACILITY_TYPE":"LOGISTICAL STAGING AREA","ADDRESSCITYZIP":"Roosevelt Blvd & Jose Marti Dr Key West , FL 33040"}},{"type":"Feature","id":69,"geometry":{"type":"Point","coordinates":[-81.76676925251634,24.565445414511593]},"properties":{"OBJECTID":69,"Name":"NEEDS REVIEW","Address":"KENNEDY DR","City":"KEY WEST","Zip":"33040","COUNTY":"MONROE","X":-81.766769249999996,"Y":24.56544542,"LONGLAT":"-81.76676925,24.56544542","USNG":"17R MH 22354 17047","OWNERSHIP":"COUNTY","PARCELID":"3367 25 00065790000000","FACILITY_TYPE":"LOGISTICAL STAGING AREA","ADDRESSCITYZIP":"KENNEDY DR KEY WEST , FL 33040"}},{"type":"Feature","id":70,"geometry":{"type":"Point","coordinates":[-81.027147550821908,24.730316834014531]},"properties":{"OBJECTID":70,"Name":"SAN PABLO CATHOLIC CHURCH FIELD","Address":"550 122ND ST OCEAN","City":"MARATHON","Zip":"33050","COUNTY":"MONROE","X":-81.027147549999995,"Y":24.73031683,"LONGLAT":"-81.02714755,24.73031683","USNG":"17R MH 97254 35086","OWNERSHIP":null,"PARCELID":"0566 33 00100450000000","FACILITY_TYPE":"LOGISTICAL STAGING AREA","ADDRESSCITYZIP":"550 122ND ST OCEAN MARATHON , FL 33050"}},{"type":"Feature","id":71,"geometry":{"type":"Point","coordinates":[-80.523127819738775,25.00433020411662]},"properties":{"OBJECTID":71,"Name":"TAVERNIER TOWNE PARKING LOT","Address":"91200 OVERSEAS HWY","City":"TAVERNIER","Zip":"33070","COUNTY":"MONROE","X":-80.523127819999999,"Y":25.004330199999998,"LONGLAT":"-80.52312782,25.00433020","USNG":"17R NH 48119 65511","OWNERSHIP":null,"PARCELID":"3362 38 00089910000100","FACILITY_TYPE":"LOGISTICAL STAGING AREA","ADDRESSCITYZIP":"91200 OVERSEAS HWY TAVERNIER , FL 33070"}},{"type":"Feature","id":72,"geometry":{"type":"Point","coordinates":[-81.11919776481723,24.706718427137439]},"properties":{"OBJECTID":72,"Name":"KNIGHT'S KEY CAMPGROUND FIELD","Address":"KNIGHT'S KEY","City":"MARATHON","Zip":"33050","COUNTY":"MONROE","X":-81.119197760000006,"Y":24.706718429999999,"LONGLAT":"-81.11919776,24.70671843","USNG":"17R MH 87943 32478","OWNERSHIP":null,"PARCELID":"0866 32 00101800000000","FACILITY_TYPE":"LOGISTICAL STAGING AREA","ADDRESSCITYZIP":"KNIGHT'S KEY MARATHON , FL 33050"}},{"type":"Feature","id":73,"geometry":{"type":"Point","coordinates":[-81.074402017720729,24.716116934381052]},"properties":{"OBJECTID":73,"Name":"KMART PARKING LOT","Address":"5575 OVERSEAS HWY","City":"MARATHON","Zip":"33050","COUNTY":"MONROE","X":-81.074402019999994,"Y":24.716116939999999,"LONGLAT":"-81.07440202,24.71611694","USNG":"17R MH 92474 33516","OWNERSHIP":null,"PARCELID":"1166 32 00103660000000","FACILITY_TYPE":"LOGISTICAL STAGING AREA","ADDRESSCITYZIP":"5575 OVERSEAS HWY MARATHON , FL 33050"}},{"type":"Feature","id":74,"geometry":{"type":"Point","coordinates":[-81.776636115702729,24.579938335326254]},"properties":{"OBJECTID":74,"Name":"SIGSBEE PARK & COMMUNITY CENTER","Address":"SIGSBEE BLVD & ARTHUR SAWYER","City":"KEY WEST","Zip":"33040","COUNTY":"MONROE","X":-81.776636120000006,"Y":24.579938340000002,"LONGLAT":"-81.77663612,24.57993834","USNG":"17R MH 21363 18657","OWNERSHIP":"FEDERAL","PARCELID":"2867 25 00002310000000","FACILITY_TYPE":"LOGISTICAL STAGING AREA","ADDRESSCITYZIP":"SIGSBEE BLVD & ARTHUR SAWYER KEY WEST , FL 33040"}},{"type":"Feature","id":75,"geometry":{"type":"Point","coordinates":[-81.789098000240315,24.556499999112091]},"properties":{"OBJECTID":75,"Name":"JOSE MARTI PARK","Address":"ROOSEVELT BLVD & JOSE MARTI D","City":"KEY WEST","Zip":"33040","COUNTY":"MONROE","X":-81.789097999999996,"Y":24.5565,"LONGLAT":"-81.78909800,24.55650000","USNG":"17R MH 20087 16069","OWNERSHIP":"MUNICIPAL","PARCELID":"0568 25 00033910000000","FACILITY_TYPE":"LOGISTICAL STAGING AREA","ADDRESSCITYZIP":"ROOSEVELT BLVD & JOSE MARTI D KEY WEST , FL 33040"}},{"type":"Feature","id":76,"geometry":{"type":"Point","coordinates":[-80.568116410448638,24.961438683160676]},"properties":{"OBJECTID":76,"Name":"FOUNDER'S PARK","Address":"87000 OVERSEAS HWY","City":"ISLAMORADA","Zip":"33036","COUNTY":"MONROE","X":-80.568116410000002,"Y":24.961438680000001,"LONGLAT":"-80.56811641,24.96143868","USNG":"17R NH 43595 60747","OWNERSHIP":"MUNICIPAL","PARCELID":"1863 38 00093330000100","FACILITY_TYPE":"LOGISTICAL STAGING AREA","ADDRESSCITYZIP":"87000 OVERSEAS HWY ISLAMORADA , FL 33036"}},{"type":"Feature","id":77,"geometry":{"type":"Point","coordinates":[-81.049640441484144,24.725544519450775]},"properties":{"OBJECTID":77,"Name":"MARATHON AIRPORT","Address":"9400 OVERSEAS HWY","City":"MARATHON","Zip":"33050","COUNTY":"MONROE","X":-81.049640440000005,"Y":24.72554452,"LONGLAT":"-81.04964044,24.72554452","USNG":"17R MH 94979 34559","OWNERSHIP":"COUNTY","PARCELID":"0166 32 00101160000000","FACILITY_TYPE":"LOGISTICAL STAGING AREA","ADDRESSCITYZIP":"9400 OVERSEAS HWY MARATHON , FL 33050"}},{"type":"Feature","id":78,"geometry":{"type":"Point","coordinates":[-86.521876575944518,30.777428872140856]},"properties":{"OBJECTID":78,"Name":"BOB SIKES AIRPORT","Address":" ","City":"CRESTVIEW","Zip":"32539","COUNTY":"OKALOOSA","X":-86.521876579999997,"Y":30.777428870000001,"LONGLAT":"-86.52187658,30.77742887","USNG":"16R EV 45750 05033","OWNERSHIP":"COUNTY","PARCELID":"11-3N-23-0000-0003-0000","FACILITY_TYPE":"LOGISTICAL STAGING AREA","ADDRESSCITYZIP":"  CRESTVIEW , FL 32539"}},{"type":"Feature","id":79,"geometry":{"type":"Point","coordinates":[-86.521876575944518,30.777428872140856]},"properties":{"OBJECTID":79,"Name":"BOB SIKES AIRPORT","Address":" ","City":"CRESTVIEW","Zip":"32539","COUNTY":"OKALOOSA","X":-86.521876579999997,"Y":30.777428870000001,"LONGLAT":"-86.52187658,30.77742887","USNG":"16R EV 45750 05033","OWNERSHIP":"COUNTY","PARCELID":"11-3N-23-0000-0003-0000","FACILITY_TYPE":"LOGISTICAL STAGING AREA","ADDRESSCITYZIP":"  CRESTVIEW , FL 32539"}},{"type":"Feature","id":80,"geometry":{"type":"Point","coordinates":[-86.521876575944518,30.777428872140856]},"properties":{"OBJECTID":80,"Name":"BOB SIKES AIRPORT","Address":" ","City":"CRESTVIEW","Zip":"32539","COUNTY":"OKALOOSA","X":-86.521876579999997,"Y":30.777428870000001,"LONGLAT":"-86.52187658,30.77742887","USNG":"16R EV 45750 05033","OWNERSHIP":"COUNTY","PARCELID":"11-3N-23-0000-0003-0000","FACILITY_TYPE":"LOGISTICAL STAGING AREA","ADDRESSCITYZIP":"  CRESTVIEW , FL 32539"}},{"type":"Feature","id":81,"geometry":{"type":"Point","coordinates":[-81.335139293056002,28.548800876090013]},"properties":{"OBJECTID":81,"Name":"ORLANDO EXECUTIVE AIRPORT","Address":"501 HERNDON AVE","City":"ORLANDO","Zip":"32803","COUNTY":"ORANGE","X":-81.335139290000001,"Y":28.548800880000002,"LONGLAT":"-81.33513929,28.54880088","USNG":"17R MM 67216 58044","OWNERSHIP":null,"PARCELID":"302229000000016","FACILITY_TYPE":"LOGISTICAL STAGING AREA","ADDRESSCITYZIP":"501 HERNDON AVE ORLANDO , FL 32803"}},{"type":"Feature","id":82,"geometry":{"type":"Point","coordinates":[-81.458646349739439,28.430212289806619]},"properties":{"OBJECTID":82,"Name":"ORANGE COUNTY CONVENTION CENTER LSA","Address":"9400 UNIVERSAL BLVD","City":"ORLANDO","Zip":"32819","COUNTY":"ORANGE","X":-81.458646349999995,"Y":28.43021229,"LONGLAT":"-81.45864635,28.43021229","USNG":"17R MM 55084 44946","OWNERSHIP":"COUNTY","PARCELID":"282401000000007","FACILITY_TYPE":"LOGISTICAL STAGING AREA","ADDRESSCITYZIP":"9400 UNIVERSAL BLVD ORLANDO , FL 32819"}},{"type":"Feature","id":83,"geometry":{"type":"Point","coordinates":[-81.440061207890025,28.553650265372617]},"properties":{"OBJECTID":83,"Name":"ORANGE COUNTY FAIRGROUNDS","Address":"4603 W COLONIAL DR","City":"ORLANDO","Zip":"32808","COUNTY":"ORANGE","X":-81.440061209999996,"Y":28.553650269999999,"LONGLAT":"-81.44006121,28.55365027","USNG":"17R MM 56955 58614","OWNERSHIP":null,"PARCELID":"292220000000042","FACILITY_TYPE":"LOGISTICAL STAGING AREA","ADDRESSCITYZIP":"4603 W COLONIAL DR ORLANDO , FL 32808"}},{"type":"Feature","id":84,"geometry":{"type":"Point","coordinates":[-81.421189842116817,28.458418583913925]},"properties":{"OBJECTID":84,"Name":"STATE LOGISTICS RESPONSE CENTER","Address":"2702 DIRECTORS ROW","City":"ORLANDO","Zip":"32809","COUNTY":"ORANGE","X":-81.421189839999997,"Y":28.45841858,"LONGLAT":"-81.42118984,28.45841858","USNG":"17R MM 58763 48057","OWNERSHIP":null,"PARCELID":null,"FACILITY_TYPE":"LOGISTICAL STAGING AREA","ADDRESSCITYZIP":"2702 DIRECTORS ROW ORLANDO , FL 32809"}},{"type":"Feature","id":85,"geometry":{"type":"Point","coordinates":[-80.190264210720485,26.681668087621965]},"properties":{"OBJECTID":85,"Name":"WEST PALM BEACH COUNTY FAIRGROUNDS","Address":"9067 SOUTHERN BLVD","City":"WEST PALM BEACH","Zip":"33411","COUNTY":"PALM BEACH","X":null,"Y":null,"LONGLAT":null,"USNG":null,"OWNERSHIP":null,"PARCELID":null,"FACILITY_TYPE":"LOGISTICAL STAGING AREA","ADDRESSCITYZIP":"9067 SOUTHERN BLVD WEST PALM BEACH , FL 33411"}},{"type":"Feature","id":86,"geometry":{"type":"Point","coordinates":[-80.189632317330052,26.68578871639459]},"properties":{"OBJECTID":86,"Name":"SOUTH FLORIDA FAIRGROUNDS","Address":"9067 SOUTHERN BLVD","City":"WEST PALM BEACH","Zip":"33411","COUNTY":"PALM BEACH","X":-80.189632320000001,"Y":26.685788720000001,"LONGLAT":"-80.18963232,26.68578872","USNG":"17R NK 80624 51890","OWNERSHIP":null,"PARCELID":"00424406030001130","FACILITY_TYPE":"LOGISTICAL STAGING AREA","ADDRESSCITYZIP":"9067 SOUTHERN BLVD WEST PALM BEACH , FL 33411"}},{"type":"Feature","id":87,"geometry":{"type":"Point","coordinates":[-80.094444000142929,26.785829999036839]},"properties":{"OBJECTID":87,"Name":"PALM BEACH INTERNATIONAL AIRPORT","Address":"1000 PALM BEACH INTERNATIONAL B","City":"WEST PALM BEACH","Zip":"33404","COUNTY":"PALM BEACH","X":-80.094443999999996,"Y":26.785830000000001,"LONGLAT":"-80.09444400,26.78583000","USNG":"17R NK 90016 63034","OWNERSHIP":null,"PARCELID":"56434230320000000","FACILITY_TYPE":"LOGISTICAL STAGING AREA","ADDRESSCITYZIP":"1000 PALM BEACH INTERNATIONAL B WEST PALM BEACH , FL 33404"}},{"type":"Feature","id":88,"geometry":{"type":"Point","coordinates":[-80.303632001968069,26.904274401966727]},"properties":{"OBJECTID":88,"Name":"PRATT & WHITNEY AIRCRAFT MANUFACTURING","Address":"17900 BEE LINE HIGHWAY","City":"WEST PALM BEACH","Zip":"33412","COUNTY":"PALM BEACH","X":-80.303631999999993,"Y":26.904274399999998,"LONGLAT":"-80.30363200,26.90427440","USNG":"17R NK 69149 76022","OWNERSHIP":null,"PARCELID":"00404103000009020","FACILITY_TYPE":"LOGISTICAL STAGING AREA","ADDRESSCITYZIP":"17900 BEE LINE HIGHWAY WEST PALM BEACH , FL 33412"}},{"type":"Feature","id":89,"geometry":{"type":"Point","coordinates":[-82.015928404550053,27.992586406555521]},"properties":{"OBJECTID":89,"Name":"LAKELAND LINDER REGIONAL AIRPORT","Address":"3400 AIRFIELD DRIVE W","City":"LAKELAND","Zip":"33811","COUNTY":"POLK","X":-82.015928400000007,"Y":27.992586410000001,"LONGLAT":"-82.01592840,27.99258641","USNG":"17R ML 00101 96796","OWNERSHIP":"MUNICIPAL","PARCELID":"232904000000011010","FACILITY_TYPE":"LOGISTICAL STAGING AREA","ADDRESSCITYZIP":"3400 AIRFIELD DRIVE W LAKELAND , FL 33811"}},{"type":"Feature","id":90,"geometry":{"type":"Point","coordinates":[-82.316034221822065,27.042333573637485]},"properties":{"OBJECTID":90,"Name":"MANATEE COMMUNITY COLLEGE - VENICE","Address":"8000 TAMIAMI TRL","City":"ENGLEWOOD","Zip":"34223","COUNTY":"SARASOTA","X":-82.316034220000006,"Y":27.04233357,"LONGLAT":"-82.31603422,27.04233357","USNG":"17R LK 69471 91805","OWNERSHIP":"STATE","PARCELID":"0785-00-2000","FACILITY_TYPE":"LOGISTICAL STAGING AREA","ADDRESSCITYZIP":"8000 TAMIAMI TRL ENGLEWOOD , FL 34223"}},{"type":"Feature","id":91,"geometry":{"type":"Point","coordinates":[-82.440199502088873,27.072141557668637]},"properties":{"OBJECTID":91,"Name":"VENICE MUNICIPAL AIRPORT","Address":"150 E AIRPORT AVE","City":"VENICE","Zip":"34285","COUNTY":"SARASOTA","X":-82.440199500000006,"Y":27.072141559999999,"LONGLAT":"-82.44019950,27.07214156","USNG":"17R LK 57192 95242","OWNERSHIP":"MUNICIPAL","PARCELID":"0431-06-0001","FACILITY_TYPE":"LOGISTICAL STAGING AREA","ADDRESSCITYZIP":"150 E AIRPORT AVE VENICE , FL 34285"}},{"type":"Feature","id":92,"geometry":{"type":"Point","coordinates":[-82.20558944567307,27.073940049355532]},"properties":{"OBJECTID":92,"Name":"GEORGE MULLEN COMMUNITY CENTER","Address":"3001 CITY CENTER BLVD","City":"NORTH PORT","Zip":"34286","COUNTY":"SARASOTA","X":-82.205589450000005,"Y":27.073940050000001,"LONGLAT":"-82.20558945,27.07394005","USNG":"17R LK 80460 95197","OWNERSHIP":"MUNICIPAL","PARCELID":"0977-00-1030","FACILITY_TYPE":"LOGISTICAL STAGING AREA","ADDRESSCITYZIP":"3001 CITY CENTER BLVD NORTH PORT , FL 34286"}},{"type":"Feature","id":93,"geometry":{"type":"Point","coordinates":[-82.438096999558482,27.266287998747128]},"properties":{"OBJECTID":93,"Name":"TWIN LAKES PARK","Address":"6700 CLARK RD","City":"SARASOTA","Zip":"34241","COUNTY":"SARASOTA","X":-82.438096999999999,"Y":27.266287999999999,"LONGLAT":"-82.43809700,27.26628800","USNG":"17R LL 57647 16748","OWNERSHIP":"SPECIAL TAXING DISTRICT","PARCELID":"0285-01-0001","FACILITY_TYPE":"LOGISTICAL STAGING AREA","ADDRESSCITYZIP":"6700 CLARK RD SARASOTA , FL 34241"}},{"type":"Feature","id":94,"geometry":{"type":"Point","coordinates":[-82.481823509406581,27.273732353604395]},"properties":{"OBJECTID":94,"Name":"SCAT","Address":"5303 PINKNEY AVE","City":"SARASOTA","Zip":"34233","COUNTY":"SARASOTA","X":-82.481823509999998,"Y":27.27373235,"LONGLAT":"-82.48182351,27.27373235","USNG":"17R LL 53328 17623","OWNERSHIP":"SPECIAL TAXING DISTRICT","PARCELID":"0090-01-0005","FACILITY_TYPE":"LOGISTICAL STAGING AREA","ADDRESSCITYZIP":"5303 PINKNEY AVE SARASOTA , FL 34233"}},{"type":"Feature","id":95,"geometry":{"type":"Point","coordinates":[-82.502480418401845,27.286091446835105]},"properties":{"OBJECTID":95,"Name":"SCTI","Address":"PROCTOR AND BENEVA RD","City":"SARASOTA","Zip":"34231","COUNTY":"SARASOTA","X":-82.502480419999998,"Y":27.286091450000001,"LONGLAT":"-82.50248042,27.28609145","USNG":"17R LL 51300 19017","OWNERSHIP":"COUNTY","PARCELID":"0073-09-0001","FACILITY_TYPE":"LOGISTICAL STAGING AREA","ADDRESSCITYZIP":"PROCTOR AND BENEVA RD SARASOTA , FL 34231"}},{"type":"Feature","id":96,"geometry":{"type":"Point","coordinates":[-82.404069999587563,27.350514999767899]},"properties":{"OBJECTID":96,"Name":"BOB","Address":"1001 SARASOTA CTR BLVD","City":"SARASOTA","Zip":"34240","COUNTY":"SARASOTA","X":-82.404070000000004,"Y":27.350515000000001,"LONGLAT":"-82.40407000,27.35051500","USNG":"17R LL 61121 26040","OWNERSHIP":"SPECIAL TAXING DISTRICT","PARCELID":"0209-15-0004","FACILITY_TYPE":"LOGISTICAL STAGING AREA","ADDRESSCITYZIP":"1001 SARASOTA CTR BLVD SARASOTA , FL 34240"}},{"type":"Feature","id":97,"geometry":{"type":"Point","coordinates":[-82.410185000638265,27.143602999675597]},"properties":{"OBJECTID":97,"Name":"PGT COMMERCIAL PARK","Address":"1070 TECHNOLOGY DR","City":"NOKOMIS","Zip":"34275","COUNTY":"SARASOTA","X":-82.410184999999998,"Y":27.143602999999999,"LONGLAT":"-82.41018500,27.14360300","USNG":"17R LL 60258 03125","OWNERSHIP":null,"PARCELID":"0378-02-0001","FACILITY_TYPE":"LOGISTICAL STAGING AREA","ADDRESSCITYZIP":"1070 TECHNOLOGY DR NOKOMIS , FL 34275"}},{"type":"Feature","id":98,"geometry":{"type":"Point","coordinates":[-82.383665999435252,27.106556999026168]},"properties":{"OBJECTID":98,"Name":"RACETRACT GAS STATION","Address":"2995 EXECUTIVE DR","City":"VENICE","Zip":"34292","COUNTY":"SARASOTA","X":-82.383666000000005,"Y":27.106556999999999,"LONGLAT":"-82.38366600,27.10655700","USNG":"17R LK 62841 98992","OWNERSHIP":null,"PARCELID":"0398-13-1001","FACILITY_TYPE":"LOGISTICAL STAGING AREA","ADDRESSCITYZIP":"2995 EXECUTIVE DR VENICE , FL 34292"}},{"type":"Feature","id":99,"geometry":{"type":"Point","coordinates":[-82.424827441670701,27.134827718823352]},"properties":{"OBJECTID":99,"Name":"LAURAL NOKOMIS MIDDLE SCHOOL","Address":"1900 E LAUREL RD","City":"NOKOMIS","Zip":"34275","COUNTY":"SARASOTA","X":-82.424827440000001,"Y":27.134827720000001,"LONGLAT":"-82.42482744,27.13482772","USNG":"17R LL 58795 02169","OWNERSHIP":"COUNTY","PARCELID":"0385-03-0001","FACILITY_TYPE":"LOGISTICAL STAGING AREA","ADDRESSCITYZIP":"1900 E LAUREL RD NOKOMIS , FL 34275"}},{"type":"Feature","id":100,"geometry":{"type":"Point","coordinates":[-83.00690384013167,30.292342095905845]},"properties":{"OBJECTID":100,"Name":"SUWANNEE COUNTY COLLISEUM COMPLEX","Address":"1302 SW 11TH ST","City":"LIVE OAK","Zip":"32064","COUNTY":"SUWANNEE","X":-83.006903840000007,"Y":30.292342099999999,"LONGLAT":"-83.00690384,30.29234210","USNG":"17R LP 06989 52885","OWNERSHIP":"COUNTY","PARCELID":"2202S13E05332000000","FACILITY_TYPE":"LOGISTICAL STAGING AREA","ADDRESSCITYZIP":"1302 SW 11TH ST LIVE OAK , FL 32064"}},{"type":"Feature","id":101,"geometry":{"type":"Point","coordinates":[-83.569331911450888,30.079596364121038]},"properties":{"OBJECTID":101,"Name":"FOREST CAPITAL HALL","Address":"203 FOREST PARK DR","City":"PERRY","Zip":"32348","COUNTY":"TAYLOR","X":-83.569331910000002,"Y":30.07959636,"LONGLAT":"-83.56933191,30.07959636","USNG":"17R KP 52350 30389","OWNERSHIP":"COUNTY","PARCELID":"06050808424100","FACILITY_TYPE":"LOGISTICAL STAGING AREA","ADDRESSCITYZIP":"203 FOREST PARK DR PERRY , FL 32348"}}]}