{"type":"FeatureCollection","features":[{"type":"Feature","id":1,"geometry":{"type":"Point","coordinates":[-85.750600000012653,30.201399999216889]},"properties":{"OBJECTID":1,"Name":"Bayside Marina of Panama City Beach","Address":"6327 Big Daddy Drive","City":"PANAMA CITY BEACH","Zip":"32407","COUNTY":"BAY","Notes":"BY00221EX","X":-85.750600000000006,"Y":30.2014,"USNG":"16R FU 20262 41762","SURGE_ZONE":"2","PARCELID":null,"FACILITY_TYPE":"MARINA"}},{"type":"Feature","id":2,"geometry":{"type":"Point","coordinates":[-82.055100000614303,29.740999999117058]},"properties":{"OBJECTID":2,"Name":"Camp Mckinney","Address":"572 Se 16th St/73rd","City":"MELROSE","Zip":"32666","COUNTY":"BRADFORD","Notes":"BD10010DY","X":-82.055099999999996,"Y":29.741,"USNG":"17R LN 97971 90552","SURGE_ZONE":null,"PARCELID":null,"FACILITY_TYPE":"MARINA"}},{"type":"Feature","id":3,"geometry":{"type":"Point","coordinates":[-80.809849999742383,28.622079999123368]},"properties":{"OBJECTID":3,"Name":"Titusville Marina Park","Address":"501 Marina Road","City":"TITUSVILLE","Zip":"32796","COUNTY":"BREVARD","Notes":"BV70018JF; ALSO WASTE DEBRIS STAGING AREA","X":-80.809849999999997,"Y":28.62208,"USNG":"17R NM 18587 66131","SURGE_ZONE":"1","PARCELID":null,"FACILITY_TYPE":"MARINA"}},{"type":"Feature","id":4,"geometry":{"type":"Point","coordinates":[-80.503999999597951,27.934099999581001]},"properties":{"OBJECTID":4,"Name":"Honest Johns Fish Camp","Address":"750 Old Florida Trail","City":"MELBOURNE BEACH","Zip":"32951","COUNTY":"BREVARD","Notes":"BV00858KJ","X":-80.504000000000005,"Y":27.934100000000001,"USNG":"17R NL 48797 90001","SURGE_ZONE":null,"PARCELID":null,"FACILITY_TYPE":"MARINA"}},{"type":"Feature","id":5,"geometry":{"type":"Point","coordinates":[-80.493700000027189,27.855599999173428]},"properties":{"OBJECTID":5,"Name":"San Sebastian Marina","Address":"4015 Main St","City":"SEBASTIAN","Zip":"32976","COUNTY":"BREVARD","Notes":"BV00734TH","X":-80.493700000000004,"Y":27.855599999999999,"USNG":"17R NL 49847 81309","SURGE_ZONE":"1","PARCELID":null,"FACILITY_TYPE":"MARINA"}},{"type":"Feature","id":6,"geometry":{"type":"Point","coordinates":[-80.459300000028762,27.874499999151062]},"properties":{"OBJECTID":6,"Name":"Sebastian Inlet State Park - Inlet Marina","Address":"9502 South Highway A1A","City":"MELBOURNE BEACH","Zip":"32951","COUNTY":"BREVARD","Notes":"BV00828UO","X":-80.459299999999999,"Y":27.874500000000001,"USNG":"17R NL 53224 83417","SURGE_ZONE":"1","PARCELID":null,"FACILITY_TYPE":"MARINA"}},{"type":"Feature","id":7,"geometry":{"type":"Point","coordinates":[-80.111162317563455,26.091325769460997]},"properties":{"OBJECTID":7,"Name":"NOVA SOUTHEASTERN UNIVERSITY OCEANOGRAPHIC CTR BOAT BASIN","Address":"8000 NORTH OCEAN DRIVE.","City":"HOLLYWOOD","Zip":" ","COUNTY":"BROWARD","Notes":"MOORING OCEANOGRAPHIC-RESEARCH VESSELS AND SMALL CRAFT.","X":-80.111162320000005,"Y":26.091325770000001,"USNG":"17R NJ 88886 86100","SURGE_ZONE":null,"PARCELID":null,"FACILITY_TYPE":"MARINA"}},{"type":"Feature","id":8,"geometry":{"type":"Point","coordinates":[-80.110299999520791,26.089869999126314]},"properties":{"OBJECTID":8,"Name":"US COAST GUARD STN FORT LAUDERDALE","Address":"","City":" ","Zip":" ","COUNTY":"BROWARD","Notes":"Exit","X":-80.110299999999995,"Y":26.089870000000001,"USNG":"17R NJ 88973 85940","SURGE_ZONE":null,"PARCELID":"504224000011","FACILITY_TYPE":"MARINA"}},{"type":"Feature","id":9,"geometry":{"type":"Point","coordinates":[-80.109170000370611,26.091680000024027]},"properties":{"OBJECTID":9,"Name":"NAVSEA WARFARE CENTER FT LAUDERDALE","Address":"","City":" ","Zip":" ","COUNTY":"BROWARD","Notes":"Exit","X":-80.109170000000006,"Y":26.09168,"USNG":"17R NJ 89085 86141","SURGE_ZONE":"5","PARCELID":"504224000010","FACILITY_TYPE":"MARINA"}},{"type":"Feature","id":10,"geometry":{"type":"Point","coordinates":[-82.269848533153024,26.830217735573971]},"properties":{"OBJECTID":10,"Name":"Eldred's Marina Commercial Ramp","Address":"Gasparilla Road","City":"PLACIDA","Zip":"33946","COUNTY":"CHARLOTTE","Notes":"CH00265CK","X":-82.269848530000004,"Y":26.830217739999998,"USNG":"17R LK 73816 68261","SURGE_ZONE":null,"PARCELID":null,"FACILITY_TYPE":"MARINA"}},{"type":"Feature","id":11,"geometry":{"type":"Point","coordinates":[-82.59257000067231,28.882929999645807]},"properties":{"OBJECTID":11,"Name":"Dive Shop At The Port Hotel & Marina (Call ahead to be sure ramp and parking are available)","Address":"1610 SE Paradise Circle","City":"CRYSTAL RIVER","Zip":"34429","COUNTY":"CITRUS","Notes":"CI00050YG","X":-82.592569999999995,"Y":28.882930000000002,"USNG":"17R LM 44698 96058","SURGE_ZONE":"T","PARCELID":null,"FACILITY_TYPE":"MARINA"}},{"type":"Feature","id":12,"geometry":{"type":"Point","coordinates":[-82.59704000003893,28.893809999087178]},"properties":{"OBJECTID":12,"Name":"Pete's Pier Marina","Address":"1 SW 1st Place","City":"CRYSTAL RIVER","Zip":"34429","COUNTY":"CITRUS","Notes":"CI00012EE","X":-82.597040000000007,"Y":28.893809999999998,"USNG":"17R LM 44278 97269","SURGE_ZONE":"T","PARCELID":null,"FACILITY_TYPE":"MARINA"}},{"type":"Feature","id":13,"geometry":{"type":"Point","coordinates":[-81.707899999382832,30.039299998940184]},"properties":{"OBJECTID":13,"Name":"Knight's Boat Ramp and Marina Facility on Black Creek - FWC # WB-34","Address":"1472 River Lane","City":"GREEN COVE SPRINGS","Zip":"32043","COUNTY":"CLAY","Notes":"CL00784HH","X":-81.707899999999995,"Y":30.039300000000001,"USNG":"17R MP 31750 23351","SURGE_ZONE":"2","PARCELID":null,"FACILITY_TYPE":"MARINA"}},{"type":"Feature","id":14,"geometry":{"type":"Point","coordinates":[-81.780500000115552,26.139399999277146]},"properties":{"OBJECTID":14,"Name":"Brookside Marina","Address":"2023 Davis Boulevard","City":"NAPLES","Zip":"33942","COUNTY":"COLLIER","Notes":"CO00361QW","X":-81.780500000000004,"Y":26.139399999999998,"USNG":"17R MJ 21980 91355","SURGE_ZONE":null,"PARCELID":null,"FACILITY_TYPE":"MARINA"}},{"type":"Feature","id":15,"geometry":{"type":"Point","coordinates":[-81.820099999870976,26.293609998741957]},"properties":{"OBJECTID":15,"Name":"Cocohatchee River Park Marina","Address":"13531 Vanderbuilt Drive","City":"NAPLES","Zip":"33963","COUNTY":"COLLIER","Notes":"CO00240SB","X":-81.820099999999996,"Y":26.293610000000001,"USNG":"17R MK 18129 08459","SURGE_ZONE":"T","PARCELID":null,"FACILITY_TYPE":"MARINA"}},{"type":"Feature","id":16,"geometry":{"type":"Point","coordinates":[-87.255420000419676,30.407379998497202]},"properties":{"OBJECTID":16,"Name":"Pensacola Shipyard Marine Complex","Address":"700 South Myrick Street","City":"PENSACOLA","Zip":"32505","COUNTY":"ESCAMBIA","Notes":"ES00064BT","X":-87.255420000000001,"Y":30.40738,"USNG":"16R DU 75466 63955","SURGE_ZONE":"1","PARCELID":null,"FACILITY_TYPE":"MARINA"}},{"type":"Feature","id":17,"geometry":{"type":"Point","coordinates":[-87.196199999987257,30.546979999252773]},"properties":{"OBJECTID":17,"Name":"Swamphouse Marina and Landing","Address":"10421 North Davis Highway","City":"PENSACOLA","Zip":"32514","COUNTY":"ESCAMBIA","Notes":"ES00245CN","X":-87.196200000000005,"Y":30.546980000000001,"USNG":"16R DU 81181 79414","SURGE_ZONE":null,"PARCELID":null,"FACILITY_TYPE":"MARINA"}},{"type":"Feature","id":18,"geometry":{"type":"Point","coordinates":[-87.194769999888706,30.546999999882779]},"properties":{"OBJECTID":18,"Name":"Smith's Fish Camp Pay Ramp","Address":"3509 Smith's Fish Camp Road","City":"PENSACOLA","Zip":"32514","COUNTY":"ESCAMBIA","Notes":"ES00246OM","X":-87.194770000000005,"Y":30.547000000000001,"USNG":"16R DU 81318 79416","SURGE_ZONE":null,"PARCELID":null,"FACILITY_TYPE":"MARINA"}},{"type":"Feature","id":19,"geometry":{"type":"Point","coordinates":[-84.98190000006943,29.723499998996019]},"properties":{"OBJECTID":19,"Name":"Battery Park & Marina","Address":"1 Bay Avenue","City":"APALACHICOLA","Zip":"32320","COUNTY":"FRANKLIN","Notes":"FR00033EE","X":-84.981899999999996,"Y":29.723500000000001,"USNG":"16R FT 95199 89852","SURGE_ZONE":null,"PARCELID":null,"FACILITY_TYPE":"MARINA"}},{"type":"Feature","id":20,"geometry":{"type":"Point","coordinates":[-84.990918481800605,29.732276803641007]},"properties":{"OBJECTID":20,"Name":"SCIPIO CREEK MARINA","Address":"301 MARKET ST","City":"APALACHICOLA","Zip":"32320","COUNTY":"FRANKLIN","Notes":"FR00073VO","X":-84.990918480000005,"Y":29.732276800000001,"USNG":"16R FT 94309 90810","SURGE_ZONE":"1","PARCELID":null,"FACILITY_TYPE":"MARINA"}},{"type":"Feature","id":21,"geometry":{"type":"Point","coordinates":[-81.090400000035288,26.834199998655109]},"properties":{"OBJECTID":21,"Name":"Moore Haven City Marina Boat Ramp","Address":"99 Marina Ave","City":"MOORE HAVEN","Zip":"33471","COUNTY":"GLADES","Notes":"GL40020CS","X":-81.090400000000002,"Y":26.834199999999999,"USNG":"17R MK 91017 68074","SURGE_ZONE":null,"PARCELID":null,"FACILITY_TYPE":"MARINA"}},{"type":"Feature","id":22,"geometry":{"type":"Point","coordinates":[-85.30353000076984,29.747629999251718]},"properties":{"OBJECTID":22,"Name":"Presnell's Marina","Address":"2115 HIGHWAY C-30","City":"PORT ST. JOE","Zip":"32456","COUNTY":"GULF","Notes":"GU00461ZE","X":-85.303529999999995,"Y":29.747630000000001,"USNG":"16R FT 64045 92026","SURGE_ZONE":"1","PARCELID":null,"FACILITY_TYPE":"MARINA"}},{"type":"Feature","id":23,"geometry":{"type":"Point","coordinates":[-81.331400000028211,27.385799999408412]},"properties":{"OBJECTID":23,"Name":"Henderson's Fish Camp","Address":"35 Henderson Rd","City":"LAKE PLACID","Zip":"33852","COUNTY":"HIGHLANDS","Notes":"HG00058YE","X":-81.331400000000002,"Y":27.3858,"USNG":"17R ML 67232 29210","SURGE_ZONE":null,"PARCELID":null,"FACILITY_TYPE":"MARINA"}},{"type":"Feature","id":24,"geometry":{"type":"Point","coordinates":[-81.313859999650177,27.31034999908875]},"properties":{"OBJECTID":24,"Name":"Lake Istokpoga Marina","Address":"155 Marina RV Dr.","City":"LAKE PLACID","Zip":"33852","COUNTY":"HIGHLANDS","Notes":"HG00056TV","X":-81.313860000000005,"Y":27.31035,"USNG":"17R ML 68946 20849","SURGE_ZONE":null,"PARCELID":null,"FACILITY_TYPE":"MARINA"}},{"type":"Feature","id":25,"geometry":{"type":"Point","coordinates":[-81.267689999652148,27.323959999195118]},"properties":{"OBJECTID":25,"Name":"Cypress Isle RV Park & Marina","Address":"2 Cypress Isle Lane","City":"LAKE PLACID","Zip":"33852","COUNTY":"HIGHLANDS","Notes":"HG00005ZQ","X":-81.267690000000002,"Y":27.32396,"USNG":"17R ML 73517 22346","SURGE_ZONE":null,"PARCELID":null,"FACILITY_TYPE":"MARINA"}},{"type":"Feature","id":26,"geometry":{"type":"Point","coordinates":[-81.232389999222249,27.387079999471858]},"properties":{"OBJECTID":26,"Name":"Trails End Fishing Resort","Address":"4232 Trails End Road","City":"LORIDA","Zip":"33857","COUNTY":"HIGHLANDS","Notes":"HG00052ZE","X":-81.232389999999995,"Y":27.387080000000001,"USNG":"17R ML 77022 29330","SURGE_ZONE":null,"PARCELID":null,"FACILITY_TYPE":"MARINA"}},{"type":"Feature","id":27,"geometry":{"type":"Point","coordinates":[-84.904399999750638,30.724699999060267]},"properties":{"OBJECTID":27,"Name":"Seminole Lodge","Address":"2360 Legion Road","City":"SNEADS","Zip":"32460","COUNTY":"JACKSON","Notes":"JA00028GZ","X":-84.904399999999995,"Y":30.724699999999999,"USNG":"16R GV 00652 00967","SURGE_ZONE":null,"PARCELID":null,"FACILITY_TYPE":"MARINA"}},{"type":"Feature","id":28,"geometry":{"type":"Point","coordinates":[-81.508399999699293,29.121299998837859]},"properties":{"OBJECTID":28,"Name":"Astor Landing Campground and Boat Ramp","Address":"25934 Holmar Drive","City":"ASTOR","Zip":"32102","COUNTY":"LAKE","Notes":"LK00390UY","X":-81.508399999999995,"Y":29.121300000000002,"USNG":"17R MN 50539 21531","SURGE_ZONE":null,"PARCELID":null,"FACILITY_TYPE":"MARINA"}},{"type":"Feature","id":29,"geometry":{"type":"Point","coordinates":[-81.868500000175118,28.887999999481291]},"properties":{"OBJECTID":29,"Name":"Fisherman's Wharf (Lake Griffin)","Address":"5101 Eagles Nest Road","City":"FRUITLAND PARK","Zip":"34731","COUNTY":"LAKE","Notes":"LK00413XN","X":-81.868499999999997,"Y":28.888000000000002,"USNG":"17R MM 15315 95887","SURGE_ZONE":null,"PARCELID":null,"FACILITY_TYPE":"MARINA"}},{"type":"Feature","id":30,"geometry":{"type":"Point","coordinates":[-81.785099999183885,28.872799999424561]},"properties":{"OBJECTID":30,"Name":"Gator Bay Marina","Address":"10320 County Road 44","City":"LEESBURG","Zip":"34788","COUNTY":"LAKE","Notes":"LK00211XL","X":-81.7851,"Y":28.872800000000002,"USNG":"17R MM 23436 94146","SURGE_ZONE":null,"PARCELID":null,"FACILITY_TYPE":"MARINA"}},{"type":"Feature","id":31,"geometry":{"type":"Point","coordinates":[-81.842900000333046,28.930579999466389]},"properties":{"OBJECTID":31,"Name":"Pine Island Fish Camp","Address":"6808 Lake Griffin Road","City":"LADY LAKE","Zip":"32159","COUNTY":"LAKE","Notes":"LK70015BG","X":-81.8429,"Y":28.930579999999999,"USNG":"17R MN 17845 00586","SURGE_ZONE":null,"PARCELID":null,"FACILITY_TYPE":"MARINA"}},{"type":"Feature","id":32,"geometry":{"type":"Point","coordinates":[-81.858600000565289,28.863299999163875]},"properties":{"OBJECTID":32,"Name":"Twin Palms Resort And Marina","Address":"35320 Cross Street","City":"FRUITLAND PARK","Zip":"34731","COUNTY":"LAKE","Notes":"LK00276CF","X":-81.858599999999996,"Y":28.863299999999999,"USNG":"17R MM 16260 93143","SURGE_ZONE":null,"PARCELID":null,"FACILITY_TYPE":"MARINA"}},{"type":"Feature","id":33,"geometry":{"type":"Point","coordinates":[-81.88803000016091,28.858049998723818]},"properties":{"OBJECTID":33,"Name":"Morgan's Mobile Home Park And Fish Camp","Address":"4056 Picciola Road","City":"FRUITLAND PARK","Zip":"34731","COUNTY":"LAKE","Notes":"LK00379LX","X":-81.888030000000001,"Y":28.858049999999999,"USNG":"17R MM 13386 92582","SURGE_ZONE":null,"PARCELID":null,"FACILITY_TYPE":"MARINA"}},{"type":"Feature","id":34,"geometry":{"type":"Point","coordinates":[-81.872520000243654,26.645829999257234]},"properties":{"OBJECTID":34,"Name":"Fort Myers Centennial Park","Address":"2150 Edwards Drive","City":"FORT MYERS","Zip":"33901","COUNTY":"LEE","Notes":"LE00009NF","X":-81.872519999999994,"Y":26.64583,"USNG":"17R MK 13161 47505","SURGE_ZONE":null,"PARCELID":null,"FACILITY_TYPE":"MARINA"}},{"type":"Feature","id":35,"geometry":{"type":"Point","coordinates":[-84.004399999766193,30.604389999003111]},"properties":{"OBJECTID":35,"Name":"Reeves Fish Camp","Address":"16000 Reeves Landing","City":"CENTERVILLE","Zip":"32309","COUNTY":"LEON","Notes":"JE71470LD","X":-84.004400000000004,"Y":30.604389999999999,"USNG":"16R GU 87215 89584","SURGE_ZONE":null,"PARCELID":null,"FACILITY_TYPE":"MARINA"}},{"type":"Feature","id":36,"geometry":{"type":"Point","coordinates":[-81.652629999873014,29.294569999677822]},"properties":{"OBJECTID":36,"Name":"M-Port Marina and Boat Ramp","Address":"30600 NE 96th Place","City":"SALT SPRINGS","Zip":"32134","COUNTY":"MARION","Notes":"MR70004NS","X":-81.652630000000002,"Y":29.29457,"USNG":"17R MN 36614 40798","SURGE_ZONE":null,"PARCELID":null,"FACILITY_TYPE":"MARINA"}},{"type":"Feature","id":37,"geometry":{"type":"Point","coordinates":[-80.228938216599133,25.788390138300333]},"properties":{"OBJECTID":37,"Name":"2000 MIAMI RIVER MARINA LLC","Address":"2000 NW NORTH RIVER DR","City":"MIAMI","Zip":"33125","COUNTY":"MIAMI-DADE","Notes":null,"X":-80.228938220000003,"Y":25.788390140000001,"USNG":"17R NJ 77305 52476","SURGE_ZONE":null,"PARCELID":null,"FACILITY_TYPE":"MARINA"}},{"type":"Feature","id":38,"geometry":{"type":"Point","coordinates":[-80.160322663200361,25.741737889728189]},"properties":{"OBJECTID":38,"Name":"MARINE STADIUM MARINA","Address":"3501  RICKENBACKER CSWY","City":"VIRGINIA KEY","Zip":"33149","COUNTY":"MIAMI-DADE","Notes":"2015 CFI COUNTY UPDATES","X":-80.160322660000006,"Y":25.74173789,"USNG":"17R NJ 84217 47351","SURGE_ZONE":null,"PARCELID":null,"FACILITY_TYPE":"MARINA"}},{"type":"Feature","id":39,"geometry":{"type":"Point","coordinates":[-80.255243463006124,25.706327552380312]},"properties":{"OBJECTID":39,"Name":"GABLES WATERWAY TOWERS","Address":"90  EDGEWATER DR","City":"CORAL GABLES","Zip":"33133","COUNTY":"MIAMI-DADE","Notes":null,"X":-80.255243460000003,"Y":25.706327550000001,"USNG":"17R NJ 74719 43372","SURGE_ZONE":null,"PARCELID":null,"FACILITY_TYPE":"MARINA"}},{"type":"Feature","id":40,"geometry":{"type":"Point","coordinates":[-80.181803543856262,25.84772022944599]},"properties":{"OBJECTID":40,"Name":"NORTH BEACH MARINA","Address":"724 NE 79 ST","City":"MIAMI","Zip":"33138","COUNTY":"MIAMI-DADE","Notes":null,"X":-80.181803540000004,"Y":25.84772023,"USNG":"17R NJ 81990 59075","SURGE_ZONE":null,"PARCELID":null,"FACILITY_TYPE":"MARINA"}},{"type":"Feature","id":41,"geometry":{"type":"Point","coordinates":[-80.186002929100397,25.776194701337104]},"properties":{"OBJECTID":41,"Name":"CASINO PRINCESA MOORING","Address":"Plant Road","City":"MIAMI","Zip":"33132","COUNTY":"MIAMI-DADE","Notes":"CURRENT OPERATOR: CASINO PRINCESA. PHONE: 305/379-5825","X":-80.186002930000001,"Y":25.776194700000001,"USNG":"17R NJ 81618 51151","SURGE_ZONE":null,"PARCELID":null,"FACILITY_TYPE":"MARINA"}},{"type":"Feature","id":42,"geometry":{"type":"Point","coordinates":[-80.146139830439949,25.747559077195056]},"properties":{"OBJECTID":42,"Name":"JIMBO SHRIMP","Address":"DUCK LAKE","City":"VIRGINIA KEY","Zip":"33149","COUNTY":"MIAMI-DADE","Notes":"2015 CFI COUNTY UPDATES","X":-80.146139829999996,"Y":25.747559079999998,"USNG":"17R NJ 85636 48005","SURGE_ZONE":null,"PARCELID":null,"FACILITY_TYPE":"MARINA"}},{"type":"Feature","id":43,"geometry":{"type":"Point","coordinates":[-80.260719999842465,25.678849998590252]},"properties":{"OBJECTID":43,"Name":"Matheson Hammock County Park & Marina","Address":"9610 Old Cuter Road","City":"CORAL GABLES","Zip":"33156","COUNTY":"MIAMI-DADE","Notes":"MI00034XS","X":-80.260720000000006,"Y":25.678850000000001,"USNG":"17R NJ 74186 40326","SURGE_ZONE":"1","PARCELID":null,"FACILITY_TYPE":"MARINA"}},{"type":"Feature","id":44,"geometry":{"type":"Point","coordinates":[-80.241226647513201,25.794501251002885]},"properties":{"OBJECTID":44,"Name":"DADE COUNTY PUBLIC WORKS DEPARTMENT WHARF","Address":"2750 N.W. 20TH STREET.","City":"MIAMI","Zip":"33125","COUNTY":"MIAMI-DADE","Notes":"CURRENT OPERATOR: DADE COUNTY, PUBLIC WORKS DEPARTMENT. PHONE: 305/592-4108","X":-80.241226650000002,"Y":25.79450125,"USNG":"17R NJ 76069 53145","SURGE_ZONE":null,"PARCELID":null,"FACILITY_TYPE":"MARINA"}},{"type":"Feature","id":45,"geometry":{"type":"Point","coordinates":[-80.439669999843645,25.267489999514627]},"properties":{"OBJECTID":45,"Name":"South Dade Marina (Sailboats & Paddlecraft Only - No Motor Boats - Call Ahead)","Address":"54400 South Dixie Highway (Mile Marker 1","City":"FLORIDA CITY","Zip":"33034","COUNTY":"MIAMI-DADE","Notes":"MI00137TT","X":-80.439670000000007,"Y":25.267489999999999,"USNG":"17R NH 56420 94684","SURGE_ZONE":"1","PARCELID":null,"FACILITY_TYPE":"MARINA"}},{"type":"Feature","id":46,"geometry":{"type":"Point","coordinates":[-80.180178164170087,25.777504531835501]},"properties":{"OBJECTID":46,"Name":"MARINE SPILL RESPONSE CORP BAYS 201 TO 204","Address":"1020 PORT BOULEVARD.","City":"MIAMI","Zip":"33132","COUNTY":"MIAMI-DADE","Notes":"CURRENT OPERATOR: MARINE SPILL RESPONSE CORP. PHONE: 305/347-2228 FAX: 305/347-2220","X":-80.180178159999997,"Y":25.777504530000002,"USNG":"17R NJ 82201 51300","SURGE_ZONE":null,"PARCELID":null,"FACILITY_TYPE":"MARINA"}},{"type":"Feature","id":47,"geometry":{"type":"Point","coordinates":[-80.327986663836796,25.53934832378182]},"properties":{"OBJECTID":47,"Name":"BLACK POINT MARINA & PARK","Address":"24777 SW 87TH AVE","City":"HOMESTEAD","Zip":"33032","COUNTY":"MIAMI-DADE","Notes":"MI00155RM","X":-80.327986659999993,"Y":25.539348319999998,"USNG":"17R NJ 67514 24841","SURGE_ZONE":"3","PARCELID":null,"FACILITY_TYPE":"MARINA"}},{"type":"Feature","id":48,"geometry":{"type":"Point","coordinates":[-80.253062594758248,25.703708214969502]},"properties":{"OBJECTID":48,"Name":"COCOPLUM YACHT CLUB","Address":"6500  PRADO BLVD","City":"CORAL GABLES","Zip":"33143","COUNTY":"MIAMI-DADE","Notes":null,"X":-80.253062589999999,"Y":25.703708219999999,"USNG":"17R NJ 74939 43083","SURGE_ZONE":null,"PARCELID":null,"FACILITY_TYPE":"MARINA"}},{"type":"Feature","id":49,"geometry":{"type":"Point","coordinates":[-80.191004962162268,25.769802020533525]},"properties":{"OBJECTID":49,"Name":"U S CUSTOMS SERVICE MIAMI WHARF","Address":"77 S.E. 5TH STREET.","City":"MIAMI","Zip":"33131","COUNTY":"MIAMI-DADE","Notes":"CURRENT OPERATOR: U.S. CUSTOMS SERVICE, OFFICE OF INVESTIGATION. PHONE: 305/536-5343 FAX: 305/536-4937","X":-80.191004960000001,"Y":25.76980202,"USNG":"17R NJ 81121 50440","SURGE_ZONE":null,"PARCELID":null,"FACILITY_TYPE":"MARINA"}},{"type":"Feature","id":50,"geometry":{"type":"Point","coordinates":[-80.154900000554605,25.72519999940538]},"properties":{"OBJECTID":50,"Name":"Crandon Park Marina","Address":"4000 Crandon Boulevard","City":"KEY BISCAYNE","Zip":"33149","COUNTY":"MIAMI-DADE","Notes":"MI00045FS","X":-80.154899999999998,"Y":25.725200000000001,"USNG":"17R NJ 84773 45523","SURGE_ZONE":"1","PARCELID":null,"FACILITY_TYPE":"MARINA"}},{"type":"Feature","id":51,"geometry":{"type":"Point","coordinates":[-80.128529822678303,25.895786987128016]},"properties":{"OBJECTID":51,"Name":"BAL HARBOUR YACHT CLUB","Address":"200  BAL BAY DR","City":"BAL HARBOUR","Zip":"33154","COUNTY":"MIAMI-DADE","Notes":"2015 CFI COUNTY UPDATES","X":-80.128529819999997,"Y":25.895786990000001,"USNG":"17R NJ 87293 64432","SURGE_ZONE":null,"PARCELID":null,"FACILITY_TYPE":"MARINA"}},{"type":"Feature","id":52,"geometry":{"type":"Point","coordinates":[-80.226147687098361,25.787233019365672]},"properties":{"OBJECTID":52,"Name":"HURRICANE COVE INC.","Address":"1884 NW NORTH RIVER DR","City":"MIAMI","Zip":"33125","COUNTY":"MIAMI-DADE","Notes":null,"X":-80.226147690000005,"Y":25.787233019999999,"USNG":"17R NJ 77585 52349","SURGE_ZONE":null,"PARCELID":null,"FACILITY_TYPE":"MARINA"}},{"type":"Feature","id":53,"geometry":{"type":"Point","coordinates":[-80.33655594649791,25.461822342229386]},"properties":{"OBJECTID":53,"Name":"HERBERT HOOVER MARINA AT HOMESTEAD BAYFRONT PARK","Address":"9698 SW 328TH ST","City":"HOMESTEAD","Zip":"33030","COUNTY":"MIAMI-DADE","Notes":"MI00141FL","X":-80.336555950000005,"Y":25.461822340000001,"USNG":"17R NJ 66696 16252","SURGE_ZONE":"1","PARCELID":null,"FACILITY_TYPE":"MARINA"}},{"type":"Feature","id":54,"geometry":{"type":"Point","coordinates":[-80.168567171987263,25.699016102603515]},"properties":{"OBJECTID":54,"Name":"KEY BISCAYNE YACHT CLUB INC.","Address":"180  HARBOR DR","City":"KEY BISCAYNE","Zip":"33149","COUNTY":"MIAMI-DADE","Notes":"2015 CFI COUNTY UPDATES","X":-80.168567170000003,"Y":25.699016100000001,"USNG":"17R NJ 83420 42614","SURGE_ZONE":null,"PARCELID":null,"FACILITY_TYPE":"MARINA"}},{"type":"Feature","id":55,"geometry":{"type":"Point","coordinates":[-80.177424601306882,25.779731901786693]},"properties":{"OBJECTID":55,"Name":"PORT OF MIAMI PASSENGER TERMINALS NOS 1 TO 6 AND 10","Address":" ","City":"MIAMI","Zip":"33132","COUNTY":"MIAMI-DADE","Notes":null,"X":-80.177424599999995,"Y":25.779731900000002,"USNG":"17R NJ 82476 51548","SURGE_ZONE":null,"PARCELID":null,"FACILITY_TYPE":"MARINA"}},{"type":"Feature","id":56,"geometry":{"type":"Point","coordinates":[-80.128448712138592,25.958703309116327]},"properties":{"OBJECTID":56,"Name":"THE YACHT CLUB AT AVENTURA","Address":"19777 E COUNTRY CLUB DR","City":"AVENTURA","Zip":"33180","COUNTY":"MIAMI-DADE","Notes":"2015 CFI COUNTY UPDATES","X":-80.128448710000001,"Y":25.958703310000001,"USNG":"17R NJ 87255 71401","SURGE_ZONE":null,"PARCELID":null,"FACILITY_TYPE":"MARINA"}},{"type":"Feature","id":57,"geometry":{"type":"Point","coordinates":[-80.14782616607819,25.771067827112578]},"properties":{"OBJECTID":57,"Name":"CITY OF MIAMI BEACH CAUSEWAY ISLAND WHARF","Address":"140 MACARTHUR CAUSEWAY.","City":"MIAMI BEACH","Zip":" ","COUNTY":"MIAMI-DADE","Notes":"FPL and TERMINAL INVESTMENT WHARVES","X":-80.147826170000002,"Y":25.77106783,"USNG":"17R NJ 85450 50607","SURGE_ZONE":null,"PARCELID":null,"FACILITY_TYPE":"MARINA"}},{"type":"Feature","id":58,"geometry":{"type":"Point","coordinates":[-80.128466892720184,25.97089856329552]},"properties":{"OBJECTID":58,"Name":"WATERWAYS MARINA RESORT LTD.","Address":"3601 NE 207 ST","City":"AVENTURA","Zip":"33180","COUNTY":"MIAMI-DADE","Notes":null,"X":-80.128466889999999,"Y":25.970898559999998,"USNG":"17R NJ 87244 72751","SURGE_ZONE":null,"PARCELID":null,"FACILITY_TYPE":"MARINA"}},{"type":"Feature","id":59,"geometry":{"type":"Point","coordinates":[-80.327854020318171,25.537642760355187]},"properties":{"OBJECTID":59,"Name":"LOGGERHEAD MARINA - MIAMI","Address":"24777 SW 87TH AVE","City":"MIAMI","Zip":"33032","COUNTY":"MIAMI-DADE","Notes":null,"X":-80.327854020000004,"Y":25.537642760000001,"USNG":"17R NJ 67528 24653","SURGE_ZONE":"1","PARCELID":null,"FACILITY_TYPE":"MARINA"}},{"type":"Feature","id":60,"geometry":{"type":"Point","coordinates":[-80.250531830260883,25.800726329494111]},"properties":{"OBJECTID":60,"Name":"AMERICAN-CARRIBBEAN TERMINAL INC.","Address":"3300 NW NORTH RIVER DR","City":"MIAMI","Zip":"33142","COUNTY":"MIAMI-DADE","Notes":null,"X":-80.25053183,"Y":25.80072633,"USNG":"17R NJ 75132 53829","SURGE_ZONE":null,"PARCELID":null,"FACILITY_TYPE":"MARINA"}},{"type":"Feature","id":61,"geometry":{"type":"Point","coordinates":[-80.236380547462176,25.791234342321694]},"properties":{"OBJECTID":61,"Name":"ISLA DEL MAR YACHT CLUB","Address":"1800 NW 24 AVE","City":"MIAMI","Zip":"33125","COUNTY":"MIAMI-DADE","Notes":null,"X":-80.236380550000007,"Y":25.791234339999999,"USNG":"17R NJ 76557 52786","SURGE_ZONE":null,"PARCELID":null,"FACILITY_TYPE":"MARINA"}},{"type":"Feature","id":62,"geometry":{"type":"Point","coordinates":[-80.19658000029807,25.770329999559767]},"properties":{"OBJECTID":62,"Name":"FLORIDA POWER AND LIGHT - MIAMI  CENTRAL SERVICE CENTER AND MIAMI SUBSTATION/RADIO TOWER","Address":"122 SOUTHWEST 3 STREET","City":"MIAMI","Zip":"33130","COUNTY":"MIAMI-DADE","Notes":"CURRENT OWNER AND OPERATOR: FLORIDA POWER & LIGHT CO. PHONE: 305/789-1687","X":-80.196579999999997,"Y":25.770330000000001,"USNG":"17R NJ 80561 50495","SURGE_ZONE":"5","PARCELID":null,"FACILITY_TYPE":"MARINA"}},{"type":"Feature","id":63,"geometry":{"type":"Point","coordinates":[-80.127390596446247,25.958237651989819]},"properties":{"OBJECTID":63,"Name":"TB ISLE MARINA/YACHT CLUB LP","Address":"19755 NE 36 CT","City":"AVENTURA","Zip":"33180","COUNTY":"MIAMI-DADE","Notes":"2015 CFI COUNTY UPDATES","X":-80.127390599999998,"Y":25.958237650000001,"USNG":"17R NJ 87361 71350","SURGE_ZONE":null,"PARCELID":null,"FACILITY_TYPE":"MARINA"}},{"type":"Feature","id":64,"geometry":{"type":"Point","coordinates":[-80.124587377414926,25.956423785880588]},"properties":{"OBJECTID":64,"Name":"GOLDEN GATE ESTATES AND MARINA","Address":"19500  COLLINS AVE","City":"SUNNY ISLES","Zip":"33160","COUNTY":"MIAMI-DADE","Notes":null,"X":-80.124587379999994,"Y":25.956423789999999,"USNG":"17R NJ 87643 71151","SURGE_ZONE":null,"PARCELID":null,"FACILITY_TYPE":"MARINA"}},{"type":"Feature","id":65,"geometry":{"type":"Point","coordinates":[-80.165555988390253,25.774443972586127]},"properties":{"OBJECTID":65,"Name":"PORT OF MIAMI PASSENGER TERMINAL NOS 8 AND 9","Address":" ","City":"MIAMI","Zip":"33132","COUNTY":"MIAMI-DADE","Notes":null,"X":-80.165555990000001,"Y":25.77444397,"USNG":"17R NJ 83669 50970","SURGE_ZONE":null,"PARCELID":null,"FACILITY_TYPE":"MARINA"}},{"type":"Feature","id":66,"geometry":{"type":"Point","coordinates":[-80.142528363309637,25.763490278094263]},"properties":{"OBJECTID":66,"Name":"TRANSMONTAIGNE PARTNERS LP-FISHER ISLAND TERML","Address":"1 \"B\" ST FISHER ISLAND","City":"MIAMI BEACH","Zip":"33109","COUNTY":"MIAMI-DADE","Notes":"8942880","X":-80.14252836,"Y":25.763490279999999,"USNG":"17R NJ 85986 49771","SURGE_ZONE":"3","PARCELID":null,"FACILITY_TYPE":"MARINA"}},{"type":"Feature","id":67,"geometry":{"type":"Point","coordinates":[-81.004549999887502,24.731119999079919]},"properties":{"OBJECTID":67,"Name":"Coco Plum Yacht Club Pay Ramp (No Parking, Launch and Retrieve Only)","Address":"100 Ave I","City":"MARATHON","Zip":"33050","COUNTY":"MONROE","Notes":"MO00500TD","X":-81.004549999999995,"Y":24.731120000000001,"USNG":"17R MH 99539 35175","SURGE_ZONE":"1","PARCELID":null,"FACILITY_TYPE":"MARINA"}},{"type":"Feature","id":68,"geometry":{"type":"Point","coordinates":[-80.407099999887791,25.124309999366609]},"properties":{"OBJECTID":68,"Name":"John Pennekamp Coral Reef State Park","Address":"102601 Overseas Highway","City":"KEY LARGO","Zip":"33037","COUNTY":"MONROE","Notes":"MO00090VN","X":-80.4071,"Y":25.124310000000001,"USNG":"17R NH 59769 78843","SURGE_ZONE":"1","PARCELID":null,"FACILITY_TYPE":"MARINA"}},{"type":"Feature","id":69,"geometry":{"type":"Point","coordinates":[-81.784579999634403,24.559949999288236]},"properties":{"OBJECTID":69,"Name":"Key West City Marina at Garrison Bight","Address":"1801 North Roosevelt Boulevard","City":"KEY WEST","Zip":"33040","COUNTY":"MONROE","Notes":"MO00562VV","X":-81.784580000000005,"Y":24.559950000000001,"USNG":"17R MH 20546 16449","SURGE_ZONE":"1","PARCELID":null,"FACILITY_TYPE":"MARINA"}},{"type":"Feature","id":70,"geometry":{"type":"Point","coordinates":[-81.277969999788965,24.656719998901512]},"properties":{"OBJECTID":70,"Name":"Bahia Honda State Park","Address":"36850 Overseas Highway","City":"BAHIA HONDA KEY","Zip":"33043","COUNTY":"MONROE","Notes":"MO00332AK","X":-81.277969999999996,"Y":24.65672,"USNG":"17R MH 71872 26966","SURGE_ZONE":"1","PARCELID":null,"FACILITY_TYPE":"MARINA"}},{"type":"Feature","id":71,"geometry":{"type":"Point","coordinates":[-81.736280938702876,24.56166806610862]},"properties":{"OBJECTID":71,"Name":"ROBBIE'S RECYCLE & TRANSFER STATION","Address":"END OF SHRIMP RD","City":"STOCK ISLAND","Zip":"33040","COUNTY":"MONROE","Notes":"GASOLINE, JET FUEL, KEROSENE","X":-81.73628094,"Y":24.56166807,"USNG":"17R MH 25439 16612","SURGE_ZONE":"3","PARCELID":null,"FACILITY_TYPE":"MARINA"}},{"type":"Feature","id":72,"geometry":{"type":"Point","coordinates":[-81.778610722773394,24.561969267769804]},"properties":{"OBJECTID":72,"Name":"Key West Yacht Club","Address":"2315 N ROOSEVELT BLVD","City":"KEY WEST","Zip":"33040","COUNTY":"MONROE","Notes":null,"X":-81.778610720000003,"Y":24.561969269999999,"USNG":"17R MH 21152 16669","SURGE_ZONE":null,"PARCELID":null,"FACILITY_TYPE":"MARINA"}},{"type":"Feature","id":73,"geometry":{"type":"Point","coordinates":[-80.568870000000672,24.964929998870918]},"properties":{"OBJECTID":73,"Name":"Islamorada Founders Park and Public Boat Ramp","Address":"87000 Overseas Highway","City":"PLANTATION KEY","Zip":"33070","COUNTY":"MONROE","Notes":"MO00466NC","X":-80.568870000000004,"Y":24.964929999999999,"USNG":"17R NH 43517 61133","SURGE_ZONE":null,"PARCELID":null,"FACILITY_TYPE":"MARINA"}},{"type":"Feature","id":74,"geometry":{"type":"Point","coordinates":[-80.923530000379088,25.142349999190973]},"properties":{"OBJECTID":74,"Name":"Everglades National Park - Flamingo Saltwater Boat Basin","Address":"#1 Flamingo Lodge Highway","City":"FLAMINGO","Zip":"33034","COUNTY":"MONROE","Notes":"MO00651GV","X":-80.92353,"Y":25.14235,"USNG":"17R NH 07707 80712","SURGE_ZONE":null,"PARCELID":null,"FACILITY_TYPE":"MARINA"}},{"type":"Feature","id":75,"geometry":{"type":"Point","coordinates":[-81.387320000247726,24.665149998899629]},"properties":{"OBJECTID":75,"Name":"Dolphin Marina and Cottages","Address":"28530 Overseas Highway","City":"LITTLE TORCH KEY","Zip":"33042","COUNTY":"MONROE","Notes":"MO00064JT","X":-81.387320000000003,"Y":24.665150000000001,"USNG":"17R MH 60810 27926","SURGE_ZONE":"1","PARCELID":null,"FACILITY_TYPE":"MARINA"}},{"type":"Feature","id":76,"geometry":{"type":"Point","coordinates":[-81.728999999847503,24.563599998847007]},"properties":{"OBJECTID":76,"Name":"Oceanside Marina of Stock Island (No Trailer Parking)","Address":"5950 Peninsular Ave","City":"KEY WEST","Zip":"33040","COUNTY":"MONROE","Notes":"MO00519BY","X":-81.728999999999999,"Y":24.563600000000001,"USNG":"17R MH 26177 16822","SURGE_ZONE":"1","PARCELID":null,"FACILITY_TYPE":"MARINA"}},{"type":"Feature","id":77,"geometry":{"type":"Point","coordinates":[-81.505810000135781,24.658219999751626]},"properties":{"OBJECTID":77,"Name":"Cudjoe Gardens Marina And Dive Center (No Onsite Parking for Trailers)","Address":"477 Drost Drive","City":"SUGARLOAF KEY","Zip":"33042","COUNTY":"MONROE","Notes":"MO00101XY","X":-81.505809999999997,"Y":24.65822,"USNG":"17R MH 48818 27198","SURGE_ZONE":"1","PARCELID":null,"FACILITY_TYPE":"MARINA"}},{"type":"Feature","id":78,"geometry":{"type":"Point","coordinates":[-80.888800000100929,24.790099999747397]},"properties":{"OBJECTID":78,"Name":"Bay View Inn Resort, Marina and General Store","Address":"3 North Conch Avenue","City":"CONCH KEY","Zip":"33050","COUNTY":"MONROE","Notes":"MO00156CY","X":-80.888800000000003,"Y":24.790099999999999,"USNG":"17R NH 11240 41710","SURGE_ZONE":null,"PARCELID":null,"FACILITY_TYPE":"MARINA"}},{"type":"Feature","id":79,"geometry":{"type":"Point","coordinates":[-80.922649999974595,25.143829999310004]},"properties":{"OBJECTID":79,"Name":"Everglades National Park - Flamingo Freshwater Boat Basin","Address":"#1 Flamingo Lodge Highway","City":"HOMESTEAD","Zip":"0","COUNTY":"MONROE","Notes":"MO59568LL","X":-80.922650000000004,"Y":25.143830000000001,"USNG":"17R NH 07796 80876","SURGE_ZONE":"1","PARCELID":null,"FACILITY_TYPE":"MARINA"}},{"type":"Feature","id":80,"geometry":{"type":"Point","coordinates":[-81.465429999946565,30.670359998810724]},"properties":{"OBJECTID":80,"Name":"Fernandina Harbour Marina","Address":"1 North Front St","City":"FERNANDINA BEACH","Zip":"32034","COUNTY":"NASSAU","Notes":"NA10026RB","X":-81.465429999999998,"Y":30.670359999999999,"USNG":"17R MP 55414 93162","SURGE_ZONE":"1","PARCELID":null,"FACILITY_TYPE":"MARINA"}},{"type":"Feature","id":81,"geometry":{"type":"Point","coordinates":[-80.8683000001746,27.148399999298228]},"properties":{"OBJECTID":81,"Name":"Okee-Tantie Recreation Area Marina and Boat Ramp","Address":" ","City":"OKEECHOBEE","Zip":"34974","COUNTY":"OKEECHOBEE","Notes":"OK00568XR","X":-80.868300000000005,"Y":27.148399999999999,"USNG":"17R NL 13049 02878","SURGE_ZONE":"1","PARCELID":null,"FACILITY_TYPE":"MARINA"}},{"type":"Feature","id":82,"geometry":{"type":"Point","coordinates":[-81.384520000377961,28.262229998937045]},"properties":{"OBJECTID":82,"Name":"Richardson's Fish Camp","Address":"1550 Scotty's Road","City":"KISSIMMEE","Zip":"34744","COUNTY":"OSCEOLA","Notes":"OS00122IP","X":-81.384519999999995,"Y":28.262229999999999,"USNG":"17R MM 62284 26311","SURGE_ZONE":null,"PARCELID":null,"FACILITY_TYPE":"MARINA"}},{"type":"Feature","id":83,"geometry":{"type":"Point","coordinates":[-81.408549999858181,28.286999999607445]},"properties":{"OBJECTID":83,"Name":"Kissimmee Lakefront Park","Address":"250 Lakeshore Boulevard","City":"KISSIMMEE","Zip":"34741","COUNTY":"OSCEOLA","Notes":"OS00168PT","X":-81.408550000000005,"Y":28.286999999999999,"USNG":"17R MM 59937 29063","SURGE_ZONE":null,"PARCELID":null,"FACILITY_TYPE":"MARINA"}},{"type":"Feature","id":84,"geometry":{"type":"Point","coordinates":[-81.282899999208013,28.258599999392167]},"properties":{"OBJECTID":84,"Name":"Lakefront Park","Address":"1104 Lakeshore Boulevard","City":"ST CLOUD","Zip":"34769","COUNTY":"OSCEOLA","Notes":"OS00444JQ","X":-81.282899999999998,"Y":28.258600000000001,"USNG":"17R MM 72251 25881","SURGE_ZONE":null,"PARCELID":null,"FACILITY_TYPE":"MARINA"}},{"type":"Feature","id":85,"geometry":{"type":"Point","coordinates":[-80.050233126399263,26.716401219619829]},"properties":{"OBJECTID":85,"Name":"WEST PALM BEACH MARINA","Address":" ","City":"WEST PALM BEACH","Zip":"33401","COUNTY":"PALM BEACH","Notes":null,"X":-80.050233129999995,"Y":26.716401220000002,"USNG":"17R NK 94469 55376","SURGE_ZONE":null,"PARCELID":null,"FACILITY_TYPE":"MARINA"}},{"type":"Feature","id":86,"geometry":{"type":"Point","coordinates":[-80.05056372053518,26.749316296965624]},"properties":{"OBJECTID":86,"Name":"RYBOVICH MARINA HELIPORT","Address":" ","City":"WEST PALM BEACH","Zip":"33407","COUNTY":"PALM BEACH","Notes":"FL000814","X":-80.05056372,"Y":26.7493163,"USNG":"17R NK 94409 59022","SURGE_ZONE":"4","PARCELID":null,"FACILITY_TYPE":"MARINA"}},{"type":"Feature","id":87,"geometry":{"type":"Point","coordinates":[-82.707019999514344,28.353969999273321]},"properties":{"OBJECTID":87,"Name":"Sea Ranch Marina (No Parking for Boat Trailers on Premises.)","Address":"6501 Boatyard Drive","City":"HUDSON","Zip":"34667","COUNTY":"PASCO","Notes":"PS29380DP","X":-82.70702,"Y":28.35397,"USNG":"17R LM 32699 37598","SURGE_ZONE":"1","PARCELID":null,"FACILITY_TYPE":"MARINA"}},{"type":"Feature","id":88,"geometry":{"type":"Point","coordinates":[-82.768016619778706,27.8120968447273]},"properties":{"OBJECTID":88,"Name":"War Veterans Memorial Park - Bay Pines","Address":"9400 BAY PINES BLVD","City":"ST. PETERSBURG","Zip":"33708","COUNTY":"PINELLAS","Notes":"PI101021EK","X":-82.768016619999997,"Y":27.81209685,"USNG":"17R LL 25847 77641","SURGE_ZONE":null,"PARCELID":null,"FACILITY_TYPE":"MARINA"}},{"type":"Feature","id":89,"geometry":{"type":"Point","coordinates":[-82.680400000355064,27.706899999513425]},"properties":{"OBJECTID":89,"Name":"O'Neill's Marina","Address":"6701 Sunshine Skyway Lane South","City":"ST. PETERSBURG","Zip":"33711","COUNTY":"PINELLAS","Notes":"PI00517UC","X":-82.680400000000006,"Y":27.706900000000001,"USNG":"17R LL 34320 65864","SURGE_ZONE":"1","PARCELID":null,"FACILITY_TYPE":"MARINA"}},{"type":"Feature","id":90,"geometry":{"type":"Point","coordinates":[-82.770799999467755,28.086499999273052]},"properties":{"OBJECTID":90,"Name":"Sutherland Bayou Public Boat Ramp","Address":"2119 U.S. Highway Alternate 19 North","City":"PALM HARBOR","Zip":"34683","COUNTY":"PINELLAS","Notes":"PI30003RG","X":-82.770799999999994,"Y":28.086500000000001,"USNG":"17R LM 26014 08050","SURGE_ZONE":"1","PARCELID":null,"FACILITY_TYPE":"MARINA"}},{"type":"Feature","id":91,"geometry":{"type":"Point","coordinates":[-82.686900000270668,27.989219999062751]},"properties":{"OBJECTID":91,"Name":"Safety Harbor Marina","Address":"110 Veterans Memorial Lane","City":"SAFETY HARBOR","Zip":"34695","COUNTY":"PINELLAS","Notes":"PI00474CZ","X":-82.686899999999994,"Y":27.98922,"USNG":"17R LL 34109 97154","SURGE_ZONE":"1","PARCELID":null,"FACILITY_TYPE":"MARINA"}},{"type":"Feature","id":92,"geometry":{"type":"Point","coordinates":[-82.628039999984125,27.771299998817955]},"properties":{"OBJECTID":92,"Name":"Demens Landing Park Boat Ramp","Address":"301 1st Ave SE","City":"ST. PETERSBURG","Zip":"33701","COUNTY":"PINELLAS","Notes":"PI00521FC","X":-82.628039999999999,"Y":27.7713,"USNG":"17R LL 39578 72930","SURGE_ZONE":"1","PARCELID":null,"FACILITY_TYPE":"MARINA"}},{"type":"Feature","id":93,"geometry":{"type":"Point","coordinates":[-82.780519999805094,28.069399999004311]},"properties":{"OBJECTID":93,"Name":"Speckled Trout Marina","Address":"370 Bayshore Drive","City":"PALM HARBOR","Zip":"34683","COUNTY":"PINELLAS","Notes":"PI00346UU","X":-82.780519999999996,"Y":28.069400000000002,"USNG":"17R LM 25031 06169","SURGE_ZONE":"1","PARCELID":null,"FACILITY_TYPE":"MARINA"}},{"type":"Feature","id":94,"geometry":{"type":"Point","coordinates":[-81.439899999580206,27.818099999284993]},"properties":{"OBJECTID":94,"Name":"Uncle Joe's Fish Camp","Address":"4535 Walk-in-Water Road","City":"LAKE WALES","Zip":"33853","COUNTY":"POLK","Notes":"PO00145JJ","X":-81.439899999999994,"Y":27.818100000000001,"USNG":"17R ML 56675 77130","SURGE_ZONE":null,"PARCELID":null,"FACILITY_TYPE":"MARINA"}},{"type":"Feature","id":95,"geometry":{"type":"Point","coordinates":[-81.376430000061262,27.977919999652553]},"properties":{"OBJECTID":95,"Name":"Camp Mack's River Resort","Address":"14900 Camp Mack Road","City":"LAKE WALES","Zip":"33898","COUNTY":"POLK","Notes":"PO00116UW","X":-81.376429999999999,"Y":27.977920000000001,"USNG":"17R ML 62980 94813","SURGE_ZONE":null,"PARCELID":null,"FACILITY_TYPE":"MARINA"}},{"type":"Feature","id":96,"geometry":{"type":"Point","coordinates":[-81.85114000005629,28.001999999023806]},"properties":{"OBJECTID":96,"Name":"Lake Hancock - County Road 540A - Primitive Ramp","Address":"County Road 540 (Winter Lake Road)","City":"LAKELAND","Zip":"33803","COUNTY":"POLK","Notes":"PO41752WJ","X":-81.851140000000001,"Y":28.001999999999999,"USNG":"17R ML 16313 97715","SURGE_ZONE":null,"PARCELID":null,"FACILITY_TYPE":"MARINA"}},{"type":"Feature","id":97,"geometry":{"type":"Point","coordinates":[-81.555619999873571,27.808409999393366]},"properties":{"OBJECTID":97,"Name":"Bob's Landing Mobile Home Park and Boat Ramp","Address":"971 Ohlinger Road","City":"BABSON PARK","Zip":"33827","COUNTY":"POLK","Notes":"PO00076SJ","X":-81.555620000000005,"Y":27.808409999999999,"USNG":"17R ML 45273 76103","SURGE_ZONE":null,"PARCELID":null,"FACILITY_TYPE":"MARINA"}},{"type":"Feature","id":98,"geometry":{"type":"Point","coordinates":[-81.507129999535394,29.443289999201575]},"properties":{"OBJECTID":98,"Name":"Leonard's Landing Lake Crescent Resort","Address":"100 Grove Avenue","City":"CRESCENT CITY","Zip":"32112","COUNTY":"PUTNAM","Notes":"PU00651FI","X":-81.507130000000004,"Y":29.443290000000001,"USNG":"17R MN 50817 57206","SURGE_ZONE":"1","PARCELID":null,"FACILITY_TYPE":"MARINA"}},{"type":"Feature","id":99,"geometry":{"type":"Point","coordinates":[-81.651700000425194,29.401099999283716]},"properties":{"OBJECTID":99,"Name":"Bass World Lodge","Address":"209 Browns Fish Camp Road","City":"CRESCENT CITY","Zip":"32139","COUNTY":"PUTNAM","Notes":"PU00714OF","X":-81.651700000000005,"Y":29.4011,"USNG":"17R MN 36770 52601","SURGE_ZONE":"1","PARCELID":null,"FACILITY_TYPE":"MARINA"}},{"type":"Feature","id":100,"geometry":{"type":"Point","coordinates":[-81.255857744976481,29.767473616105427]},"properties":{"OBJECTID":100,"Name":"Coastal Outdoor Center","Address":"291 Cubbdge Road","City":"St. Augustine","Zip":"32080","COUNTY":"ST. JOHNS","Notes":"(904) 471-4144","X":-81.255857739999996,"Y":29.767473620000001,"USNG":"17R MN 75265 93047","SURGE_ZONE":null,"PARCELID":null,"FACILITY_TYPE":"MARINA"}},{"type":"Feature","id":101,"geometry":{"type":"Point","coordinates":[-81.322810814652868,29.89004465048934]},"properties":{"OBJECTID":101,"Name":"Hidden Harbor Marina","Address":"10 Prawn Street","City":"St. Augustine","Zip":"32084","COUNTY":"ST. JOHNS","Notes":"(904) 829-0750","X":-81.322810809999993,"Y":29.89004465,"USNG":"17R MP 68831 06645","SURGE_ZONE":null,"PARCELID":null,"FACILITY_TYPE":"MARINA"}},{"type":"Feature","id":102,"geometry":{"type":"Point","coordinates":[-81.638229791274583,30.095042969828306]},"properties":{"OBJECTID":102,"Name":"Amity Inn Anchorage","Address":"1106 Friendship Drive","City":"Fruit Cove","Zip":"32259","COUNTY":"ST. JOHNS","Notes":"1141921 - phone - (904) 287-0931","X":-81.638229789999997,"Y":30.095042970000002,"USNG":"17R MP 38502 29488","SURGE_ZONE":null,"PARCELID":null,"FACILITY_TYPE":"MARINA"}},{"type":"Feature","id":103,"geometry":{"type":"Point","coordinates":[-81.294872719299732,29.892676292246417]},"properties":{"OBJECTID":103,"Name":"Conch House Marina","Address":"57 Comares Ave","City":"St. Augustine","Zip":"32080","COUNTY":"ST. JOHNS","Notes":"(904) 829-8646","X":-81.294872720000001,"Y":29.892676290000001,"USNG":"17R MP 71529 06929","SURGE_ZONE":null,"PARCELID":null,"FACILITY_TYPE":"MARINA"}},{"type":"Feature","id":104,"geometry":{"type":"Point","coordinates":[-81.310160958933139,29.891808050603231]},"properties":{"OBJECTID":104,"Name":"St. Augustine City Marina","Address":"111 Avenida Menendez","City":"St. Augustine","Zip":"32084","COUNTY":"ST. JOHNS","Notes":"(904) 825-1026","X":-81.310160960000005,"Y":29.891808050000002,"USNG":"17R MP 70053 06837","SURGE_ZONE":null,"PARCELID":null,"FACILITY_TYPE":"MARINA"}},{"type":"Feature","id":105,"geometry":{"type":"Point","coordinates":[-81.31904620614911,29.886741681540808]},"properties":{"OBJECTID":105,"Name":"Marine Supply and Oil","Address":"150 Riberia Street","City":"St. Augustine","Zip":"32084","COUNTY":"ST. JOHNS","Notes":"(904) 829-2271","X":-81.319046209999996,"Y":29.88674168,"USNG":"17R MP 69193 06278","SURGE_ZONE":null,"PARCELID":null,"FACILITY_TYPE":"MARINA"}},{"type":"Feature","id":106,"geometry":{"type":"Point","coordinates":[-87.011360000192056,30.563989998948973]},"properties":{"OBJECTID":106,"Name":"Nichols Seafood Resturant & Marina","Address":"7408 Bain Drive","City":"MILTON","Zip":"32583","COUNTY":"SANTA ROSA","Notes":"SR00012OL","X":-87.011359999999996,"Y":30.56399,"USNG":"16R DU 98910 81282","SURGE_ZONE":"1","PARCELID":null,"FACILITY_TYPE":"MARINA"}},{"type":"Feature","id":107,"geometry":{"type":"Point","coordinates":[-81.266600000628742,28.815599999343629]},"properties":{"OBJECTID":107,"Name":"Monroe Harbour Marina","Address":"531 North Palmetto Avenue","City":"SANFORD","Zip":"32771","COUNTY":"SEMINOLE","Notes":"SE00223PK","X":-81.266599999999997,"Y":28.8156,"USNG":"17R MM 73987 87585","SURGE_ZONE":null,"PARCELID":null,"FACILITY_TYPE":"MARINA"}},{"type":"Feature","id":108,"geometry":{"type":"Point","coordinates":[-83.593370000312433,29.823149998747397]},"properties":{"OBJECTID":108,"Name":"Keaton Beach Marina, Motel and Cottages","Address":"20650 Keaton Beach Drive","City":"KEATON BEACH","Zip":"32348","COUNTY":"TAYLOR","Notes":"TA39723HQ","X":-83.593369999999993,"Y":29.823149999999998,"USNG":"17R KP 49389 02011","SURGE_ZONE":"1","PARCELID":null,"FACILITY_TYPE":"MARINA"}},{"type":"Feature","id":109,"geometry":{"type":"Point","coordinates":[-81.367959999463181,29.134169998720726]},"properties":{"OBJECTID":109,"Name":"Tedder's Fish Camp","Address":"760 Tedders Court","City":"DE LEON SPRINGS","Zip":"32130","COUNTY":"VOLUSIA","Notes":"VO14666GR","X":-81.367959999999997,"Y":29.134170000000001,"USNG":"17R MN 64206 22906","SURGE_ZONE":null,"PARCELID":null,"FACILITY_TYPE":"MARINA"}},{"type":"Feature","id":110,"geometry":{"type":"Point","coordinates":[-81.385000000592044,29.010799999026073]},"properties":{"OBJECTID":110,"Name":"The Boat Show Marina","Address":"2999 W. New York Ave.","City":"DELAND","Zip":"32720","COUNTY":"VOLUSIA","Notes":"VO00194GI","X":-81.385000000000005,"Y":29.0108,"USNG":"17R MN 62504 09243","SURGE_ZONE":null,"PARCELID":null,"FACILITY_TYPE":"MARINA"}},{"type":"Feature","id":111,"geometry":{"type":"Point","coordinates":[-84.201759999639194,30.154769999219226]},"properties":{"OBJECTID":111,"Name":"Shields Marina","Address":"97 Riverside Drive","City":"ST MARKS","Zip":"32355","COUNTY":"WAKULLA","Notes":"WK10045DZ","X":-84.201759999999993,"Y":30.154769999999999,"USNG":"16R GU 69517 39243","SURGE_ZONE":"1","PARCELID":null,"FACILITY_TYPE":"MARINA"}},{"type":"Feature","id":112,"geometry":{"type":"Point","coordinates":[-84.32827014164971,30.078114421647605]},"properties":{"OBJECTID":112,"Name":"SPRING CREEK MARINA","Address":"33 Ben Willis Rd","City":"CRAWFORDVILLE","Zip":"32327","COUNTY":"WAKULLA","Notes":null,"X":-84.328270140000001,"Y":30.078114419999999,"USNG":"16R GU 57526 30451","SURGE_ZONE":null,"PARCELID":null,"FACILITY_TYPE":"MARINA"}},{"type":"Feature","id":113,"geometry":{"type":"Point","coordinates":[-84.21643000003391,30.158989998828265]},"properties":{"OBJECTID":113,"Name":"Shell Island Fish Camp & Marina","Address":"End of SR 363/Shell Island Road at Wakul","City":"ST MARKS","Zip":"32355","COUNTY":"WAKULLA","Notes":"WK10073QN","X":-84.216430000000003,"Y":30.158989999999999,"USNG":"16R GU 68092 39676","SURGE_ZONE":"1","PARCELID":null,"FACILITY_TYPE":"MARINA"}},{"type":"Feature","id":114,"geometry":{"type":"Point","coordinates":[-86.109419999964217,30.437149999305003]},"properties":{"OBJECTID":114,"Name":"Black Creek Lodge","Address":"710 Black Creek Lodge Rd","City":"FREEPORT","Zip":"32439","COUNTY":"WALTON","Notes":"WL00229SZ","X":-86.10942,"Y":30.437149999999999,"USNG":"16R EU 85517 67563","SURGE_ZONE":"1","PARCELID":null,"FACILITY_TYPE":"MARINA"}},{"type":"Feature","id":115,"geometry":{"type":"Point","coordinates":[-86.170420000598384,30.395829999020812]},"properties":{"OBJECTID":115,"Name":"US Highway 331 Causeway Roadside Access Point #4","Address":"US Highway 331","City":"SANTA ROSA BEACH","Zip":"32459","COUNTY":"WALTON","Notes":"WL44652WJ","X":-86.170419999999993,"Y":30.39583,"USNG":"16R EU 79693 62939","SURGE_ZONE":null,"PARCELID":null,"FACILITY_TYPE":"MARINA"}},{"type":"Feature","id":116,"geometry":{"type":"Point","coordinates":[-86.068709999801541,30.451389998990621]},"properties":{"OBJECTID":116,"Name":"The Outpost - RV Park - Boat Rentals - Marina","Address":"4576 Highway 3280","City":"FREEPORT","Zip":"32439","COUNTY":"WALTON","Notes":"WL00286ZW","X":-86.068709999999996,"Y":30.45139,"USNG":"16R EU 89413 69173","SURGE_ZONE":"1","PARCELID":null,"FACILITY_TYPE":"MARINA"}}]}