{"type":"FeatureCollection","features":[{"type":"Feature","id":1,"geometry":{"type":"Point","coordinates":[-82.330843707239723,29.702319525514227]},"properties":{"OBJECTID":1,"Name":"CO A 146th ESB","Address":"505 NW 53rd Ave","City":"Gainesville","Zip":"32609","COUNTY":"ALACHUA","X":-82.330843709999996,"Y":29.70231953,"LONGLAT":"-82.33084371,29.70231953","USNG":"17R LN 71255 86541","OWNERSHIP":null,"PARCELID":null,"FACILITY_TYPE":"NATIONAL GUARD"}},{"type":"Feature","id":2,"geometry":{"type":"Point","coordinates":[-85.584955903218031,30.067625321662469]},"properties":{"OBJECTID":2,"Name":"HHT 1-152 CAV","Address":"164 ALABAMA AVE","City":"PANAMA CITY","Zip":"32403","COUNTY":"BAY","X":-85.584955899999997,"Y":30.067625320000001,"LONGLAT":"-85.58495590,30.06762532","USNG":"16R FU 36392 27122","OWNERSHIP":null,"PARCELID":"07407-000-000","FACILITY_TYPE":"NATIONAL GUARD"}},{"type":"Feature","id":3,"geometry":{"type":"Point","coordinates":[-85.587250708130185,30.066550616375974]},"properties":{"OBJECTID":3,"Name":"ARMY AND AIR FORCE EXCHANGE SERVICE","Address":"640 SUWANNEE RD BLDG 916","City":"PANAMA CITY","Zip":"32403","COUNTY":"BAY","X":-85.587250710000006,"Y":30.066550620000001,"LONGLAT":"-85.58725071,30.06655062","USNG":"16R FU 36172 27000","OWNERSHIP":null,"PARCELID":"07407-000-000","FACILITY_TYPE":"NATIONAL GUARD"}},{"type":"Feature","id":4,"geometry":{"type":"Point","coordinates":[-85.584589835424197,30.06728784574301]},"properties":{"OBJECTID":4,"Name":"SEADS, Det2","Address":"1129 FLORIDA AVE","City":"PANAMA CITY","Zip":"32403","COUNTY":"BAY","X":-85.584589840000007,"Y":30.06728785,"LONGLAT":"-85.58458984,30.06728785","USNG":"16R FU 36427 27085","OWNERSHIP":"FEDERAL","PARCELID":"07407-000-000","FACILITY_TYPE":"NATIONAL GUARD"}},{"type":"Feature","id":5,"geometry":{"type":"Point","coordinates":[-85.683891604232755,30.204631776940982]},"properties":{"OBJECTID":5,"Name":"HHC 3RD BN 124TH IN","Address":"3121 N LISENBY AVE","City":"PANAMA CITY","Zip":"32405","COUNTY":"BAY","X":-85.683891599999995,"Y":30.20463178,"LONGLAT":"-85.68389160,30.20463178","USNG":"16R FU 26679 42192","OWNERSHIP":"STATE","PARCELID":null,"FACILITY_TYPE":"NATIONAL GUARD"}},{"type":"Feature","id":6,"geometry":{"type":"Point","coordinates":[-85.683891604232755,30.204631776940982]},"properties":{"OBJECTID":6,"Name":"HQ 3RD BN 124TH IN","Address":"3121 N LISENBY AVE","City":"PANAMA CITY","Zip":"32405","COUNTY":"BAY","X":-85.683891599999995,"Y":30.20463178,"LONGLAT":"-85.68389160,30.20463178","USNG":"16R FU 26679 42192","OWNERSHIP":"STATE","PARCELID":null,"FACILITY_TYPE":"NATIONAL GUARD"}},{"type":"Feature","id":7,"geometry":{"type":"Point","coordinates":[-82.11662496110219,29.938055382085594]},"properties":{"OBJECTID":7,"Name":"631st MAINT Co.","Address":"720 EDWARDS RD","City":"STARKE","Zip":"32091","COUNTY":"BRADFORD","X":-82.116624959999996,"Y":29.938055380000002,"LONGLAT":"-82.11662496,29.93805538","USNG":"17R LP 92233 12445","OWNERSHIP":"STATE","PARCELID":null,"FACILITY_TYPE":"NATIONAL GUARD"}},{"type":"Feature","id":8,"geometry":{"type":"Point","coordinates":[-80.742228130372069,28.360975573932304]},"properties":{"OBJECTID":8,"Name":"CO D 1ST BN 124TH IN","Address":"308 NORTH FISKE BLVD","City":"COCOA","Zip":"32922","COUNTY":"BREVARD","X":-80.742228130000001,"Y":28.360975570000001,"LONGLAT":"-80.74222813,28.36097557","USNG":"17R NM 25259 37217","OWNERSHIP":"STATE","PARCELID":"24 362900  751","FACILITY_TYPE":"NATIONAL GUARD"}},{"type":"Feature","id":9,"geometry":{"type":"Point","coordinates":[-80.742228130372069,28.360975573932304]},"properties":{"OBJECTID":9,"Name":"B/1-124th IN Bn","Address":"308 NORTH FISKE BLVD","City":"COCOA","Zip":"32922","COUNTY":"BREVARD","X":-80.742228130000001,"Y":28.360975570000001,"LONGLAT":"-80.74222813,28.36097557","USNG":"17R NM 25259 37217","OWNERSHIP":"STATE","PARCELID":"24 362900  751","FACILITY_TYPE":"NATIONAL GUARD"}},{"type":"Feature","id":10,"geometry":{"type":"Point","coordinates":[-80.646321671976693,28.138001274575036]},"properties":{"OBJECTID":10,"Name":"BTRY A, 2ND BN, 265TH ADA","Address":"1889 STEWARD RD","City":"MELBOURNE","Zip":"32935","COUNTY":"BREVARD","X":-80.646321670000006,"Y":28.138001280000001,"LONGLAT":"-80.64632167,28.13800128","USNG":"17R NM 34730 12540","OWNERSHIP":null,"PARCELID":null,"FACILITY_TYPE":"NATIONAL GUARD"}},{"type":"Feature","id":11,"geometry":{"type":"Point","coordinates":[-80.610073013735516,28.250463686039854]},"properties":{"OBJECTID":11,"Name":"B/1-124th IN Bn","Address":"PATRICK AIR FORCE BASE","City":"PATRICK AFB","Zip":"32925","COUNTY":"BREVARD","X":-80.610073009999994,"Y":28.25046369,"LONGLAT":"-80.61007301,28.25046369","USNG":"17R NM 38249 25009","OWNERSHIP":null,"PARCELID":null,"FACILITY_TYPE":"NATIONAL GUARD"}},{"type":"Feature","id":12,"geometry":{"type":"Point","coordinates":[-80.610073013735516,28.250463686039854]},"properties":{"OBJECTID":12,"Name":"715th MP Co","Address":"PATRICK AIR FORCE BASE","City":"PATRICK AFB","Zip":"32925","COUNTY":"BREVARD","X":-80.610073009999994,"Y":28.25046369,"LONGLAT":"-80.61007301,28.25046369","USNG":"17R NM 38249 25009","OWNERSHIP":null,"PARCELID":null,"FACILITY_TYPE":"NATIONAL GUARD"}},{"type":"Feature","id":13,"geometry":{"type":"Point","coordinates":[-80.646321671976693,28.138001274575036]},"properties":{"OBJECTID":13,"Name":"715 MP CO","Address":"1889 STEWARD RD","City":"MELBOURNE","Zip":"32935","COUNTY":"BREVARD","X":-80.646321670000006,"Y":28.138001280000001,"LONGLAT":"-80.64632167,28.13800128","USNG":"17R NM 34730 12540","OWNERSHIP":null,"PARCELID":null,"FACILITY_TYPE":"NATIONAL GUARD"}},{"type":"Feature","id":14,"geometry":{"type":"Point","coordinates":[-80.815937829969783,28.528322689273818]},"properties":{"OBJECTID":14,"Name":"FMS #18","Address":"1300 White Dr","City":"Titusville","Zip":"32780","COUNTY":"BREVARD","X":-80.815937829999996,"Y":28.52832269,"LONGLAT":"-80.81593783,28.52832269","USNG":"17R NM 18008 55743","OWNERSHIP":null,"PARCELID":null,"FACILITY_TYPE":"NATIONAL GUARD"}},{"type":"Feature","id":15,"geometry":{"type":"Point","coordinates":[-80.610073013735516,28.250463686039854]},"properties":{"OBJECTID":15,"Name":"114TH RANGE OPERATIONS SQUADRON","Address":"PATRICK AIR FORCE BASE","City":"PATRICK AFB","Zip":"32925","COUNTY":"BREVARD","X":-80.610073009999994,"Y":28.25046369,"LONGLAT":"-80.61007301,28.25046369","USNG":"17R NM 38249 25009","OWNERSHIP":null,"PARCELID":null,"FACILITY_TYPE":"NATIONAL GUARD"}},{"type":"Feature","id":16,"geometry":{"type":"Point","coordinates":[-80.149899954803644,26.01914041392892]},"properties":{"OBJECTID":16,"Name":"356th QM Co","Address":"910 N DIXIE HIGHWAY","City":"HOLLYWOOD","Zip":"33020","COUNTY":"BROWARD","X":-80.149899950000005,"Y":26.019140409999999,"LONGLAT":"-80.14989995,26.01914041","USNG":"17R NJ 85064 78080","OWNERSHIP":"STATE","PARCELID":"514210010050","FACILITY_TYPE":"NATIONAL GUARD"}},{"type":"Feature","id":17,"geometry":{"type":"Point","coordinates":[-80.149899954803644,26.01914041392892]},"properties":{"OBJECTID":17,"Name":"CO A, 1ST BN, 124TH IN","Address":"910 N DIXIE HIGHWAY","City":"HOLLYWOOD","Zip":"33020","COUNTY":"BROWARD","X":-80.149899950000005,"Y":26.019140409999999,"LONGLAT":"-80.14989995,26.01914041","USNG":"17R NJ 85064 78080","OWNERSHIP":"STATE","PARCELID":"514210010050","FACILITY_TYPE":"NATIONAL GUARD"}},{"type":"Feature","id":18,"geometry":{"type":"Point","coordinates":[-82.577397219976675,28.865271850867803]},"properties":{"OBJECTID":18,"Name":"DET 1 325TH MAINT CO","Address":"8551 W VENABLE ST","City":"CRYSTAL RIVER","Zip":"34429","COUNTY":"CITRUS","X":-82.577397219999995,"Y":28.865271849999999,"LONGLAT":"-82.57739722,28.86527185","USNG":"17R LM 46152 94081","OWNERSHIP":"STATE","PARCELID":"19E19S030010  00160 0100","FACILITY_TYPE":"NATIONAL GUARD"}},{"type":"Feature","id":19,"geometry":{"type":"Point","coordinates":[-81.973799625960481,29.961289977015166]},"properties":{"OBJECTID":19,"Name":"3-20th SF (HHD & Spt Co)","Address":"CAMP BLANDING","City":"STARKE","Zip":"32091","COUNTY":"CLAY","X":-81.973799630000002,"Y":29.96128998,"LONGLAT":"-81.97379963,29.96128998","USNG":"17R MP 06040 14894","OWNERSHIP":"STATE","PARCELID":"23-06-23-000725-000-00","FACILITY_TYPE":"NATIONAL GUARD"}},{"type":"Feature","id":20,"geometry":{"type":"Point","coordinates":[-81.973799625960481,29.961289977015166]},"properties":{"OBJECTID":20,"Name":"708 CRC CO","Address":"CAMP BLANDING","City":"STARKE","Zip":"32091","COUNTY":"CLAY","X":-81.973799630000002,"Y":29.96128998,"LONGLAT":"-81.97379963,29.96128998","USNG":"17R MP 06040 14894","OWNERSHIP":"STATE","PARCELID":"23-06-23-000725-000-00","FACILITY_TYPE":"NATIONAL GUARD"}},{"type":"Feature","id":21,"geometry":{"type":"Point","coordinates":[-81.973799625960481,29.961289977015166]},"properties":{"OBJECTID":21,"Name":"269th EN Det","Address":"CAMP BLANDING","City":"STARKE","Zip":"32091","COUNTY":"CLAY","X":-81.973799630000002,"Y":29.96128998,"LONGLAT":"-81.97379963,29.96128998","USNG":"17R MP 06040 14894","OWNERSHIP":"STATE","PARCELID":"23-06-23-000725-000-00","FACILITY_TYPE":"NATIONAL GUARD"}},{"type":"Feature","id":22,"geometry":{"type":"Point","coordinates":[-81.973799625960481,29.961289977015166]},"properties":{"OBJECTID":22,"Name":"869th EN Co","Address":"CAMP BLANDING","City":"STARKE","Zip":"32091","COUNTY":"CLAY","X":-81.973799630000002,"Y":29.96128998,"LONGLAT":"-81.97379963,29.96128998","USNG":"17R MP 06040 14894","OWNERSHIP":"STATE","PARCELID":"23-06-23-000725-000-00","FACILITY_TYPE":"NATIONAL GUARD"}},{"type":"Feature","id":23,"geometry":{"type":"Point","coordinates":[-81.973799625960481,29.961289977015166]},"properties":{"OBJECTID":23,"Name":"221st EOD","Address":"CAMP BLANDING","City":"STARKE","Zip":"32091","COUNTY":"CLAY","X":-81.973799630000002,"Y":29.96128998,"LONGLAT":"-81.97379963,29.96128998","USNG":"17R MP 06040 14894","OWNERSHIP":"STATE","PARCELID":"23-06-23-000725-000-00","FACILITY_TYPE":"NATIONAL GUARD"}},{"type":"Feature","id":24,"geometry":{"type":"Point","coordinates":[-81.973799625960481,29.961289977015166]},"properties":{"OBJECTID":24,"Name":"44th CST","Address":"CAMP BLANDING","City":"STARKE","Zip":"32091","COUNTY":"CLAY","X":-81.973799630000002,"Y":29.96128998,"LONGLAT":"-81.97379963,29.96128998","USNG":"17R MP 06040 14894","OWNERSHIP":"STATE","PARCELID":"23-06-23-000725-000-00","FACILITY_TYPE":"NATIONAL GUARD"}},{"type":"Feature","id":25,"geometry":{"type":"Point","coordinates":[-81.973799625960481,29.961289977015166]},"properties":{"OBJECTID":25,"Name":"256th ASMC","Address":"CAMP BLANDING","City":"STARKE","Zip":"32091","COUNTY":"CLAY","X":-81.973799630000002,"Y":29.96128998,"LONGLAT":"-81.97379963,29.96128998","USNG":"17R MP 06040 14894","OWNERSHIP":"STATE","PARCELID":"23-06-23-000725-000-00","FACILITY_TYPE":"NATIONAL GUARD"}},{"type":"Feature","id":26,"geometry":{"type":"Point","coordinates":[-81.973799625960481,29.961289977015166]},"properties":{"OBJECTID":26,"Name":"MATES","Address":"CAMP BLANDING","City":"STARKE","Zip":"32091","COUNTY":"CLAY","X":-81.973799630000002,"Y":29.96128998,"LONGLAT":"-81.97379963,29.96128998","USNG":"17R MP 06040 14894","OWNERSHIP":"STATE","PARCELID":"23-06-23-000725-000-00","FACILITY_TYPE":"NATIONAL GUARD"}},{"type":"Feature","id":27,"geometry":{"type":"Point","coordinates":[-81.973799625960481,29.961289977015166]},"properties":{"OBJECTID":27,"Name":"RTS-M","Address":"CAMP BLANDING","City":"STARKE","Zip":"32091","COUNTY":"CLAY","X":-81.973799630000002,"Y":29.96128998,"LONGLAT":"-81.97379963,29.96128998","USNG":"17R MP 06040 14894","OWNERSHIP":"STATE","PARCELID":"23-06-23-000725-000-00","FACILITY_TYPE":"NATIONAL GUARD"}},{"type":"Feature","id":28,"geometry":{"type":"Point","coordinates":[-81.973799625960481,29.961289977015166]},"properties":{"OBJECTID":28,"Name":"689th EN Tm","Address":"CAMP BLANDING","City":"STARKE","Zip":"32091","COUNTY":"CLAY","X":-81.973799630000002,"Y":29.96128998,"LONGLAT":"-81.97379963,29.96128998","USNG":"17R MP 06040 14894","OWNERSHIP":"STATE","PARCELID":"23-06-23-000725-000-00","FACILITY_TYPE":"NATIONAL GUARD"}},{"type":"Feature","id":29,"geometry":{"type":"Point","coordinates":[-81.973799625960481,29.961289977015166]},"properties":{"OBJECTID":29,"Name":"202 RHS","Address":"CAMP BLANDING","City":"STARKE","Zip":"32091","COUNTY":"CLAY","X":-81.973799630000002,"Y":29.96128998,"LONGLAT":"-81.97379963,29.96128998","USNG":"17R MP 06040 14894","OWNERSHIP":"STATE","PARCELID":"23-06-23-000725-000-00","FACILITY_TYPE":"NATIONAL GUARD"}},{"type":"Feature","id":30,"geometry":{"type":"Point","coordinates":[-81.973799625960481,29.961289977015166]},"properties":{"OBJECTID":30,"Name":"MED Det","Address":"CAMP BLANDING","City":"STARKE","Zip":"32091","COUNTY":"CLAY","X":-81.973799630000002,"Y":29.96128998,"LONGLAT":"-81.97379963,29.96128998","USNG":"17R MP 06040 14894","OWNERSHIP":"STATE","PARCELID":"23-06-23-000725-000-00","FACILITY_TYPE":"NATIONAL GUARD"}},{"type":"Feature","id":31,"geometry":{"type":"Point","coordinates":[-81.973799625960481,29.961289977015166]},"properties":{"OBJECTID":31,"Name":"J4 SMM","Address":"CAMP BLANDING","City":"STARKE","Zip":"32091","COUNTY":"CLAY","X":-81.973799630000002,"Y":29.96128998,"LONGLAT":"-81.97379963,29.96128998","USNG":"17R MP 06040 14894","OWNERSHIP":"STATE","PARCELID":"23-06-23-000725-000-00","FACILITY_TYPE":"NATIONAL GUARD"}},{"type":"Feature","id":32,"geometry":{"type":"Point","coordinates":[-81.973799625960481,29.961289977015166]},"properties":{"OBJECTID":32,"Name":"CBJTC","Address":"CAMP BLANDING","City":"STARKE","Zip":"32091","COUNTY":"CLAY","X":-81.973799630000002,"Y":29.96128998,"LONGLAT":"-81.97379963,29.96128998","USNG":"17R MP 06040 14894","OWNERSHIP":"STATE","PARCELID":"23-06-23-000725-000-00","FACILITY_TYPE":"NATIONAL GUARD"}},{"type":"Feature","id":33,"geometry":{"type":"Point","coordinates":[-81.973799625960481,29.961289977015166]},"properties":{"OBJECTID":33,"Name":"211th RTI","Address":"CAMP BLANDING","City":"STARKE","Zip":"32091","COUNTY":"CLAY","X":-81.973799630000002,"Y":29.96128998,"LONGLAT":"-81.97379963,29.96128998","USNG":"17R MP 06040 14894","OWNERSHIP":"STATE","PARCELID":"23-06-23-000725-000-00","FACILITY_TYPE":"NATIONAL GUARD"}},{"type":"Feature","id":34,"geometry":{"type":"Point","coordinates":[-81.987235855490695,29.977240976206016]},"properties":{"OBJECTID":34,"Name":"CBJTC","Address":"5629 STATE ROAD 16 W","City":"STARKE","Zip":"32091","COUNTY":"CLAY","X":-81.987235859999998,"Y":29.977240980000001,"LONGLAT":"-81.98723586,29.97724098","USNG":"17R MP 04759 16673","OWNERSHIP":"STATE","PARCELID":"15-06-23-000572-000-00","FACILITY_TYPE":"NATIONAL GUARD"}},{"type":"Feature","id":35,"geometry":{"type":"Point","coordinates":[-81.973799625960481,29.961289977015166]},"properties":{"OBJECTID":35,"Name":"WRTC","Address":"CAMP BLANDING","City":"STARKE","Zip":"32091","COUNTY":"CLAY","X":-81.973799630000002,"Y":29.96128998,"LONGLAT":"-81.97379963,29.96128998","USNG":"17R MP 06040 14894","OWNERSHIP":"STATE","PARCELID":"23-06-23-000725-000-00","FACILITY_TYPE":"NATIONAL GUARD"}},{"type":"Feature","id":36,"geometry":{"type":"Point","coordinates":[-81.973799625960481,29.961289977015166]},"properties":{"OBJECTID":36,"Name":"RTS-M","Address":"CAMP BLANDING","City":"STARKE","Zip":"32091","COUNTY":"CLAY","X":-81.973799630000002,"Y":29.96128998,"LONGLAT":"-81.97379963,29.96128998","USNG":"17R MP 06040 14894","OWNERSHIP":"STATE","PARCELID":"23-06-23-000725-000-00","FACILITY_TYPE":"NATIONAL GUARD"}},{"type":"Feature","id":37,"geometry":{"type":"Point","coordinates":[-81.973799625960481,29.961289977015166]},"properties":{"OBJECTID":37,"Name":"927th CSSB","Address":"CAMP BLANDING","City":"STARKE","Zip":"32091","COUNTY":"CLAY","X":-81.973799630000002,"Y":29.96128998,"LONGLAT":"-81.97379963,29.96128998","USNG":"17R MP 06040 14894","OWNERSHIP":"STATE","PARCELID":"23-06-23-000725-000-00","FACILITY_TYPE":"NATIONAL GUARD"}},{"type":"Feature","id":38,"geometry":{"type":"Point","coordinates":[-81.968423423847483,29.971643565261104]},"properties":{"OBJECTID":38,"Name":"Camp Blanding Joint Training Center","Address":"State Road 16 - Entrance Tallahassee St","City":"STARKE","Zip":"32091","COUNTY":"CLAY","X":-81.968423419999993,"Y":29.971643570000001,"LONGLAT":"-81.96842342,29.97164357","USNG":"17R MP 06569 16037","OWNERSHIP":null,"PARCELID":null,"FACILITY_TYPE":"NATIONAL GUARD"}},{"type":"Feature","id":39,"geometry":{"type":"Point","coordinates":[-81.396810908713562,26.416492213333967]},"properties":{"OBJECTID":39,"Name":"856th QM Co","Address":"2050 Commerce Ave Unit 6","City":"Immokalee","Zip":"34142","COUNTY":"COLLIER","X":-81.396810909999999,"Y":26.416492210000001,"LONGLAT":"-81.39681091,26.41649221","USNG":"17R MK 60428 21870","OWNERSHIP":null,"PARCELID":null,"FACILITY_TYPE":"NATIONAL GUARD"}},{"type":"Feature","id":40,"geometry":{"type":"Point","coordinates":[-82.648727617672407,30.193884893945661]},"properties":{"OBJECTID":40,"Name":"Ground/Aviation Maintenance Activities","Address":"490 LAKE JEFFERY RD NW","City":"LAKE CITY","Zip":"32055","COUNTY":"COLUMBIA","X":-82.648727620000003,"Y":30.19388489,"LONGLAT":"-82.64872762,30.19388489","USNG":"17R LP 41283 41418","OWNERSHIP":"STATE","PARCELID":null,"FACILITY_TYPE":"NATIONAL GUARD"}},{"type":"Feature","id":41,"geometry":{"type":"Point","coordinates":[-82.648727617672407,30.193884893945661]},"properties":{"OBJECTID":41,"Name":"153RD ENGINEER COMPANY","Address":"490 LAKE JEFFERY RD NW","City":"LAKE CITY","Zip":"32055","COUNTY":"COLUMBIA","X":-82.648727620000003,"Y":30.19388489,"LONGLAT":"-82.64872762,30.19388489","USNG":"17R LP 41283 41418","OWNERSHIP":"STATE","PARCELID":null,"FACILITY_TYPE":"NATIONAL GUARD"}},{"type":"Feature","id":42,"geometry":{"type":"Point","coordinates":[-82.648727617672407,30.193884893945661]},"properties":{"OBJECTID":42,"Name":"FMS #8","Address":"490 LAKE JEFFERY RD NW","City":"LAKE CITY","Zip":"32055","COUNTY":"COLUMBIA","X":-82.648727620000003,"Y":30.19388489,"LONGLAT":"-82.64872762,30.19388489","USNG":"17R LP 41283 41418","OWNERSHIP":"STATE","PARCELID":null,"FACILITY_TYPE":"NATIONAL GUARD"}},{"type":"Feature","id":43,"geometry":{"type":"Point","coordinates":[-81.864798796623262,27.230345033811815]},"properties":{"OBJECTID":43,"Name":"R&R, 3-116 FA, A BTRY","Address":"787 KELLY DRIVE","City":"ARCADIA","Zip":"34266","COUNTY":"DESOTO","X":-81.864798800000003,"Y":27.230345029999999,"LONGLAT":"-81.86479880,27.23034503","USNG":"17R ML 14372 12244","OWNERSHIP":"OTHER PUBLIC","PARCELID":"25-37-24-0A00-0400-0000","FACILITY_TYPE":"NATIONAL GUARD"}},{"type":"Feature","id":44,"geometry":{"type":"Point","coordinates":[-81.864798796623262,27.230345033811815]},"properties":{"OBJECTID":44,"Name":"BTRY A, 3RD BN, 116TH FA","Address":"787 KELLY DRIVE","City":"ARCADIA","Zip":"34266","COUNTY":"DESOTO","X":-81.864798800000003,"Y":27.230345029999999,"LONGLAT":"-81.86479880,27.23034503","USNG":"17R ML 14372 12244","OWNERSHIP":"OTHER PUBLIC","PARCELID":"25-37-24-0A00-0400-0000","FACILITY_TYPE":"NATIONAL GUARD"}},{"type":"Feature","id":45,"geometry":{"type":"Point","coordinates":[-81.821308456751581,30.277918061510388]},"properties":{"OBJECTID":45,"Name":"CO C 146TH SIG BN","Address":"9900 NORMANDY BLVD","City":"JACKSONVILLE","Zip":"32210","COUNTY":"DUVAL","X":-81.821308459999997,"Y":30.277918060000001,"LONGLAT":"-81.82130846,30.27791806","USNG":"17R MP 21007 49867","OWNERSHIP":"STATE","PARCELID":"0090210010R","FACILITY_TYPE":"NATIONAL GUARD"}},{"type":"Feature","id":46,"geometry":{"type":"Point","coordinates":[-81.821308456751581,30.277918061510388]},"properties":{"OBJECTID":46,"Name":"HQ 146TH SIG BN (CORPS AREA)","Address":"9900 NORMANDY BLVD","City":"JACKSONVILLE","Zip":"32210","COUNTY":"DUVAL","X":-81.821308459999997,"Y":30.277918060000001,"LONGLAT":"-81.82130846,30.27791806","USNG":"17R MP 21007 49867","OWNERSHIP":"STATE","PARCELID":"0090210010R","FACILITY_TYPE":"NATIONAL GUARD"}},{"type":"Feature","id":47,"geometry":{"type":"Point","coordinates":[-81.821308456751581,30.277918061510388]},"properties":{"OBJECTID":47,"Name":"CO A, 146TH SIG BN","Address":"9900 NORMANDY BLVD","City":"JACKSONVILLE","Zip":"32210","COUNTY":"DUVAL","X":-81.821308459999997,"Y":30.277918060000001,"LONGLAT":"-81.82130846,30.27791806","USNG":"17R MP 21007 49867","OWNERSHIP":"STATE","PARCELID":"0090210010R","FACILITY_TYPE":"NATIONAL GUARD"}},{"type":"Feature","id":48,"geometry":{"type":"Point","coordinates":[-81.884814000004852,30.222523999322181]},"properties":{"OBJECTID":48,"Name":"83rd Troop Command","Address":"13433 Crossover St","City":"Jacksonville","Zip":" ","COUNTY":"DUVAL","X":-81.884814000000006,"Y":30.222524,"LONGLAT":"-81.88481400,30.22252400","USNG":"17R MP 14851 43774","OWNERSHIP":null,"PARCELID":null,"FACILITY_TYPE":"NATIONAL GUARD"}},{"type":"Feature","id":49,"geometry":{"type":"Point","coordinates":[-81.884814000004852,30.222523999322181]},"properties":{"OBJECTID":49,"Name":"Detachment 1, Company B, 1204th AV (AVIM)","Address":"13433 Crossover St","City":"Jacksonville","Zip":" ","COUNTY":"DUVAL","X":-81.884814000000006,"Y":30.222524,"LONGLAT":"-81.88481400,30.22252400","USNG":"17R MP 14851 43774","OWNERSHIP":null,"PARCELID":null,"FACILITY_TYPE":"NATIONAL GUARD"}},{"type":"Feature","id":50,"geometry":{"type":"Point","coordinates":[-81.522618047199643,30.332418709587682]},"properties":{"OBJECTID":50,"Name":"CO D 1ST BN 111TH AVIATION","Address":"609 SAINT JOHNS BLUFF RD N","City":"JACKSONVILLE","Zip":"32225","COUNTY":"DUVAL","X":-81.522618050000005,"Y":30.332418709999999,"LONGLAT":"-81.52261805,30.33241871","USNG":"17R MP 49763 55736","OWNERSHIP":"COUNTY","PARCELID":"1622270100R","FACILITY_TYPE":"NATIONAL GUARD"}},{"type":"Feature","id":51,"geometry":{"type":"Point","coordinates":[-81.702537962414155,30.486990072481017]},"properties":{"OBJECTID":51,"Name":"159TH FIGHTER SQUADRON","Address":"14300 FANG DR","City":"JACKSONVILLE","Zip":"32218","COUNTY":"DUVAL","X":-81.702537960000001,"Y":30.486990070000001,"LONGLAT":"-81.70253796,30.48699007","USNG":"17R MP 32574 72959","OWNERSHIP":"COUNTY","PARCELID":"0192800000R","FACILITY_TYPE":"NATIONAL GUARD"}},{"type":"Feature","id":52,"geometry":{"type":"Point","coordinates":[-81.702537962414155,30.486990072481017]},"properties":{"OBJECTID":52,"Name":"8125TH STUDENT FLIGHT","Address":"14300 FANG DR","City":"JACKSONVILLE","Zip":"32218","COUNTY":"DUVAL","X":-81.702537960000001,"Y":30.486990070000001,"LONGLAT":"-81.70253796,30.48699007","USNG":"17R MP 32574 72959","OWNERSHIP":"COUNTY","PARCELID":"0192800000R","FACILITY_TYPE":"NATIONAL GUARD"}},{"type":"Feature","id":53,"geometry":{"type":"Point","coordinates":[-81.522618047199643,30.332418709587682]},"properties":{"OBJECTID":53,"Name":"HQ 1ST BN 111TH AVIATION","Address":"609 SAINT JOHNS BLUFF RD N","City":"JACKSONVILLE","Zip":"32225","COUNTY":"DUVAL","X":-81.522618050000005,"Y":30.332418709999999,"LONGLAT":"-81.52261805,30.33241871","USNG":"17R MP 49763 55736","OWNERSHIP":"COUNTY","PARCELID":"1622270100R","FACILITY_TYPE":"NATIONAL GUARD"}},{"type":"Feature","id":54,"geometry":{"type":"Point","coordinates":[-81.522618047199643,30.332418709587682]},"properties":{"OBJECTID":54,"Name":"B/1204th AV","Address":"609 SAINT JOHNS BLUFF RD N","City":"JACKSONVILLE","Zip":"32225","COUNTY":"DUVAL","X":-81.522618050000005,"Y":30.332418709999999,"LONGLAT":"-81.52261805,30.33241871","USNG":"17R MP 49763 55736","OWNERSHIP":"COUNTY","PARCELID":"1622270100R","FACILITY_TYPE":"NATIONAL GUARD"}},{"type":"Feature","id":55,"geometry":{"type":"Point","coordinates":[-81.522618047199643,30.332418709587682]},"properties":{"OBJECTID":55,"Name":"CO B, 1ST BN, 111TH AVIATION","Address":"609 SAINT JOHNS BLUFF RD N","City":"JACKSONVILLE","Zip":"32225","COUNTY":"DUVAL","X":-81.522618050000005,"Y":30.332418709999999,"LONGLAT":"-81.52261805,30.33241871","USNG":"17R MP 49763 55736","OWNERSHIP":"COUNTY","PARCELID":"1622270100R","FACILITY_TYPE":"NATIONAL GUARD"}},{"type":"Feature","id":56,"geometry":{"type":"Point","coordinates":[-81.702537962414155,30.486990072481017]},"properties":{"OBJECTID":56,"Name":"125TH FIGHTER WING","Address":"14300 FANG DR","City":"JACKSONVILLE","Zip":"32218","COUNTY":"DUVAL","X":-81.702537960000001,"Y":30.486990070000001,"LONGLAT":"-81.70253796,30.48699007","USNG":"17R MP 32574 72959","OWNERSHIP":"COUNTY","PARCELID":"0192800000R","FACILITY_TYPE":"NATIONAL GUARD"}},{"type":"Feature","id":57,"geometry":{"type":"Point","coordinates":[-81.522618047199643,30.332418709587682]},"properties":{"OBJECTID":57,"Name":"CO E 111TH ATS","Address":"609 SAINT JOHNS BLUFF RD N","City":"JACKSONVILLE","Zip":"32225","COUNTY":"DUVAL","X":-81.522618050000005,"Y":30.332418709999999,"LONGLAT":"-81.52261805,30.33241871","USNG":"17R MP 49763 55736","OWNERSHIP":"COUNTY","PARCELID":"1622270100R","FACILITY_TYPE":"NATIONAL GUARD"}},{"type":"Feature","id":58,"geometry":{"type":"Point","coordinates":[-81.522618047199643,30.332418709587682]},"properties":{"OBJECTID":58,"Name":"Det 1","Address":"609 SAINT JOHNS BLUFF RD N","City":"JACKSONVILLE","Zip":"32225","COUNTY":"DUVAL","X":-81.522618050000005,"Y":30.332418709999999,"LONGLAT":"-81.52261805,30.33241871","USNG":"17R MP 49763 55736","OWNERSHIP":"COUNTY","PARCELID":"1622270100R","FACILITY_TYPE":"NATIONAL GUARD"}},{"type":"Feature","id":59,"geometry":{"type":"Point","coordinates":[-81.522618047199643,30.332418709587682]},"properties":{"OBJECTID":59,"Name":"ARMY AVIATION SUPPORT FACILITY #1","Address":"609 SAINT JOHNS BLUFF RD N","City":"JACKSONVILLE","Zip":"32225","COUNTY":"DUVAL","X":-81.522618050000005,"Y":30.332418709999999,"LONGLAT":"-81.52261805,30.33241871","USNG":"17R MP 49763 55736","OWNERSHIP":"COUNTY","PARCELID":"1622270100R","FACILITY_TYPE":"NATIONAL GUARD"}},{"type":"Feature","id":60,"geometry":{"type":"Point","coordinates":[-81.522618047199643,30.332418709587682]},"properties":{"OBJECTID":60,"Name":"1-111th AV (GSAB)","Address":"609 SAINT JOHNS BLUFF RD N","City":"JACKSONVILLE","Zip":"32225","COUNTY":"DUVAL","X":-81.522618050000005,"Y":30.332418709999999,"LONGLAT":"-81.52261805,30.33241871","USNG":"17R MP 49763 55736","OWNERSHIP":"COUNTY","PARCELID":"1622270100R","FACILITY_TYPE":"NATIONAL GUARD"}},{"type":"Feature","id":61,"geometry":{"type":"Point","coordinates":[-81.522618047199643,30.332418709587682]},"properties":{"OBJECTID":61,"Name":"B/2 151st AV","Address":"609 SAINT JOHNS BLUFF RD N","City":"JACKSONVILLE","Zip":"32225","COUNTY":"DUVAL","X":-81.522618050000005,"Y":30.332418709999999,"LONGLAT":"-81.52261805,30.33241871","USNG":"17R MP 49763 55736","OWNERSHIP":"COUNTY","PARCELID":"1622270100R","FACILITY_TYPE":"NATIONAL GUARD"}},{"type":"Feature","id":62,"geometry":{"type":"Point","coordinates":[-81.522618047199643,30.332418709587682]},"properties":{"OBJECTID":62,"Name":"HHC 1ST BN 111TH AVIATION","Address":"609 SAINT JOHNS BLUFF RD N","City":"JACKSONVILLE","Zip":"32225","COUNTY":"DUVAL","X":-81.522618050000005,"Y":30.332418709999999,"LONGLAT":"-81.52261805,30.33241871","USNG":"17R MP 49763 55736","OWNERSHIP":"COUNTY","PARCELID":"1622270100R","FACILITY_TYPE":"NATIONAL GUARD"}},{"type":"Feature","id":63,"geometry":{"type":"Point","coordinates":[-81.522618047199643,30.332418709587682]},"properties":{"OBJECTID":63,"Name":"CO A, 1ST BN, 111TH AVIATION","Address":"609 SAINT JOHNS BLUFF RD N","City":"JACKSONVILLE","Zip":"32225","COUNTY":"DUVAL","X":-81.522618050000005,"Y":30.332418709999999,"LONGLAT":"-81.52261805,30.33241871","USNG":"17R MP 49763 55736","OWNERSHIP":"COUNTY","PARCELID":"1622270100R","FACILITY_TYPE":"NATIONAL GUARD"}},{"type":"Feature","id":64,"geometry":{"type":"Point","coordinates":[-81.522618047199643,30.332418709587682]},"properties":{"OBJECTID":64,"Name":"CO C 1ST BN 111TH AVIATION","Address":"609 SAINT JOHNS BLUFF RD N","City":"JACKSONVILLE","Zip":"32225","COUNTY":"DUVAL","X":-81.522618050000005,"Y":30.332418709999999,"LONGLAT":"-81.52261805,30.33241871","USNG":"17R MP 49763 55736","OWNERSHIP":"COUNTY","PARCELID":"1622270100R","FACILITY_TYPE":"NATIONAL GUARD"}},{"type":"Feature","id":65,"geometry":{"type":"Point","coordinates":[-81.821308456751581,30.277918061510388]},"properties":{"OBJECTID":65,"Name":"C/HHC 146th ESB Intel Det, 260 MI","Address":"9900 NORMANDY BLVD","City":"JACKSONVILLE","Zip":"32210","COUNTY":"DUVAL","X":-81.821308459999997,"Y":30.277918060000001,"LONGLAT":"-81.82130846,30.27791806","USNG":"17R MP 21007 49867","OWNERSHIP":"STATE","PARCELID":"0090210010R","FACILITY_TYPE":"NATIONAL GUARD"}},{"type":"Feature","id":66,"geometry":{"type":"Point","coordinates":[-81.821308456751581,30.277918061510388]},"properties":{"OBJECTID":66,"Name":"HHC, 146th Expeditionary Signal Battalion","Address":"9900 NORMANDY BLVD","City":"JACKSONVILLE","Zip":"32210","COUNTY":"DUVAL","X":-81.821308459999997,"Y":30.277918060000001,"LONGLAT":"-81.82130846,30.27791806","USNG":"17R MP 21007 49867","OWNERSHIP":"STATE","PARCELID":"0090210010R","FACILITY_TYPE":"NATIONAL GUARD"}},{"type":"Feature","id":67,"geometry":{"type":"Point","coordinates":[-87.193765480667892,30.525515253308175]},"properties":{"OBJECTID":67,"Name":"ARMY NATIONAL GUARD","Address":"3300 COPTER RD","City":"PENSACOLA","Zip":"32514","COUNTY":"ESCAMBIA","X":-87.193765479999996,"Y":30.525515250000002,"LONGLAT":"-87.19376548,30.52551525","USNG":"16R DU 81411 77035","OWNERSHIP":null,"PARCELID":null,"FACILITY_TYPE":"NATIONAL GUARD"}},{"type":"Feature","id":68,"geometry":{"type":"Point","coordinates":[-87.189024514840085,30.521212128129619]},"properties":{"OBJECTID":68,"Name":"CO B 146th ESB","Address":"8790 GROW DR","City":"PENSACOLA","Zip":"32514","COUNTY":"ESCAMBIA","X":-87.189024509999996,"Y":30.521212129999999,"LONGLAT":"-87.18902451,30.52121213","USNG":"16R DU 81865 76557","OWNERSHIP":"STATE","PARCELID":"031S291002000000","FACILITY_TYPE":"NATIONAL GUARD"}},{"type":"Feature","id":69,"geometry":{"type":"Point","coordinates":[-87.189024514840085,30.521212128129619]},"properties":{"OBJECTID":69,"Name":"CO B 153RD CAV","Address":"8790 GROW DR","City":"PENSACOLA","Zip":"32514","COUNTY":"ESCAMBIA","X":-87.189024509999996,"Y":30.521212129999999,"LONGLAT":"-87.18902451,30.52121213","USNG":"16R DU 81865 76557","OWNERSHIP":"STATE","PARCELID":"031S291002000000","FACILITY_TYPE":"NATIONAL GUARD"}},{"type":"Feature","id":70,"geometry":{"type":"Point","coordinates":[-81.21098195656306,29.452634082789427]},"properties":{"OBJECTID":70,"Name":"ARMY READINESS CENTER","Address":"100 AIRPORT EXECUTIVE DR","City":"PALM COAST","Zip":"32164","COUNTY":"FLAGLER","X":-81.210981959999998,"Y":29.452634079999999,"LONGLAT":"-81.21098196,29.45263408","USNG":"17R MN 79540 58153","OWNERSHIP":null,"PARCELID":null,"FACILITY_TYPE":"NATIONAL GUARD"}},{"type":"Feature","id":71,"geometry":{"type":"Point","coordinates":[-84.984798537628905,29.726377425809385]},"properties":{"OBJECTID":71,"Name":"DET 1 CO A 3RD BN 124TH IN","Address":"66 E 4TH ST","City":"APALACHICOLA","Zip":"32320","COUNTY":"FRANKLIN","X":-84.98479854,"Y":29.726377429999999,"LONGLAT":"-84.98479854,29.72637743","USNG":"16R FT 94913 90166","OWNERSHIP":"STATE","PARCELID":"01-09S-08W-8330-0009-0010","FACILITY_TYPE":"NATIONAL GUARD"}},{"type":"Feature","id":72,"geometry":{"type":"Point","coordinates":[-84.591557267542697,30.555383699060229]},"properties":{"OBJECTID":72,"Name":"669 EN DET","Address":"2049 Pat Thomas Pkwy","City":"Quincy","Zip":"32351","COUNTY":"GADSDEN","X":-84.591557269999996,"Y":30.5553837,"LONGLAT":"-84.59155727,30.55538370","USNG":"16R GU 31017 82798","OWNERSHIP":null,"PARCELID":null,"FACILITY_TYPE":"NATIONAL GUARD"}},{"type":"Feature","id":73,"geometry":{"type":"Point","coordinates":[-84.591557267542697,30.555383699060229]},"properties":{"OBJECTID":73,"Name":"83rd Troop Command","Address":"2049 Pat Thomas Pkwy","City":"Quincy","Zip":"32351","COUNTY":"GADSDEN","X":-84.591557269999996,"Y":30.5553837,"LONGLAT":"-84.59155727,30.55538370","USNG":"16R GU 31017 82798","OWNERSHIP":null,"PARCELID":null,"FACILITY_TYPE":"NATIONAL GUARD"}},{"type":"Feature","id":74,"geometry":{"type":"Point","coordinates":[-81.838489732932274,27.534852205684146]},"properties":{"OBJECTID":74,"Name":"NATIONAL GUARD - WAUCHULA ARMORY","Address":"450 RODEO DRIVE","City":"WAUCHULA","Zip":" ","COUNTY":"HARDEE","X":-81.838489730000006,"Y":27.53485221,"LONGLAT":"-81.83848973,27.53485221","USNG":"17R ML 17204 45957","OWNERSHIP":null,"PARCELID":null,"FACILITY_TYPE":"NATIONAL GUARD"}},{"type":"Feature","id":75,"geometry":{"type":"Point","coordinates":[-81.838489732932274,27.534852205684146]},"properties":{"OBJECTID":75,"Name":"C CO","Address":"450 RODEO DRIVE","City":"WAUCHULA","Zip":" ","COUNTY":"HARDEE","X":-81.838489730000006,"Y":27.53485221,"LONGLAT":"-81.83848973,27.53485221","USNG":"17R ML 17204 45957","OWNERSHIP":null,"PARCELID":null,"FACILITY_TYPE":"NATIONAL GUARD"}},{"type":"Feature","id":76,"geometry":{"type":"Point","coordinates":[-81.838489732932274,27.534852205684146]},"properties":{"OBJECTID":76,"Name":"C/3-20th SF","Address":"450 RODEO DRIVE","City":"WAUCHULA","Zip":" ","COUNTY":"HARDEE","X":-81.838489730000006,"Y":27.53485221,"LONGLAT":"-81.83848973,27.53485221","USNG":"17R ML 17204 45957","OWNERSHIP":null,"PARCELID":null,"FACILITY_TYPE":"NATIONAL GUARD"}},{"type":"Feature","id":77,"geometry":{"type":"Point","coordinates":[-82.459059657592604,28.478375238063776]},"properties":{"OBJECTID":77,"Name":"1/H/171st AV","Address":"16330 Flight Path Drive","City":"Brooksville","Zip":"34604","COUNTY":"HERNANDO","X":-82.459059659999994,"Y":28.478375239999998,"LONGLAT":"-82.45905966,28.47837524","USNG":"17R LM 57171 51063","OWNERSHIP":null,"PARCELID":null,"FACILITY_TYPE":"NATIONAL GUARD"}},{"type":"Feature","id":78,"geometry":{"type":"Point","coordinates":[-82.45442700563504,28.480351885838534]},"properties":{"OBJECTID":78,"Name":"1-244 AV, E CO (-), DET 1","Address":"16386 SPRING HILL DR","City":"BROOKSVILLE","Zip":"34604","COUNTY":"HERNANDO","X":-82.454427010000003,"Y":28.480351890000001,"LONGLAT":"-82.45442701,28.48035189","USNG":"17R LM 57627 51277","OWNERSHIP":null,"PARCELID":"R18 423 19 0000 0310 0060","FACILITY_TYPE":"NATIONAL GUARD"}},{"type":"Feature","id":79,"geometry":{"type":"Point","coordinates":[-82.45442700563504,28.480351885838534]},"properties":{"OBJECTID":79,"Name":"ARMY AVIATION SUPPORT FACIL #2","Address":"16386 SPRING HILL DR","City":"BROOKSVILLE","Zip":"34604","COUNTY":"HERNANDO","X":-82.454427010000003,"Y":28.480351890000001,"LONGLAT":"-82.45442701,28.48035189","USNG":"17R LM 57627 51277","OWNERSHIP":null,"PARCELID":"R18 423 19 0000 0310 0060","FACILITY_TYPE":"NATIONAL GUARD"}},{"type":"Feature","id":80,"geometry":{"type":"Point","coordinates":[-82.45442700563504,28.480351885838534]},"properties":{"OBJECTID":80,"Name":"CO D 1ST BN 171ST AVN","Address":"16386 SPRING HILL DR","City":"BROOKSVILLE","Zip":"34604","COUNTY":"HERNANDO","X":-82.454427010000003,"Y":28.480351890000001,"LONGLAT":"-82.45442701,28.48035189","USNG":"17R LM 57627 51277","OWNERSHIP":null,"PARCELID":"R18 423 19 0000 0310 0060","FACILITY_TYPE":"NATIONAL GUARD"}},{"type":"Feature","id":81,"geometry":{"type":"Point","coordinates":[-82.45442700563504,28.480351885838534]},"properties":{"OBJECTID":81,"Name":"National Guard Armory","Address":"16386 SPRING HILL DR","City":"BROOKSVILLE","Zip":"34604","COUNTY":"HERNANDO","X":-82.454427010000003,"Y":28.480351890000001,"LONGLAT":"-82.45442701,28.48035189","USNG":"17R LM 57627 51277","OWNERSHIP":null,"PARCELID":"R18 423 19 0000 0310 0060","FACILITY_TYPE":"NATIONAL GUARD"}},{"type":"Feature","id":82,"geometry":{"type":"Point","coordinates":[-82.45442700563504,28.480351885838534]},"properties":{"OBJECTID":82,"Name":"1-244 AV, HHC (-), DET 1","Address":"16386 SPRING HILL DR","City":"BROOKSVILLE","Zip":"34604","COUNTY":"HERNANDO","X":-82.454427010000003,"Y":28.480351890000001,"LONGLAT":"-82.45442701,28.48035189","USNG":"17R LM 57627 51277","OWNERSHIP":null,"PARCELID":"R18 423 19 0000 0310 0060","FACILITY_TYPE":"NATIONAL GUARD"}},{"type":"Feature","id":83,"geometry":{"type":"Point","coordinates":[-82.45442700563504,28.480351885838534]},"properties":{"OBJECTID":83,"Name":"1-244 AV, C CO","Address":"16386 SPRING HILL DR","City":"BROOKSVILLE","Zip":"34604","COUNTY":"HERNANDO","X":-82.454427010000003,"Y":28.480351890000001,"LONGLAT":"-82.45442701,28.48035189","USNG":"17R LM 57627 51277","OWNERSHIP":null,"PARCELID":"R18 423 19 0000 0310 0060","FACILITY_TYPE":"NATIONAL GUARD"}},{"type":"Feature","id":84,"geometry":{"type":"Point","coordinates":[-82.454536053917693,28.478874763717485]},"properties":{"OBJECTID":84,"Name":"AASF #2","Address":"16388 Helicopter Dr","City":"Brooksville","Zip":"34604","COUNTY":"HERNANDO","X":-82.454536050000002,"Y":28.47887476,"LONGLAT":"-82.45453605,28.47887476","USNG":"17R LM 57615 51113","OWNERSHIP":null,"PARCELID":null,"FACILITY_TYPE":"NATIONAL GUARD"}},{"type":"Feature","id":85,"geometry":{"type":"Point","coordinates":[-82.45442700563504,28.480351885838534]},"properties":{"OBJECTID":85,"Name":"DET 1 CO C 3RD SF BN 20TH SF G","Address":"16386 SPRING HILL DR","City":"BROOKSVILLE","Zip":"34604","COUNTY":"HERNANDO","X":-82.454427010000003,"Y":28.480351890000001,"LONGLAT":"-82.45442701,28.48035189","USNG":"17R LM 57627 51277","OWNERSHIP":null,"PARCELID":"R18 423 19 0000 0310 0060","FACILITY_TYPE":"NATIONAL GUARD"}},{"type":"Feature","id":86,"geometry":{"type":"Point","coordinates":[-82.45442700563504,28.480351885838534]},"properties":{"OBJECTID":86,"Name":"1-244 AV, D CO (-), DET 1","Address":"16386 SPRING HILL DR","City":"BROOKSVILLE","Zip":"34604","COUNTY":"HERNANDO","X":-82.454427010000003,"Y":28.480351890000001,"LONGLAT":"-82.45442701,28.48035189","USNG":"17R LM 57627 51277","OWNERSHIP":null,"PARCELID":"R18 423 19 0000 0310 0060","FACILITY_TYPE":"NATIONAL GUARD"}},{"type":"Feature","id":87,"geometry":{"type":"Point","coordinates":[-81.508288022486553,27.551374657702951]},"properties":{"OBJECTID":87,"Name":"R & R, Battery B, 3rd Battalion, 116th Field Artillery","Address":"2500 US 27 South","City":"Avon Park","Zip":"33825","COUNTY":"HIGHLANDS","X":-81.508288019999995,"Y":27.55137466,"LONGLAT":"-81.50828802,27.55137466","USNG":"17R ML 49818 47610","OWNERSHIP":null,"PARCELID":null,"FACILITY_TYPE":"NATIONAL GUARD"}},{"type":"Feature","id":88,"geometry":{"type":"Point","coordinates":[-82.483744072621391,27.948910531470645]},"properties":{"OBJECTID":88,"Name":"BMMC-PBO","Address":"522 N HOWARD AVE","City":"TAMPA","Zip":"33609","COUNTY":"HILLSBOROUGH","X":-82.48374407,"Y":27.948910529999999,"LONGLAT":"-82.48374407,27.94891053","USNG":"17R LL 54036 92428","OWNERSHIP":"STATE","PARCELID":null,"FACILITY_TYPE":"NATIONAL GUARD"}},{"type":"Feature","id":89,"geometry":{"type":"Point","coordinates":[-82.487052343693961,27.836522100096204]},"properties":{"OBJECTID":89,"Name":"SOD-C MacDill AFB","Address":"9211 MARINA BAY DRIVE","City":"TAMPA","Zip":"33621","COUNTY":"HILLSBOROUGH","X":-82.487052340000005,"Y":27.8365221,"LONGLAT":"-82.48705234,27.83652210","USNG":"17R LL 53559 79980","OWNERSHIP":"OTHER PUBLIC","PARCELID":"183020ZZZ000005565000A","FACILITY_TYPE":"NATIONAL GUARD"}},{"type":"Feature","id":90,"geometry":{"type":"Point","coordinates":[-82.487052343693961,27.836522100096204]},"properties":{"OBJECTID":90,"Name":"290TH JOINT COMMUNICATIONS SUPPORT SQUADRON","Address":"9211 MARINA BAY DRIVE","City":"TAMPA","Zip":"33621","COUNTY":"HILLSBOROUGH","X":-82.487052340000005,"Y":27.8365221,"LONGLAT":"-82.48705234,27.83652210","USNG":"17R LL 53559 79980","OWNERSHIP":"OTHER PUBLIC","PARCELID":"183020ZZZ000005565000A","FACILITY_TYPE":"NATIONAL GUARD"}},{"type":"Feature","id":91,"geometry":{"type":"Point","coordinates":[-82.483744072621391,27.948910531470645]},"properties":{"OBJECTID":91,"Name":"253RD MI COMPANY","Address":"522 N HOWARD AVE","City":"TAMPA","Zip":"33609","COUNTY":"HILLSBOROUGH","X":-82.48374407,"Y":27.948910529999999,"LONGLAT":"-82.48374407,27.94891053","USNG":"17R LL 54036 92428","OWNERSHIP":"STATE","PARCELID":null,"FACILITY_TYPE":"NATIONAL GUARD"}},{"type":"Feature","id":92,"geometry":{"type":"Point","coordinates":[-82.483744072621391,27.948910531470645]},"properties":{"OBJECTID":92,"Name":"DET 1 HHC 53RD SPT BN","Address":"522 N HOWARD AVE","City":"TAMPA","Zip":"33609","COUNTY":"HILLSBOROUGH","X":-82.48374407,"Y":27.948910529999999,"LONGLAT":"-82.48374407,27.94891053","USNG":"17R LL 54036 92428","OWNERSHIP":"STATE","PARCELID":null,"FACILITY_TYPE":"NATIONAL GUARD"}},{"type":"Feature","id":93,"geometry":{"type":"Point","coordinates":[-82.160984787267566,28.00399337748388]},"properties":{"OBJECTID":93,"Name":"HHSB 3RD BN 116TH FA (MLRS)","Address":"4004 AIRPORT RD","City":"PLANT CITY","Zip":"33563","COUNTY":"HILLSBOROUGH","X":-82.160984790000001,"Y":28.003993380000001,"LONGLAT":"-82.16098479,28.00399338","USNG":"17R LL 85848 98187","OWNERSHIP":"STATE","PARCELID":null,"FACILITY_TYPE":"NATIONAL GUARD"}},{"type":"Feature","id":94,"geometry":{"type":"Point","coordinates":[-82.483744072621391,27.948910531470645]},"properties":{"OBJECTID":94,"Name":"B/53rd SPT Bn","Address":"522 N HOWARD AVE","City":"TAMPA","Zip":"33609","COUNTY":"HILLSBOROUGH","X":-82.48374407,"Y":27.948910529999999,"LONGLAT":"-82.48374407,27.94891053","USNG":"17R LL 54036 92428","OWNERSHIP":"STATE","PARCELID":null,"FACILITY_TYPE":"NATIONAL GUARD"}},{"type":"Feature","id":95,"geometry":{"type":"Point","coordinates":[-82.483744072621391,27.948910531470645]},"properties":{"OBJECTID":95,"Name":"CO B 53RD SPT  BN","Address":"522 N HOWARD AVE","City":"TAMPA","Zip":"33609","COUNTY":"HILLSBOROUGH","X":-82.48374407,"Y":27.948910529999999,"LONGLAT":"-82.48374407,27.94891053","USNG":"17R LL 54036 92428","OWNERSHIP":"STATE","PARCELID":null,"FACILITY_TYPE":"NATIONAL GUARD"}},{"type":"Feature","id":96,"geometry":{"type":"Point","coordinates":[-82.160984787267566,28.00399337748388]},"properties":{"OBJECTID":96,"Name":"BTRY C, 3RD BN, 116TH FA","Address":"4004 AIRPORT RD","City":"PLANT CITY","Zip":"33563","COUNTY":"HILLSBOROUGH","X":-82.160984790000001,"Y":28.003993380000001,"LONGLAT":"-82.16098479,28.00399338","USNG":"17R LL 85848 98187","OWNERSHIP":"STATE","PARCELID":null,"FACILITY_TYPE":"NATIONAL GUARD"}},{"type":"Feature","id":97,"geometry":{"type":"Point","coordinates":[-82.160984787267566,28.00399337748388]},"properties":{"OBJECTID":97,"Name":"HQ 3RD BN 116TH FA","Address":"4004 AIRPORT RD","City":"PLANT CITY","Zip":"33563","COUNTY":"HILLSBOROUGH","X":-82.160984790000001,"Y":28.003993380000001,"LONGLAT":"-82.16098479,28.00399338","USNG":"17R LL 85848 98187","OWNERSHIP":"STATE","PARCELID":null,"FACILITY_TYPE":"NATIONAL GUARD"}},{"type":"Feature","id":98,"geometry":{"type":"Point","coordinates":[-82.483744072621391,27.948910531470645]},"properties":{"OBJECTID":98,"Name":"HHC 53RD IN BDE","Address":"522 N HOWARD AVE","City":"TAMPA","Zip":"33609","COUNTY":"HILLSBOROUGH","X":-82.48374407,"Y":27.948910529999999,"LONGLAT":"-82.48374407,27.94891053","USNG":"17R LL 54036 92428","OWNERSHIP":"STATE","PARCELID":null,"FACILITY_TYPE":"NATIONAL GUARD"}},{"type":"Feature","id":99,"geometry":{"type":"Point","coordinates":[-82.483744072621391,27.948910531470645]},"properties":{"OBJECTID":99,"Name":"HQ 53RD IN BDE (SEP)","Address":"522 N HOWARD AVE","City":"TAMPA","Zip":"33609","COUNTY":"HILLSBOROUGH","X":-82.48374407,"Y":27.948910529999999,"LONGLAT":"-82.48374407,27.94891053","USNG":"17R LL 54036 92428","OWNERSHIP":"STATE","PARCELID":null,"FACILITY_TYPE":"NATIONAL GUARD"}},{"type":"Feature","id":100,"geometry":{"type":"Point","coordinates":[-82.160984787267566,28.00399337748388]},"properties":{"OBJECTID":100,"Name":"HHB/C/3-116th FA","Address":"4004 AIRPORT RD","City":"PLANT CITY","Zip":"33563","COUNTY":"HILLSBOROUGH","X":-82.160984790000001,"Y":28.003993380000001,"LONGLAT":"-82.16098479,28.00399338","USNG":"17R LL 85848 98187","OWNERSHIP":"STATE","PARCELID":null,"FACILITY_TYPE":"NATIONAL GUARD"}},{"type":"Feature","id":101,"geometry":{"type":"Point","coordinates":[-85.682734409822771,30.802080361087569]},"properties":{"OBJECTID":101,"Name":"FMS #6","Address":"308 W NORTH AVE","City":"BONIFAY","Zip":"32425","COUNTY":"HOLMES","X":-85.682734409999995,"Y":30.802080360000001,"LONGLAT":"-85.68273441,30.80208036","USNG":"16R FV 26018 08409","OWNERSHIP":"STATE","PARCELID":"0530.03-000-000-054.000","FACILITY_TYPE":"NATIONAL GUARD"}},{"type":"Feature","id":102,"geometry":{"type":"Point","coordinates":[-85.682734409822771,30.802080361087569]},"properties":{"OBJECTID":102,"Name":"FMS #6","Address":"308 W NORTH AVE","City":"BONIFAY","Zip":"32425","COUNTY":"HOLMES","X":-85.682734409999995,"Y":30.802080360000001,"LONGLAT":"-85.68273441,30.80208036","USNG":"16R FV 26018 08409","OWNERSHIP":"STATE","PARCELID":"0530.03-000-000-054.000","FACILITY_TYPE":"NATIONAL GUARD"}},{"type":"Feature","id":103,"geometry":{"type":"Point","coordinates":[-85.682734409822771,30.802080361087569]},"properties":{"OBJECTID":103,"Name":"FMS #6","Address":"308 W NORTH AVE","City":"BONIFAY","Zip":"32425","COUNTY":"HOLMES","X":-85.682734409999995,"Y":30.802080360000001,"LONGLAT":"-85.68273441,30.80208036","USNG":"16R FV 26018 08409","OWNERSHIP":"STATE","PARCELID":"0530.03-000-000-054.000","FACILITY_TYPE":"NATIONAL GUARD"}},{"type":"Feature","id":104,"geometry":{"type":"Point","coordinates":[-85.682734409822771,30.802080361087569]},"properties":{"OBJECTID":104,"Name":"FMS #6","Address":"308 W NORTH AVE","City":"BONIFAY","Zip":"32425","COUNTY":"HOLMES","X":-85.682734409999995,"Y":30.802080360000001,"LONGLAT":"-85.68273441,30.80208036","USNG":"16R FV 26018 08409","OWNERSHIP":"STATE","PARCELID":"0530.03-000-000-054.000","FACILITY_TYPE":"NATIONAL GUARD"}},{"type":"Feature","id":105,"geometry":{"type":"Point","coordinates":[-85.292917190929401,30.783535438863559]},"properties":{"OBJECTID":105,"Name":"144TH TRANSPORT COMPANY","Address":"3654 US 90 WEST","City":"MARIANNA","Zip":"32448","COUNTY":"JACKSON","X":-85.292917189999997,"Y":30.783535440000001,"LONGLAT":"-85.29291719,30.78353544","USNG":"16R FV 63347 06858","OWNERSHIP":null,"PARCELID":"31-5N-10-0000-0160-0000","FACILITY_TYPE":"NATIONAL GUARD"}},{"type":"Feature","id":106,"geometry":{"type":"Point","coordinates":[-81.685136803165108,28.846812783806776]},"properties":{"OBJECTID":106,"Name":"CO D 2ND BN 124TH IN","Address":"605 SOUTH BAY ST","City":"EUSTIS","Zip":"32726","COUNTY":"LAKE","X":-81.685136799999995,"Y":28.84681278,"LONGLAT":"-81.68513680,28.84681278","USNG":"17R MM 33168 91206","OWNERSHIP":null,"PARCELID":null,"FACILITY_TYPE":"NATIONAL GUARD"}},{"type":"Feature","id":107,"geometry":{"type":"Point","coordinates":[-81.750417150747296,28.78918325098396]},"properties":{"OBJECTID":107,"Name":"FMS #5","Address":"12408 WOODLEA ROAD","City":"TAVARES","Zip":"32778","COUNTY":"LAKE","X":-81.750417150000004,"Y":28.789183250000001,"LONGLAT":"-81.75041715,28.78918325","USNG":"17R MM 26760 84860","OWNERSHIP":null,"PARCELID":null,"FACILITY_TYPE":"NATIONAL GUARD"}},{"type":"Feature","id":108,"geometry":{"type":"Point","coordinates":[-81.876876242111592,28.81315436500962]},"properties":{"OBJECTID":108,"Name":"CO A, 2ND BN, 124TH IN","Address":"400 W MEADOW ST","City":"LEESBURG","Zip":"34748","COUNTY":"LAKE","X":-81.876876240000001,"Y":28.813154369999999,"LONGLAT":"-81.87687624,28.81315437","USNG":"17R MM 14437 87600","OWNERSHIP":"STATE","PARCELID":"261924260000002201","FACILITY_TYPE":"NATIONAL GUARD"}},{"type":"Feature","id":109,"geometry":{"type":"Point","coordinates":[-81.876876242111592,28.81315436500962]},"properties":{"OBJECTID":109,"Name":"R&R, 2-124 IN, A CO","Address":"400 W MEADOW ST","City":"LEESBURG","Zip":"34748","COUNTY":"LAKE","X":-81.876876240000001,"Y":28.813154369999999,"LONGLAT":"-81.87687624,28.81315437","USNG":"17R MM 14437 87600","OWNERSHIP":"STATE","PARCELID":"261924260000002201","FACILITY_TYPE":"NATIONAL GUARD"}},{"type":"Feature","id":110,"geometry":{"type":"Point","coordinates":[-81.844164417682279,26.655972444240891]},"properties":{"OBJECTID":110,"Name":"BTRY B, 3RD BN, 265TH ADA","Address":"3405 MARION ST","City":"FORT MYERS","Zip":"33916","COUNTY":"LEE","X":-81.844164419999998,"Y":26.655972439999999,"LONGLAT":"-81.84416442,26.65597244","USNG":"17R MK 15990 48609","OWNERSHIP":"STATE","PARCELID":"074425P3000020000","FACILITY_TYPE":"NATIONAL GUARD"}},{"type":"Feature","id":111,"geometry":{"type":"Point","coordinates":[-84.225902108276358,30.45245535652041]},"properties":{"OBJECTID":111,"Name":"HHD 417TH SIG BN","Address":"1225 EASTERWOOD DR","City":"TALLAHASSEE","Zip":"32317","COUNTY":"LEON","X":-84.225902110000007,"Y":30.452455359999998,"LONGLAT":"-84.22590211,30.45245536","USNG":"16R GU 66384 72192","OWNERSHIP":"STATE","PARCELID":null,"FACILITY_TYPE":"NATIONAL GUARD"}},{"type":"Feature","id":112,"geometry":{"type":"Point","coordinates":[-84.225902108276358,30.45245535652041]},"properties":{"OBJECTID":112,"Name":"C/1-153rd CAV","Address":"1225 EASTERWOOD DR","City":"TALLAHASSEE","Zip":"32317","COUNTY":"LEON","X":-84.225902110000007,"Y":30.452455359999998,"LONGLAT":"-84.22590211,30.45245536","USNG":"16R GU 66384 72192","OWNERSHIP":"STATE","PARCELID":null,"FACILITY_TYPE":"NATIONAL GUARD"}},{"type":"Feature","id":113,"geometry":{"type":"Point","coordinates":[-84.225902108276358,30.45245535652041]},"properties":{"OBJECTID":113,"Name":"HQ 417TH SIG BN","Address":"1225 EASTERWOOD DR","City":"TALLAHASSEE","Zip":"32317","COUNTY":"LEON","X":-84.225902110000007,"Y":30.452455359999998,"LONGLAT":"-84.22590211,30.45245536","USNG":"16R GU 66384 72192","OWNERSHIP":"STATE","PARCELID":null,"FACILITY_TYPE":"NATIONAL GUARD"}},{"type":"Feature","id":114,"geometry":{"type":"Point","coordinates":[-84.225902108276358,30.45245535652041]},"properties":{"OBJECTID":114,"Name":"HHD 779th EN BN","Address":"1225 EASTERWOOD DR","City":"TALLAHASSEE","Zip":"32317","COUNTY":"LEON","X":-84.225902110000007,"Y":30.452455359999998,"LONGLAT":"-84.22590211,30.45245536","USNG":"16R GU 66384 72192","OWNERSHIP":"STATE","PARCELID":null,"FACILITY_TYPE":"NATIONAL GUARD"}},{"type":"Feature","id":115,"geometry":{"type":"Point","coordinates":[-84.281550586472292,30.43892441636309]},"properties":{"OBJECTID":115,"Name":"Chief, Legislative Liaison","Address":"400 S MONROE ST","City":"TALLAHASSEE","Zip":"32301","COUNTY":"LEON","X":-84.281550589999995,"Y":30.438924419999999,"LONGLAT":"-84.28155059,30.43892442","USNG":"16R GU 61074 70562","OWNERSHIP":"STATE","PARCELID":"2136251531450","FACILITY_TYPE":"NATIONAL GUARD"}},{"type":"Feature","id":116,"geometry":{"type":"Point","coordinates":[-84.225902108276358,30.45245535652041]},"properties":{"OBJECTID":116,"Name":"152 CAB C1","Address":"1225 EASTERWOOD DR","City":"TALLAHASSEE","Zip":"32317","COUNTY":"LEON","X":-84.225902110000007,"Y":30.452455359999998,"LONGLAT":"-84.22590211,30.45245536","USNG":"16R GU 66384 72192","OWNERSHIP":"STATE","PARCELID":null,"FACILITY_TYPE":"NATIONAL GUARD"}},{"type":"Feature","id":117,"geometry":{"type":"Point","coordinates":[-84.225902108276358,30.45245535652041]},"properties":{"OBJECTID":117,"Name":"CO A(-), 3RD BN, 124TH IN","Address":"1225 EASTERWOOD DR","City":"TALLAHASSEE","Zip":"32317","COUNTY":"LEON","X":-84.225902110000007,"Y":30.452455359999998,"LONGLAT":"-84.22590211,30.45245536","USNG":"16R GU 66384 72192","OWNERSHIP":"STATE","PARCELID":null,"FACILITY_TYPE":"NATIONAL GUARD"}},{"type":"Feature","id":118,"geometry":{"type":"Point","coordinates":[-84.225902108276358,30.45245535652041]},"properties":{"OBJECTID":118,"Name":"83RD TROOP COMMAND","Address":"1225 EASTERWOOD DR","City":"TALLAHASSEE","Zip":"32317","COUNTY":"LEON","X":-84.225902110000007,"Y":30.452455359999998,"LONGLAT":"-84.22590211,30.45245536","USNG":"16R GU 66384 72192","OWNERSHIP":"STATE","PARCELID":null,"FACILITY_TYPE":"NATIONAL GUARD"}},{"type":"Feature","id":119,"geometry":{"type":"Point","coordinates":[-82.581736822412964,27.52259631715334]},"properties":{"OBJECTID":119,"Name":"BTRY C, 3RD BN, 265TH ADA","Address":"1107 14TH AVE W","City":"PALMETTO","Zip":"34221","COUNTY":"MANATEE","X":-82.581736820000003,"Y":27.522596320000002,"LONGLAT":"-82.58173682,27.52259632","USNG":"17R LL 43788 45316","OWNERSHIP":"MUNICIPAL","PARCELID":"2804400059","FACILITY_TYPE":"NATIONAL GUARD"}},{"type":"Feature","id":120,"geometry":{"type":"Point","coordinates":[-82.537569105420175,27.48835206079001]},"properties":{"OBJECTID":120,"Name":"Btry A/D/3-265th ADA","Address":"2100 13TH AVENUE, EAST","City":"BRADENTON","Zip":"34208","COUNTY":"MANATEE","X":-82.537569110000007,"Y":27.48835206,"LONGLAT":"-82.53756911,27.48835206","USNG":"17R LL 48103 41467","OWNERSHIP":"STATE","PARCELID":"1360500059","FACILITY_TYPE":"NATIONAL GUARD"}},{"type":"Feature","id":121,"geometry":{"type":"Point","coordinates":[-82.537569105420175,27.48835206079001]},"properties":{"OBJECTID":121,"Name":"BTRY A, 3RD BN, 265TH ADA","Address":"2100 13TH AVENUE, EAST","City":"BRADENTON","Zip":"34208","COUNTY":"MANATEE","X":-82.537569110000007,"Y":27.48835206,"LONGLAT":"-82.53756911,27.48835206","USNG":"17R LL 48103 41467","OWNERSHIP":"STATE","PARCELID":"1360500059","FACILITY_TYPE":"NATIONAL GUARD"}},{"type":"Feature","id":122,"geometry":{"type":"Point","coordinates":[-82.146892353643551,29.167505803993357]},"properties":{"OBJECTID":122,"Name":"C/2-124th IN Bn","Address":"900 SW 20TH ST","City":"OCALA","Zip":"34474","COUNTY":"MARION","X":-82.146892350000002,"Y":29.167505800000001,"LONGLAT":"-82.14689235,29.16750580","USNG":"17R LN 88469 27088","OWNERSHIP":"STATE","PARCELID":"23656-023-00","FACILITY_TYPE":"NATIONAL GUARD"}},{"type":"Feature","id":123,"geometry":{"type":"Point","coordinates":[-82.146892353643551,29.167505803993357]},"properties":{"OBJECTID":123,"Name":"TROOP E 153RD CAV","Address":"900 SW 20TH ST","City":"OCALA","Zip":"34474","COUNTY":"MARION","X":-82.146892350000002,"Y":29.167505800000001,"LONGLAT":"-82.14689235,29.16750580","USNG":"17R LN 88469 27088","OWNERSHIP":"STATE","PARCELID":"23656-023-00","FACILITY_TYPE":"NATIONAL GUARD"}},{"type":"Feature","id":124,"geometry":{"type":"Point","coordinates":[-82.146892353643551,29.167505803993357]},"properties":{"OBJECTID":124,"Name":"CO A, 3RD SF BN, 20TH SF ","Address":"900 SW 20TH ST","City":"OCALA","Zip":"34474","COUNTY":"MARION","X":-82.146892350000002,"Y":29.167505800000001,"LONGLAT":"-82.14689235,29.16750580","USNG":"17R LN 88469 27088","OWNERSHIP":"STATE","PARCELID":"23656-023-00","FACILITY_TYPE":"NATIONAL GUARD"}},{"type":"Feature","id":125,"geometry":{"type":"Point","coordinates":[-80.208807803444898,25.802192934162434]},"properties":{"OBJECTID":125,"Name":"13th AG Band","Address":"700 NW 28TH ST","City":"MIAMI","Zip":"33127","COUNTY":"MIAMI-DADE","X":-80.208807800000002,"Y":25.80219293,"LONGLAT":"-80.20880780,25.80219293","USNG":"17R NJ 79314 54016","OWNERSHIP":"STATE","PARCELID":null,"FACILITY_TYPE":"NATIONAL GUARD"}},{"type":"Feature","id":126,"geometry":{"type":"Point","coordinates":[-80.208807803444898,25.802192934162434]},"properties":{"OBJECTID":126,"Name":"13th AG Band","Address":"700 NW 28TH ST","City":"MIAMI","Zip":"33127","COUNTY":"MIAMI-DADE","X":-80.208807800000002,"Y":25.80219293,"LONGLAT":"-80.20880780,25.80219293","USNG":"17R NJ 79314 54016","OWNERSHIP":"STATE","PARCELID":null,"FACILITY_TYPE":"NATIONAL GUARD"}},{"type":"Feature","id":127,"geometry":{"type":"Point","coordinates":[-80.208807803444898,25.802192934162434]},"properties":{"OBJECTID":127,"Name":"13th AG Band","Address":"700 NW 28TH ST","City":"MIAMI","Zip":"33127","COUNTY":"MIAMI-DADE","X":-80.208807800000002,"Y":25.80219293,"LONGLAT":"-80.20880780,25.80219293","USNG":"17R NJ 79314 54016","OWNERSHIP":"STATE","PARCELID":null,"FACILITY_TYPE":"NATIONAL GUARD"}},{"type":"Feature","id":128,"geometry":{"type":"Point","coordinates":[-80.208807803444898,25.802192934162434]},"properties":{"OBJECTID":128,"Name":"13th AG Band","Address":"700 NW 28TH ST","City":"MIAMI","Zip":"33127","COUNTY":"MIAMI-DADE","X":-80.208807800000002,"Y":25.80219293,"LONGLAT":"-80.20880780,25.80219293","USNG":"17R NJ 79314 54016","OWNERSHIP":"STATE","PARCELID":null,"FACILITY_TYPE":"NATIONAL GUARD"}},{"type":"Feature","id":129,"geometry":{"type":"Point","coordinates":[-80.390934846087887,25.497861709360922]},"properties":{"OBJECTID":129,"Name":"50TH AREA SUPPORT GROUP","Address":"756 SAINT LO BLVD","City":"HOMESTEAD","Zip":"33032","COUNTY":"MIAMI-DADE","X":-80.390934849999994,"Y":25.497861709999999,"LONGLAT":"-80.39093485,25.49786171","USNG":"17R NJ 61211 20217","OWNERSHIP":null,"PARCELID":"3069260100740","FACILITY_TYPE":"NATIONAL GUARD"}},{"type":"Feature","id":130,"geometry":{"type":"Point","coordinates":[-80.208807803444898,25.802192934162434]},"properties":{"OBJECTID":130,"Name":"13th AG Band","Address":"700 NW 28TH ST","City":"MIAMI","Zip":"33127","COUNTY":"MIAMI-DADE","X":-80.208807800000002,"Y":25.80219293,"LONGLAT":"-80.20880780,25.80219293","USNG":"17R NJ 79314 54016","OWNERSHIP":"STATE","PARCELID":null,"FACILITY_TYPE":"NATIONAL GUARD"}},{"type":"Feature","id":131,"geometry":{"type":"Point","coordinates":[-80.390934846087887,25.497861709360922]},"properties":{"OBJECTID":131,"Name":"930th ALT","Address":"756 SAINT LO BLVD","City":"HOMESTEAD","Zip":"33032","COUNTY":"MIAMI-DADE","X":-80.390934849999994,"Y":25.497861709999999,"LONGLAT":"-80.39093485,25.49786171","USNG":"17R NJ 61211 20217","OWNERSHIP":null,"PARCELID":"3069260100740","FACILITY_TYPE":"NATIONAL GUARD"}},{"type":"Feature","id":132,"geometry":{"type":"Point","coordinates":[-80.397208734197861,25.494036261955824]},"properties":{"OBJECTID":132,"Name":"E/53rd FSC","Address":"","City":"MIAMI","Zip":"33170","COUNTY":"MIAMI-DADE","X":-80.397208730000003,"Y":25.494036260000001,"LONGLAT":"-80.39720873,25.49403626","USNG":"17R NJ 60582 19790","OWNERSHIP":null,"PARCELID":"3069140110330","FACILITY_TYPE":"NATIONAL GUARD"}},{"type":"Feature","id":133,"geometry":{"type":"Point","coordinates":[-80.397208734197861,25.494036261955824]},"properties":{"OBJECTID":133,"Name":"260th MI","Address":"","City":"MIAMI","Zip":"33170","COUNTY":"MIAMI-DADE","X":-80.397208730000003,"Y":25.494036260000001,"LONGLAT":"-80.39720873,25.49403626","USNG":"17R NJ 60582 19790","OWNERSHIP":null,"PARCELID":"3069140110330","FACILITY_TYPE":"NATIONAL GUARD"}},{"type":"Feature","id":134,"geometry":{"type":"Point","coordinates":[-80.397208734197861,25.494036261955824]},"properties":{"OBJECTID":134,"Name":"DETACHMENT 1, 125TH FIGHTER WING","Address":"","City":"MIAMI","Zip":"33170","COUNTY":"MIAMI-DADE","X":-80.397208730000003,"Y":25.494036260000001,"LONGLAT":"-80.39720873,25.49403626","USNG":"17R NJ 60582 19790","OWNERSHIP":null,"PARCELID":"3069140110330","FACILITY_TYPE":"NATIONAL GUARD"}},{"type":"Feature","id":135,"geometry":{"type":"Point","coordinates":[-80.397208734197861,25.494036261955824]},"properties":{"OBJECTID":135,"Name":"HHC/C/1-124th IN","Address":"","City":"MIAMI","Zip":"33170","COUNTY":"MIAMI-DADE","X":-80.397208730000003,"Y":25.494036260000001,"LONGLAT":"-80.39720873,25.49403626","USNG":"17R NJ 60582 19790","OWNERSHIP":null,"PARCELID":"3069140110330","FACILITY_TYPE":"NATIONAL GUARD"}},{"type":"Feature","id":136,"geometry":{"type":"Point","coordinates":[-80.390934846087887,25.497861709360922]},"properties":{"OBJECTID":136,"Name":"50th RSG","Address":"756 SAINT LO BLVD","City":"HOMESTEAD","Zip":"33032","COUNTY":"MIAMI-DADE","X":-80.390934849999994,"Y":25.497861709999999,"LONGLAT":"-80.39093485,25.49786171","USNG":"17R NJ 61211 20217","OWNERSHIP":null,"PARCELID":"3069260100740","FACILITY_TYPE":"NATIONAL GUARD"}},{"type":"Feature","id":137,"geometry":{"type":"Point","coordinates":[-80.208807803444898,25.802192934162434]},"properties":{"OBJECTID":137,"Name":"13th AG Band","Address":"700 NW 28TH ST","City":"MIAMI","Zip":"33127","COUNTY":"MIAMI-DADE","X":-80.208807800000002,"Y":25.80219293,"LONGLAT":"-80.20880780,25.80219293","USNG":"17R NJ 79314 54016","OWNERSHIP":"STATE","PARCELID":null,"FACILITY_TYPE":"NATIONAL GUARD"}},{"type":"Feature","id":138,"geometry":{"type":"Point","coordinates":[-80.208807803444898,25.802192934162434]},"properties":{"OBJECTID":138,"Name":"13th AG Band","Address":"700 NW 28TH ST","City":"MIAMI","Zip":"33127","COUNTY":"MIAMI-DADE","X":-80.208807800000002,"Y":25.80219293,"LONGLAT":"-80.20880780,25.80219293","USNG":"17R NJ 79314 54016","OWNERSHIP":"STATE","PARCELID":null,"FACILITY_TYPE":"NATIONAL GUARD"}},{"type":"Feature","id":139,"geometry":{"type":"Point","coordinates":[-80.208807803444898,25.802192934162434]},"properties":{"OBJECTID":139,"Name":"13th AG Band","Address":"700 NW 28TH ST","City":"MIAMI","Zip":"33127","COUNTY":"MIAMI-DADE","X":-80.208807800000002,"Y":25.80219293,"LONGLAT":"-80.20880780,25.80219293","USNG":"17R NJ 79314 54016","OWNERSHIP":"STATE","PARCELID":null,"FACILITY_TYPE":"NATIONAL GUARD"}},{"type":"Feature","id":140,"geometry":{"type":"Point","coordinates":[-80.208807803444898,25.802192934162434]},"properties":{"OBJECTID":140,"Name":"13th AG Band","Address":"700 NW 28TH ST","City":"MIAMI","Zip":"33127","COUNTY":"MIAMI-DADE","X":-80.208807800000002,"Y":25.80219293,"LONGLAT":"-80.20880780,25.80219293","USNG":"17R NJ 79314 54016","OWNERSHIP":"STATE","PARCELID":null,"FACILITY_TYPE":"NATIONAL GUARD"}},{"type":"Feature","id":141,"geometry":{"type":"Point","coordinates":[-80.208807803444898,25.802192934162434]},"properties":{"OBJECTID":141,"Name":"13th AG Band","Address":"700 NW 28TH ST","City":"MIAMI","Zip":"33127","COUNTY":"MIAMI-DADE","X":-80.208807800000002,"Y":25.80219293,"LONGLAT":"-80.20880780,25.80219293","USNG":"17R NJ 79314 54016","OWNERSHIP":"STATE","PARCELID":null,"FACILITY_TYPE":"NATIONAL GUARD"}},{"type":"Feature","id":142,"geometry":{"type":"Point","coordinates":[-81.502984168760179,24.695800476176945]},"properties":{"OBJECTID":142,"Name":"USAF TETHERED AEROSTAT RADAR SITE","Address":"BLIMP RD","City":"SUMMERLAND KEY","Zip":"33042","COUNTY":"MONROE","X":-81.502984170000005,"Y":24.695800479999999,"LONGLAT":"-81.50298417,24.69580048","USNG":"17R MH 49119 31358","OWNERSHIP":null,"PARCELID":"1766 28 00115280000000","FACILITY_TYPE":"NATIONAL GUARD"}},{"type":"Feature","id":143,"geometry":{"type":"Point","coordinates":[-86.54958545948881,30.760600113051403]},"properties":{"OBJECTID":143,"Name":"653RD SIG CO","Address":"1518 E JAMES LEE BLVD","City":"CRESTVIEW","Zip":"32539","COUNTY":"OKALOOSA","X":-86.549585460000003,"Y":30.760600109999999,"LONGLAT":"-86.54958546,30.76060011","USNG":"16R EV 43106 03157","OWNERSHIP":"STATE","PARCELID":"16-3N-23-0000-0008-0000","FACILITY_TYPE":"NATIONAL GUARD"}},{"type":"Feature","id":144,"geometry":{"type":"Point","coordinates":[-81.359433304173052,28.510758343590783]},"properties":{"OBJECTID":144,"Name":"HHB/164th ADA Bde","Address":"2809 S FERN CREEK AVE","City":"ORLANDO","Zip":"32806","COUNTY":"ORANGE","X":-81.359433300000006,"Y":28.510758339999999,"LONGLAT":"-81.35943330,28.51075834","USNG":"17R MM 64827 53836","OWNERSHIP":"STATE","PARCELID":null,"FACILITY_TYPE":"NATIONAL GUARD"}},{"type":"Feature","id":145,"geometry":{"type":"Point","coordinates":[-81.359433304173052,28.510758343590783]},"properties":{"OBJECTID":145,"Name":"HHB/164th ADA Bde","Address":"2809 S FERN CREEK AVE","City":"ORLANDO","Zip":"32806","COUNTY":"ORANGE","X":-81.359433300000006,"Y":28.510758339999999,"LONGLAT":"-81.35943330,28.51075834","USNG":"17R MM 64827 53836","OWNERSHIP":"STATE","PARCELID":null,"FACILITY_TYPE":"NATIONAL GUARD"}},{"type":"Feature","id":146,"geometry":{"type":"Point","coordinates":[-81.337376347438521,28.445905604918423]},"properties":{"OBJECTID":146,"Name":"164 AD, HHB","Address":"8385 DAETWYLER DR","City":"ORLANDO","Zip":"32827","COUNTY":"ORANGE","X":-81.33737635,"Y":28.445905610000001,"LONGLAT":"-81.33737635,28.44590561","USNG":"17R MM 66965 46645","OWNERSHIP":null,"PARCELID":null,"FACILITY_TYPE":"NATIONAL GUARD"}},{"type":"Feature","id":147,"geometry":{"type":"Point","coordinates":[-81.359433304173052,28.510758343590783]},"properties":{"OBJECTID":147,"Name":"HHB/164th ADA Bde","Address":"2809 S FERN CREEK AVE","City":"ORLANDO","Zip":"32806","COUNTY":"ORANGE","X":-81.359433300000006,"Y":28.510758339999999,"LONGLAT":"-81.35943330,28.51075834","USNG":"17R MM 64827 53836","OWNERSHIP":"STATE","PARCELID":null,"FACILITY_TYPE":"NATIONAL GUARD"}},{"type":"Feature","id":148,"geometry":{"type":"Point","coordinates":[-81.337376347438521,28.445905604918423]},"properties":{"OBJECTID":148,"Name":"164TH AIR DEFENSE BRIGADE","Address":"8385 DAETWYLER DR","City":"ORLANDO","Zip":"32827","COUNTY":"ORANGE","X":-81.33737635,"Y":28.445905610000001,"LONGLAT":"-81.33737635,28.44590561","USNG":"17R MM 66965 46645","OWNERSHIP":null,"PARCELID":null,"FACILITY_TYPE":"NATIONAL GUARD"}},{"type":"Feature","id":149,"geometry":{"type":"Point","coordinates":[-81.337376347438521,28.445905604918423]},"properties":{"OBJECTID":149,"Name":"F/53rd-FSC","Address":"8385 DAETWYLER DR","City":"ORLANDO","Zip":"32827","COUNTY":"ORANGE","X":-81.33737635,"Y":28.445905610000001,"LONGLAT":"-81.33737635,28.44590561","USNG":"17R MM 66965 46645","OWNERSHIP":null,"PARCELID":null,"FACILITY_TYPE":"NATIONAL GUARD"}},{"type":"Feature","id":150,"geometry":{"type":"Point","coordinates":[-81.337376347438521,28.445905604918423]},"properties":{"OBJECTID":150,"Name":"TEAM 2 DET 1 32ND AAMDC","Address":"8385 DAETWYLER DR","City":"ORLANDO","Zip":"32827","COUNTY":"ORANGE","X":-81.33737635,"Y":28.445905610000001,"LONGLAT":"-81.33737635,28.44590561","USNG":"17R MM 66965 46645","OWNERSHIP":null,"PARCELID":null,"FACILITY_TYPE":"NATIONAL GUARD"}},{"type":"Feature","id":151,"geometry":{"type":"Point","coordinates":[-81.337376347438521,28.445905604918423]},"properties":{"OBJECTID":151,"Name":"164 AD, HQ","Address":"8385 DAETWYLER DR","City":"ORLANDO","Zip":"32827","COUNTY":"ORANGE","X":-81.33737635,"Y":28.445905610000001,"LONGLAT":"-81.33737635,28.44590561","USNG":"17R MM 66965 46645","OWNERSHIP":null,"PARCELID":null,"FACILITY_TYPE":"NATIONAL GUARD"}},{"type":"Feature","id":152,"geometry":{"type":"Point","coordinates":[-81.337376347438521,28.445905604918423]},"properties":{"OBJECTID":152,"Name":"TEAM 2 DET 1 32ND AAMDC","Address":"8385 DAETWYLER DR","City":"ORLANDO","Zip":"32827","COUNTY":"ORANGE","X":-81.33737635,"Y":28.445905610000001,"LONGLAT":"-81.33737635,28.44590561","USNG":"17R MM 66965 46645","OWNERSHIP":null,"PARCELID":null,"FACILITY_TYPE":"NATIONAL GUARD"}},{"type":"Feature","id":153,"geometry":{"type":"Point","coordinates":[-81.337376347438521,28.445905604918423]},"properties":{"OBJECTID":153,"Name":"TEAM 2 DET 1 32ND AAMDC","Address":"8385 DAETWYLER DR","City":"ORLANDO","Zip":"32827","COUNTY":"ORANGE","X":-81.33737635,"Y":28.445905610000001,"LONGLAT":"-81.33737635,28.44590561","USNG":"17R MM 66965 46645","OWNERSHIP":null,"PARCELID":null,"FACILITY_TYPE":"NATIONAL GUARD"}},{"type":"Feature","id":154,"geometry":{"type":"Point","coordinates":[-81.337376347438521,28.445905604918423]},"properties":{"OBJECTID":154,"Name":"HHC/2-124th F/53rd-FSC","Address":"8385 DAETWYLER DR","City":"ORLANDO","Zip":"32827","COUNTY":"ORANGE","X":-81.33737635,"Y":28.445905610000001,"LONGLAT":"-81.33737635,28.44590561","USNG":"17R MM 66965 46645","OWNERSHIP":null,"PARCELID":null,"FACILITY_TYPE":"NATIONAL GUARD"}},{"type":"Feature","id":155,"geometry":{"type":"Point","coordinates":[-81.359433304173052,28.510758343590783]},"properties":{"OBJECTID":155,"Name":"HHB/164th ADA Bde","Address":"2809 S FERN CREEK AVE","City":"ORLANDO","Zip":"32806","COUNTY":"ORANGE","X":-81.359433300000006,"Y":28.510758339999999,"LONGLAT":"-81.35943330,28.51075834","USNG":"17R MM 64827 53836","OWNERSHIP":"STATE","PARCELID":null,"FACILITY_TYPE":"NATIONAL GUARD"}},{"type":"Feature","id":156,"geometry":{"type":"Point","coordinates":[-81.359433304173052,28.510758343590783]},"properties":{"OBJECTID":156,"Name":"HHB/164th ADA Bde","Address":"2809 S FERN CREEK AVE","City":"ORLANDO","Zip":"32806","COUNTY":"ORANGE","X":-81.359433300000006,"Y":28.510758339999999,"LONGLAT":"-81.35943330,28.51075834","USNG":"17R MM 64827 53836","OWNERSHIP":"STATE","PARCELID":null,"FACILITY_TYPE":"NATIONAL GUARD"}},{"type":"Feature","id":157,"geometry":{"type":"Point","coordinates":[-81.359433304173052,28.510758343590783]},"properties":{"OBJECTID":157,"Name":"HHB/164th ADA Bde","Address":"2809 S FERN CREEK AVE","City":"ORLANDO","Zip":"32806","COUNTY":"ORANGE","X":-81.359433300000006,"Y":28.510758339999999,"LONGLAT":"-81.35943330,28.51075834","USNG":"17R MM 64827 53836","OWNERSHIP":"STATE","PARCELID":null,"FACILITY_TYPE":"NATIONAL GUARD"}},{"type":"Feature","id":158,"geometry":{"type":"Point","coordinates":[-80.090639891633671,26.673779186666525]},"properties":{"OBJECTID":158,"Name":"HHD/254th TC BN","Address":"3193 GUN CLUB RD","City":"WEST PALM BEACH","Zip":"33406","COUNTY":"PALM BEACH","X":-80.090639890000006,"Y":26.673779190000001,"LONGLAT":"-80.09063989,26.67377919","USNG":"17R NK 90483 50626","OWNERSHIP":"STATE","PARCELID":"00434406000001050","FACILITY_TYPE":"NATIONAL GUARD"}},{"type":"Feature","id":159,"geometry":{"type":"Point","coordinates":[-80.090639891633671,26.673779186666525]},"properties":{"OBJECTID":159,"Name":"HHD/254th TC BN","Address":"3193 GUN CLUB RD","City":"WEST PALM BEACH","Zip":"33406","COUNTY":"PALM BEACH","X":-80.090639890000006,"Y":26.673779190000001,"LONGLAT":"-80.09063989,26.67377919","USNG":"17R NK 90483 50626","OWNERSHIP":"STATE","PARCELID":"00434406000001050","FACILITY_TYPE":"NATIONAL GUARD"}},{"type":"Feature","id":160,"geometry":{"type":"Point","coordinates":[-80.090639891633671,26.673779186666525]},"properties":{"OBJECTID":160,"Name":"HHD/254th TC BN","Address":"3193 GUN CLUB RD","City":"WEST PALM BEACH","Zip":"33406","COUNTY":"PALM BEACH","X":-80.090639890000006,"Y":26.673779190000001,"LONGLAT":"-80.09063989,26.67377919","USNG":"17R NK 90483 50626","OWNERSHIP":"STATE","PARCELID":"00434406000001050","FACILITY_TYPE":"NATIONAL GUARD"}},{"type":"Feature","id":161,"geometry":{"type":"Point","coordinates":[-80.090639891633671,26.673779186666525]},"properties":{"OBJECTID":161,"Name":"HHD/254th TC BN","Address":"3193 GUN CLUB RD","City":"WEST PALM BEACH","Zip":"33406","COUNTY":"PALM BEACH","X":-80.090639890000006,"Y":26.673779190000001,"LONGLAT":"-80.09063989,26.67377919","USNG":"17R NK 90483 50626","OWNERSHIP":"STATE","PARCELID":"00434406000001050","FACILITY_TYPE":"NATIONAL GUARD"}},{"type":"Feature","id":162,"geometry":{"type":"Point","coordinates":[-80.072133961987106,26.687982000601256]},"properties":{"OBJECTID":162,"Name":"1-124 IN, D CO","Address":"2901 TUXADO AVE","City":"WEST PALM BEACH","Zip":"33405","COUNTY":"PALM BEACH","X":-80.072133960000002,"Y":26.687982000000002,"LONGLAT":"-80.07213396,26.68798200","USNG":"17R NK 92313 52212","OWNERSHIP":null,"PARCELID":"74434332010070011","FACILITY_TYPE":"NATIONAL GUARD"}},{"type":"Feature","id":163,"geometry":{"type":"Point","coordinates":[-80.090639891633671,26.673779186666525]},"properties":{"OBJECTID":163,"Name":"HHD/254th TC BN","Address":"3193 GUN CLUB RD","City":"WEST PALM BEACH","Zip":"33406","COUNTY":"PALM BEACH","X":-80.090639890000006,"Y":26.673779190000001,"LONGLAT":"-80.09063989,26.67377919","USNG":"17R NK 90483 50626","OWNERSHIP":"STATE","PARCELID":"00434406000001050","FACILITY_TYPE":"NATIONAL GUARD"}},{"type":"Feature","id":164,"geometry":{"type":"Point","coordinates":[-82.187174689831423,28.365724606639628]},"properties":{"OBJECTID":164,"Name":"BTRY B, 2ND BN, 116TH FA","Address":"38017 LIVE OAK AVE","City":"DADE CITY","Zip":"33523","COUNTY":"PASCO","X":-82.187174690000006,"Y":28.365724610000001,"LONGLAT":"-82.18717469,28.36572461","USNG":"17R LM 83665 38289","OWNERSHIP":"STATE","PARCELID":" ","FACILITY_TYPE":"NATIONAL GUARD"}},{"type":"Feature","id":165,"geometry":{"type":"Point","coordinates":[-82.187174689831423,28.365724606639628]},"properties":{"OBJECTID":165,"Name":"G CO","Address":"38017 LIVE OAK AVE","City":"DADE CITY","Zip":"33523","COUNTY":"PASCO","X":-82.187174690000006,"Y":28.365724610000001,"LONGLAT":"-82.18717469,28.36572461","USNG":"17R LM 83665 38289","OWNERSHIP":"STATE","PARCELID":" ","FACILITY_TYPE":"NATIONAL GUARD"}},{"type":"Feature","id":166,"geometry":{"type":"Point","coordinates":[-82.187174689831423,28.365724606639628]},"properties":{"OBJECTID":166,"Name":"53 BSB","Address":"38017 LIVE OAK AVE","City":"DADE CITY","Zip":"33523","COUNTY":"PASCO","X":-82.187174690000006,"Y":28.365724610000001,"LONGLAT":"-82.18717469,28.36572461","USNG":"17R LM 83665 38289","OWNERSHIP":"STATE","PARCELID":" ","FACILITY_TYPE":"NATIONAL GUARD"}},{"type":"Feature","id":167,"geometry":{"type":"Point","coordinates":[-82.681977259359897,27.734485687483108]},"properties":{"OBJECTID":167,"Name":"HQ/HHC/C/53rd SPT Bn","Address":"3601 38TH AVE  S","City":"SAINT PETERSBURG","Zip":"33711","COUNTY":"PINELLAS","X":-82.681977259999996,"Y":27.73448569,"LONGLAT":"-82.68197726,27.73448569","USNG":"17R LL 34206 68923","OWNERSHIP":"STATE","PARCELID":"16 31 34 00000 440 0200","FACILITY_TYPE":"NATIONAL GUARD"}},{"type":"Feature","id":168,"geometry":{"type":"Point","coordinates":[-82.681977259359897,27.734485687483108]},"properties":{"OBJECTID":168,"Name":"CO C 53RD SPT BN","Address":"3601 38TH AVE  S","City":"SAINT PETERSBURG","Zip":"33711","COUNTY":"PINELLAS","X":-82.681977259999996,"Y":27.73448569,"LONGLAT":"-82.68197726,27.73448569","USNG":"17R LL 34206 68923","OWNERSHIP":"STATE","PARCELID":"16 31 34 00000 440 0200","FACILITY_TYPE":"NATIONAL GUARD"}},{"type":"Feature","id":169,"geometry":{"type":"Point","coordinates":[-82.674819754686851,27.854553035306253]},"properties":{"OBJECTID":169,"Name":"HHC/53rd BCT","Address":"2801 GRAND AVE","City":"PINELLAS PARK","Zip":"33782","COUNTY":"PINELLAS","X":-82.674819749999997,"Y":27.854553039999999,"LONGLAT":"-82.67481975,27.85455304","USNG":"17R LL 35093 82216","OWNERSHIP":"FEDERAL","PARCELID":"16 30 22 30374 000 0800","FACILITY_TYPE":"NATIONAL GUARD"}},{"type":"Feature","id":170,"geometry":{"type":"Point","coordinates":[-82.788902797936899,27.973070618546036]},"properties":{"OBJECTID":170,"Name":"CO A, 53RD SPT BN","Address":"706 N MISSOURI AVENUE","City":"CLEARWATER","Zip":"33755","COUNTY":"PINELLAS","X":-82.788902800000002,"Y":27.973070620000001,"LONGLAT":"-82.78890280,27.97307062","USNG":"17R LL 24050 95507","OWNERSHIP":"MUNICIPAL","PARCELID":"15 29 10 59796 002 1200","FACILITY_TYPE":"NATIONAL GUARD"}},{"type":"Feature","id":171,"geometry":{"type":"Point","coordinates":[-82.788902797936899,27.973070618546036]},"properties":{"OBJECTID":171,"Name":"R&R, 53 SPT, A CO","Address":"706 N MISSOURI AVENUE","City":"CLEARWATER","Zip":"33755","COUNTY":"PINELLAS","X":-82.788902800000002,"Y":27.973070620000001,"LONGLAT":"-82.78890280,27.97307062","USNG":"17R LL 24050 95507","OWNERSHIP":"MUNICIPAL","PARCELID":"15 29 10 59796 002 1200","FACILITY_TYPE":"NATIONAL GUARD"}},{"type":"Feature","id":172,"geometry":{"type":"Point","coordinates":[-82.674819754686851,27.854553035306253]},"properties":{"OBJECTID":172,"Name":"HHC/B/C/BST Bn","Address":"2801 GRAND AVE","City":"PINELLAS PARK","Zip":"33782","COUNTY":"PINELLAS","X":-82.674819749999997,"Y":27.854553039999999,"LONGLAT":"-82.67481975,27.85455304","USNG":"17R LL 35093 82216","OWNERSHIP":"FEDERAL","PARCELID":"16 30 22 30374 000 0800","FACILITY_TYPE":"NATIONAL GUARD"}},{"type":"Feature","id":173,"geometry":{"type":"Point","coordinates":[-82.674819754686851,27.854553035306253]},"properties":{"OBJECTID":173,"Name":"AFRC","Address":"2801 GRAND AVE","City":"PINELLAS PARK","Zip":"33782","COUNTY":"PINELLAS","X":-82.674819749999997,"Y":27.854553039999999,"LONGLAT":"-82.67481975,27.85455304","USNG":"17R LL 35093 82216","OWNERSHIP":"FEDERAL","PARCELID":"16 30 22 30374 000 0800","FACILITY_TYPE":"NATIONAL GUARD"}},{"type":"Feature","id":174,"geometry":{"type":"Point","coordinates":[-82.674819754686851,27.854553035306253]},"properties":{"OBJECTID":174,"Name":"A/53rd SPT Bn","Address":"2801 GRAND AVE","City":"PINELLAS PARK","Zip":"33782","COUNTY":"PINELLAS","X":-82.674819749999997,"Y":27.854553039999999,"LONGLAT":"-82.67481975,27.85455304","USNG":"17R LL 35093 82216","OWNERSHIP":"FEDERAL","PARCELID":"16 30 22 30374 000 0800","FACILITY_TYPE":"NATIONAL GUARD"}},{"type":"Feature","id":175,"geometry":{"type":"Point","coordinates":[-82.674819754686851,27.854553035306253]},"properties":{"OBJECTID":175,"Name":"HQ 53RD INFANTRY BRIGADE COMBAT TEAM","Address":"2801 GRAND AVE","City":"PINELLAS PARK","Zip":"33782","COUNTY":"PINELLAS","X":-82.674819749999997,"Y":27.854553039999999,"LONGLAT":"-82.67481975,27.85455304","USNG":"17R LL 35093 82216","OWNERSHIP":"FEDERAL","PARCELID":"16 30 22 30374 000 0800","FACILITY_TYPE":"NATIONAL GUARD"}},{"type":"Feature","id":176,"geometry":{"type":"Point","coordinates":[-82.674819754686851,27.854553035306253]},"properties":{"OBJECTID":176,"Name":"B/260th M1 Bn","Address":"2801 GRAND AVE","City":"PINELLAS PARK","Zip":"33782","COUNTY":"PINELLAS","X":-82.674819749999997,"Y":27.854553039999999,"LONGLAT":"-82.67481975,27.85455304","USNG":"17R LL 35093 82216","OWNERSHIP":"FEDERAL","PARCELID":"16 30 22 30374 000 0800","FACILITY_TYPE":"NATIONAL GUARD"}},{"type":"Feature","id":177,"geometry":{"type":"Point","coordinates":[-81.644183653925666,28.117233139250416]},"properties":{"OBJECTID":177,"Name":"FMS #4","Address":"1111 Commerce Ave","City":"Haines City","Zip":"33844","COUNTY":"POLK","X":-81.644183650000002,"Y":28.11723314,"LONGLAT":"-81.64418365,28.11723314","USNG":"17R MM 36730 10356","OWNERSHIP":null,"PARCELID":null,"FACILITY_TYPE":"NATIONAL GUARD"}},{"type":"Feature","id":178,"geometry":{"type":"Point","coordinates":[-81.718902714307973,28.019039572888534]},"properties":{"OBJECTID":178,"Name":"BTRY B, 2ND BN, 116TH FA","Address":"565 AVENUE C, SE","City":"WINTER HAVEN","Zip":"33880","COUNTY":"POLK","X":-81.718902709999995,"Y":28.01903957,"LONGLAT":"-81.71890271,28.01903957","USNG":"17R ML 29327 99519","OWNERSHIP":"MUNICIPAL","PARCELID":"262828605500019000","FACILITY_TYPE":"NATIONAL GUARD"}},{"type":"Feature","id":179,"geometry":{"type":"Point","coordinates":[-81.643081076951077,28.117041552539582]},"properties":{"OBJECTID":179,"Name":"DET 1 HHSB 2ND BN 116TH FA","Address":"1107 WEST COMMERCE AVENUE","City":"HAINES CITY","Zip":"33844","COUNTY":"POLK","X":-81.643081080000002,"Y":28.11704155,"LONGLAT":"-81.64308108,28.11704155","USNG":"17R MM 36838 10334","OWNERSHIP":null,"PARCELID":"272719000000021150","FACILITY_TYPE":"NATIONAL GUARD"}},{"type":"Feature","id":180,"geometry":{"type":"Point","coordinates":[-82.016717142722371,27.994235987041424]},"properties":{"OBJECTID":180,"Name":"DET 1 CO H 171ST AVN BN","Address":"3770 AIRFIELD DR W","City":"LAKELAND","Zip":"33811","COUNTY":"POLK","X":-82.016717139999997,"Y":27.99423599,"LONGLAT":"-82.01671714,27.99423599","USNG":"17R ML 00025 96980","OWNERSHIP":"MUNICIPAL","PARCELID":"232904000000011010","FACILITY_TYPE":"NATIONAL GUARD"}},{"type":"Feature","id":181,"geometry":{"type":"Point","coordinates":[-82.029765664638816,27.996098605697167]},"properties":{"OBJECTID":181,"Name":"HHB/2-116TH FA","Address":"4140 DRANE FIELD RD","City":"LAKELAND","Zip":"33811","COUNTY":"POLK","X":-82.029765659999995,"Y":27.996098610000001,"LONGLAT":"-82.02976566,27.99609861","USNG":"17R LL 98744 97197","OWNERSHIP":"STATE","PARCELID":"232905000000012020","FACILITY_TYPE":"NATIONAL GUARD"}},{"type":"Feature","id":182,"geometry":{"type":"Point","coordinates":[-81.781019279999128,27.95358330218745]},"properties":{"OBJECTID":182,"Name":"BTRY A, 2ND BN, 116TH FA","Address":"120 Bartow Municipal Airport","City":"BARTOW","Zip":"33830","COUNTY":"POLK","X":-81.781019279999995,"Y":27.953583299999998,"LONGLAT":"-81.78101928,27.95358330","USNG":"17R ML 23173 92306","OWNERSHIP":"STATE","PARCELID":"252914000000022010","FACILITY_TYPE":"NATIONAL GUARD"}},{"type":"Feature","id":183,"geometry":{"type":"Point","coordinates":[-81.619108112814786,27.896864902455356]},"properties":{"OBJECTID":183,"Name":"325TH MAINT CO","Address":"435 S AIRPORT RD","City":"LAKE WALES","Zip":"33859","COUNTY":"POLK","X":-81.619108109999999,"Y":27.896864900000001,"LONGLAT":"-81.61910811,27.89686490","USNG":"17R ML 39069 85931","OWNERSHIP":"STATE","PARCELID":"273005000000021040","FACILITY_TYPE":"NATIONAL GUARD"}},{"type":"Feature","id":184,"geometry":{"type":"Point","coordinates":[-82.029765664638816,27.996098605697167]},"properties":{"OBJECTID":184,"Name":"HQ 2ND BN 116TH FA","Address":"4140 DRANE FIELD RD","City":"LAKELAND","Zip":"33811","COUNTY":"POLK","X":-82.029765659999995,"Y":27.996098610000001,"LONGLAT":"-82.02976566,27.99609861","USNG":"17R LL 98744 97197","OWNERSHIP":"STATE","PARCELID":"232905000000012020","FACILITY_TYPE":"NATIONAL GUARD"}},{"type":"Feature","id":185,"geometry":{"type":"Point","coordinates":[-81.619108112814786,27.896864902455356]},"properties":{"OBJECTID":185,"Name":"3116th FSC","Address":"435 S AIRPORT RD","City":"LAKE WALES","Zip":"33859","COUNTY":"POLK","X":-81.619108109999999,"Y":27.896864900000001,"LONGLAT":"-81.61910811,27.89686490","USNG":"17R ML 39069 85931","OWNERSHIP":"STATE","PARCELID":"273005000000021040","FACILITY_TYPE":"NATIONAL GUARD"}},{"type":"Feature","id":186,"geometry":{"type":"Point","coordinates":[-81.649162188244432,29.637739941431011]},"properties":{"OBJECTID":186,"Name":"R&R, 1-265 AD, A BTRY","Address":"1301 MOSELEY AVE","City":"PALATKA","Zip":"32177","COUNTY":"PUTNAM","X":-81.649162189999998,"Y":29.637739939999999,"LONGLAT":"-81.64916219,29.63773994","USNG":"17R MN 37162 78821","OWNERSHIP":"MUNICIPAL","PARCELID":"12-10-26-3550-0170-0010","FACILITY_TYPE":"NATIONAL GUARD"}},{"type":"Feature","id":187,"geometry":{"type":"Point","coordinates":[-81.649162188244432,29.637739941431011]},"properties":{"OBJECTID":187,"Name":"BTRY A, 1ST BN, 265TH ADA","Address":"1301 MOSELEY AVE","City":"PALATKA","Zip":"32177","COUNTY":"PUTNAM","X":-81.649162189999998,"Y":29.637739939999999,"LONGLAT":"-81.64916219,29.63773994","USNG":"17R MN 37162 78821","OWNERSHIP":"MUNICIPAL","PARCELID":"12-10-26-3550-0170-0010","FACILITY_TYPE":"NATIONAL GUARD"}},{"type":"Feature","id":188,"geometry":{"type":"Point","coordinates":[-81.309768093218821,29.887788700147912]},"properties":{"OBJECTID":188,"Name":"DEPARTMENT OF MILITARY AFFAIRS JOINT FORCE HEADQUARTERS","Address":"82 MARINE ST","City":"SAINT AUGUSTINE","Zip":"32084","COUNTY":"ST. JOHNS","X":-81.309768090000006,"Y":29.887788700000002,"LONGLAT":"-81.30976809,29.88778870","USNG":"17R MP 70089 06391","OWNERSHIP":"OTHER PUBLIC","PARCELID":"2008800000","FACILITY_TYPE":"NATIONAL GUARD"}},{"type":"Feature","id":189,"geometry":{"type":"Point","coordinates":[-81.374514899864522,29.832497881006727]},"properties":{"OBJECTID":189,"Name":"DET 2 STARC","Address":"2305 STATE ROAD 207","City":"SAINT AUGUSTINE","Zip":"32084","COUNTY":"ST. JOHNS","X":-81.374514899999994,"Y":29.832497879999998,"LONGLAT":"-81.37451490,29.83249788","USNG":"17R MP 63818 00283","OWNERSHIP":"STATE","PARCELID":"4444444444","FACILITY_TYPE":"NATIONAL GUARD"}},{"type":"Feature","id":190,"geometry":{"type":"Point","coordinates":[-81.321224520168045,29.910629100596786]},"properties":{"OBJECTID":190,"Name":"OSA","Address":"190 SAN MARCO AVE","City":"SAINT AUGUSTINE","Zip":"32084","COUNTY":"ST. JOHNS","X":-81.321224520000001,"Y":29.910629100000001,"LONGLAT":"-81.32122452,29.91062910","USNG":"17R MP 68990 08925","OWNERSHIP":"STATE","PARCELID":"1543200000","FACILITY_TYPE":"NATIONAL GUARD"}},{"type":"Feature","id":191,"geometry":{"type":"Point","coordinates":[-81.321224520168045,29.910629100596786]},"properties":{"OBJECTID":191,"Name":"DET 8","Address":"190 SAN MARCO AVE","City":"SAINT AUGUSTINE","Zip":"32084","COUNTY":"ST. JOHNS","X":-81.321224520000001,"Y":29.910629100000001,"LONGLAT":"-81.32122452,29.91062910","USNG":"17R MP 68990 08925","OWNERSHIP":"STATE","PARCELID":"1543200000","FACILITY_TYPE":"NATIONAL GUARD"}},{"type":"Feature","id":192,"geometry":{"type":"Point","coordinates":[-81.310545110809556,29.887737285106606]},"properties":{"OBJECTID":192,"Name":"JFHQ","Address":"25 ST FRANCIS ST","City":"SAINT AUGUSTINE","Zip":"32084","COUNTY":"ST. JOHNS","X":-81.310545110000007,"Y":29.88773729,"LONGLAT":"-81.31054511,29.88773729","USNG":"17R MP 70014 06386","OWNERSHIP":"STATE","PARCELID":"2003200000","FACILITY_TYPE":"NATIONAL GUARD"}},{"type":"Feature","id":193,"geometry":{"type":"Point","coordinates":[-81.374514899864522,29.832497881006727]},"properties":{"OBJECTID":193,"Name":"BTRY E, 265TH AD BN","Address":"2305 STATE ROAD 207","City":"SAINT AUGUSTINE","Zip":"32084","COUNTY":"ST. JOHNS","X":-81.374514899999994,"Y":29.832497879999998,"LONGLAT":"-81.37451490,29.83249788","USNG":"17R MP 63818 00283","OWNERSHIP":"STATE","PARCELID":"4444444444","FACILITY_TYPE":"NATIONAL GUARD"}},{"type":"Feature","id":194,"geometry":{"type":"Point","coordinates":[-81.313677300746235,29.890492553924815]},"properties":{"OBJECTID":194,"Name":"HRO","Address":"75 King Street","City":"St Augustine","Zip":"32085","COUNTY":"ST. JOHNS","X":-81.313677299999995,"Y":29.890492550000001,"LONGLAT":"-81.31367730,29.89049255","USNG":"17R MP 69713 06692","OWNERSHIP":null,"PARCELID":null,"FACILITY_TYPE":"NATIONAL GUARD"}},{"type":"Feature","id":195,"geometry":{"type":"Point","coordinates":[-81.326821411829897,29.876951063518554]},"properties":{"OBJECTID":195,"Name":"315 3rd F1 DET","Address":"190 San Marco Blvd","City":"St Augustine","Zip":"32084","COUNTY":"ST. JOHNS","X":-81.326821409999994,"Y":29.87695106,"LONGLAT":"-81.32682141,29.87695106","USNG":"17R MP 68439 05195","OWNERSHIP":null,"PARCELID":null,"FACILITY_TYPE":"NATIONAL GUARD"}},{"type":"Feature","id":196,"geometry":{"type":"Point","coordinates":[-81.313677300746235,29.890492553924815]},"properties":{"OBJECTID":196,"Name":"SAAO","Address":"75 King Street","City":"St Augustine","Zip":"32085","COUNTY":"ST. JOHNS","X":-81.313677299999995,"Y":29.890492550000001,"LONGLAT":"-81.31367730,29.89049255","USNG":"17R MP 69713 06692","OWNERSHIP":null,"PARCELID":null,"FACILITY_TYPE":"NATIONAL GUARD"}},{"type":"Feature","id":197,"geometry":{"type":"Point","coordinates":[-81.326821411829897,29.876951063518554]},"properties":{"OBJECTID":197,"Name":"215 3rd F1 DET","Address":"190 San Marco Blvd","City":"St Augustine","Zip":"32084","COUNTY":"ST. JOHNS","X":-81.326821409999994,"Y":29.87695106,"LONGLAT":"-81.32682141,29.87695106","USNG":"17R MP 68439 05195","OWNERSHIP":null,"PARCELID":null,"FACILITY_TYPE":"NATIONAL GUARD"}},{"type":"Feature","id":198,"geometry":{"type":"Point","coordinates":[-81.326821411829897,29.876951063518554]},"properties":{"OBJECTID":198,"Name":"153rd FMC","Address":"190 San Marco Blvd","City":"St Augustine","Zip":"32084","COUNTY":"ST. JOHNS","X":-81.326821409999994,"Y":29.87695106,"LONGLAT":"-81.32682141,29.87695106","USNG":"17R MP 68439 05195","OWNERSHIP":null,"PARCELID":null,"FACILITY_TYPE":"NATIONAL GUARD"}},{"type":"Feature","id":199,"geometry":{"type":"Point","coordinates":[-81.306468801661268,29.879612188454345]},"properties":{"OBJECTID":199,"Name":"J8","Address":" ","City":"SAINT AUGUSTINE","Zip":"32085","COUNTY":"ST. JOHNS","X":-81.306468800000005,"Y":29.87961219,"LONGLAT":"-81.30646880,29.87961219","USNG":"17R MP 70406 05484","OWNERSHIP":null,"PARCELID":null,"FACILITY_TYPE":"NATIONAL GUARD"}},{"type":"Feature","id":200,"geometry":{"type":"Point","coordinates":[-81.313677300746235,29.890492553924815]},"properties":{"OBJECTID":200,"Name":"State Safety Office","Address":"75 King Street","City":"St Augustine","Zip":"32085","COUNTY":"ST. JOHNS","X":-81.313677299999995,"Y":29.890492550000001,"LONGLAT":"-81.31367730,29.89049255","USNG":"17R MP 69713 06692","OWNERSHIP":null,"PARCELID":null,"FACILITY_TYPE":"NATIONAL GUARD"}},{"type":"Feature","id":201,"geometry":{"type":"Point","coordinates":[-81.326821411829897,29.876951063518554]},"properties":{"OBJECTID":201,"Name":"1153rd F1 DET","Address":"190 San Marco Blvd","City":"St Augustine","Zip":"32084","COUNTY":"ST. JOHNS","X":-81.326821409999994,"Y":29.87695106,"LONGLAT":"-81.32682141,29.87695106","USNG":"17R MP 68439 05195","OWNERSHIP":null,"PARCELID":null,"FACILITY_TYPE":"NATIONAL GUARD"}},{"type":"Feature","id":202,"geometry":{"type":"Point","coordinates":[-81.350038586412424,29.969664969439137]},"properties":{"OBJECTID":202,"Name":"DET 8 OSA","Address":"255 HAWKEYE VIEW LANE","City":"SAINT AUGUSTINE","Zip":"32095","COUNTY":"ST. JOHNS","X":-81.350038589999997,"Y":29.96966497,"LONGLAT":"-81.35003859,29.96966497","USNG":"17R MP 66229 15475","OWNERSHIP":"COUNTY","PARCELID":"0747800000","FACILITY_TYPE":"NATIONAL GUARD"}},{"type":"Feature","id":203,"geometry":{"type":"Point","coordinates":[-81.326821411829897,29.876951063518554]},"properties":{"OBJECTID":203,"Name":"1996th CCT","Address":"190 San Marco Blvd","City":"St Augustine","Zip":"32084","COUNTY":"ST. JOHNS","X":-81.326821409999994,"Y":29.87695106,"LONGLAT":"-81.32682141,29.87695106","USNG":"17R MP 68439 05195","OWNERSHIP":null,"PARCELID":null,"FACILITY_TYPE":"NATIONAL GUARD"}},{"type":"Feature","id":204,"geometry":{"type":"Point","coordinates":[-81.374514899864522,29.832497881006727]},"properties":{"OBJECTID":204,"Name":"DET 3 STARC MEDICAL DET","Address":"2305 STATE ROAD 207","City":"SAINT AUGUSTINE","Zip":"32084","COUNTY":"ST. JOHNS","X":-81.374514899999994,"Y":29.832497879999998,"LONGLAT":"-81.37451490,29.83249788","USNG":"17R MP 63818 00283","OWNERSHIP":"STATE","PARCELID":"4444444444","FACILITY_TYPE":"NATIONAL GUARD"}},{"type":"Feature","id":205,"geometry":{"type":"Point","coordinates":[-81.310545110809556,29.887737285106606]},"properties":{"OBJECTID":205,"Name":"1565th JAG","Address":"25 ST FRANCIS ST","City":"SAINT AUGUSTINE","Zip":"32084","COUNTY":"ST. JOHNS","X":-81.310545110000007,"Y":29.88773729,"LONGLAT":"-81.31054511,29.88773729","USNG":"17R MP 70014 06386","OWNERSHIP":"STATE","PARCELID":"2003200000","FACILITY_TYPE":"NATIONAL GUARD"}},{"type":"Feature","id":206,"geometry":{"type":"Point","coordinates":[-81.374514899864522,29.832497881006727]},"properties":{"OBJECTID":206,"Name":"RECRUITING AND RETENTION","Address":"2305 STATE ROAD 207","City":"SAINT AUGUSTINE","Zip":"32084","COUNTY":"ST. JOHNS","X":-81.374514899999994,"Y":29.832497879999998,"LONGLAT":"-81.37451490,29.83249788","USNG":"17R MP 63818 00283","OWNERSHIP":"STATE","PARCELID":"4444444444","FACILITY_TYPE":"NATIONAL GUARD"}},{"type":"Feature","id":207,"geometry":{"type":"Point","coordinates":[-81.321224520168045,29.910629100596786]},"properties":{"OBJECTID":207,"Name":"3153RD FINANCE DET","Address":"190 SAN MARCO AVE","City":"SAINT AUGUSTINE","Zip":"32084","COUNTY":"ST. JOHNS","X":-81.321224520000001,"Y":29.910629100000001,"LONGLAT":"-81.32122452,29.91062910","USNG":"17R MP 68990 08925","OWNERSHIP":"STATE","PARCELID":"1543200000","FACILITY_TYPE":"NATIONAL GUARD"}},{"type":"Feature","id":208,"geometry":{"type":"Point","coordinates":[-81.310261488087832,29.886561079825448]},"properties":{"OBJECTID":208,"Name":"J1","Address":"310 CHARLOETT ST","City":"SAINT AUGUSTINE","Zip":"32084","COUNTY":"ST. JOHNS","X":-81.310261490000002,"Y":29.88656108,"LONGLAT":"-81.31026149,29.88656108","USNG":"17R MP 70041 06255","OWNERSHIP":"STATE","PARCELID":"2004500000","FACILITY_TYPE":"NATIONAL GUARD"}},{"type":"Feature","id":209,"geometry":{"type":"Point","coordinates":[-81.310545110809556,29.887737285106606]},"properties":{"OBJECTID":209,"Name":"R&R","Address":"25 ST FRANCIS ST","City":"SAINT AUGUSTINE","Zip":"32084","COUNTY":"ST. JOHNS","X":-81.310545110000007,"Y":29.88773729,"LONGLAT":"-81.31054511,29.88773729","USNG":"17R MP 70014 06386","OWNERSHIP":"STATE","PARCELID":"2003200000","FACILITY_TYPE":"NATIONAL GUARD"}},{"type":"Feature","id":210,"geometry":{"type":"Point","coordinates":[-81.321224520168045,29.910629100596786]},"properties":{"OBJECTID":210,"Name":"HQ 153 FINANCE BN","Address":"190 SAN MARCO AVE","City":"SAINT AUGUSTINE","Zip":"32084","COUNTY":"ST. JOHNS","X":-81.321224520000001,"Y":29.910629100000001,"LONGLAT":"-81.32122452,29.91062910","USNG":"17R MP 68990 08925","OWNERSHIP":"STATE","PARCELID":"1543200000","FACILITY_TYPE":"NATIONAL GUARD"}},{"type":"Feature","id":211,"geometry":{"type":"Point","coordinates":[-81.321224520168045,29.910629100596786]},"properties":{"OBJECTID":211,"Name":"2153RD FINANCE DET","Address":"190 SAN MARCO AVE","City":"SAINT AUGUSTINE","Zip":"32084","COUNTY":"ST. JOHNS","X":-81.321224520000001,"Y":29.910629100000001,"LONGLAT":"-81.32122452,29.91062910","USNG":"17R MP 68990 08925","OWNERSHIP":"STATE","PARCELID":"1543200000","FACILITY_TYPE":"NATIONAL GUARD"}},{"type":"Feature","id":212,"geometry":{"type":"Point","coordinates":[-81.374514899864522,29.832497881006727]},"properties":{"OBJECTID":212,"Name":"HQ DET STARC(-)FLARNG","Address":"2305 STATE ROAD 207","City":"SAINT AUGUSTINE","Zip":"32084","COUNTY":"ST. JOHNS","X":-81.374514899999994,"Y":29.832497879999998,"LONGLAT":"-81.37451490,29.83249788","USNG":"17R MP 63818 00283","OWNERSHIP":"STATE","PARCELID":"4444444444","FACILITY_TYPE":"NATIONAL GUARD"}},{"type":"Feature","id":213,"geometry":{"type":"Point","coordinates":[-81.310545110809556,29.887737285106606]},"properties":{"OBJECTID":213,"Name":"J1","Address":"25 ST FRANCIS ST","City":"SAINT AUGUSTINE","Zip":"32084","COUNTY":"ST. JOHNS","X":-81.310545110000007,"Y":29.88773729,"LONGLAT":"-81.31054511,29.88773729","USNG":"17R MP 70014 06386","OWNERSHIP":"STATE","PARCELID":"2003200000","FACILITY_TYPE":"NATIONAL GUARD"}},{"type":"Feature","id":214,"geometry":{"type":"Point","coordinates":[-80.353559513404235,27.443440831591364]},"properties":{"OBJECTID":214,"Name":"806 MP CO","Address":"2805 DELAWARE AVE","City":"FORT PIERCE","Zip":"34947","COUNTY":"ST. LUCIE","X":-80.353559509999997,"Y":27.44344083,"LONGLAT":"-80.35355951,27.44344083","USNG":"17R NL 63884 35718","OWNERSHIP":"STATE","PARCELID":"2408-442-0005-000-1","FACILITY_TYPE":"NATIONAL GUARD"}},{"type":"Feature","id":215,"geometry":{"type":"Point","coordinates":[-82.511498694263267,27.335865312529204]},"properties":{"OBJECTID":215,"Name":"HHB 3RD BN 265TH ADA","Address":"2890 RINGLING BLVD","City":"SARASOTA","Zip":"34237","COUNTY":"SARASOTA","X":-82.511498689999996,"Y":27.335865309999999,"LONGLAT":"-82.51149869,27.33586531","USNG":"17R LL 50474 24542","OWNERSHIP":null,"PARCELID":"2029-01-0055","FACILITY_TYPE":"NATIONAL GUARD"}},{"type":"Feature","id":216,"geometry":{"type":"Point","coordinates":[-81.259092760207764,28.811161028002697]},"properties":{"OBJECTID":216,"Name":"B/2- 124th IN","Address":"915 E 1ST ST","City":"SANFORD","Zip":"32771","COUNTY":"SEMINOLE","X":-81.259092760000001,"Y":28.811161030000001,"LONGLAT":"-81.25909276,28.81116103","USNG":"17R MM 74718 87091","OWNERSHIP":"STATE","PARCELID":null,"FACILITY_TYPE":"NATIONAL GUARD"}},{"type":"Feature","id":217,"geometry":{"type":"Point","coordinates":[-81.259092760207764,28.811161028002697]},"properties":{"OBJECTID":217,"Name":"CO B 2ND BN 124TH IN","Address":"915 E 1ST ST","City":"SANFORD","Zip":"32771","COUNTY":"SEMINOLE","X":-81.259092760000001,"Y":28.811161030000001,"LONGLAT":"-81.25909276,28.81116103","USNG":"17R MM 74718 87091","OWNERSHIP":"STATE","PARCELID":null,"FACILITY_TYPE":"NATIONAL GUARD"}},{"type":"Feature","id":218,"geometry":{"type":"Point","coordinates":[-83.008318460364208,30.290495208825128]},"properties":{"OBJECTID":218,"Name":"269TH ENGINEER COMPANY","Address":"1416 11th St SW","City":"LIVE OAK","Zip":"32064","COUNTY":"SUWANNEE","X":-83.008318459999998,"Y":30.29049521,"LONGLAT":"-83.00831846,30.29049521","USNG":"17R LP 06849 52683","OWNERSHIP":"STATE","PARCELID":"2702S13E08076000000","FACILITY_TYPE":"NATIONAL GUARD"}},{"type":"Feature","id":219,"geometry":{"type":"Point","coordinates":[-83.008318460364208,30.290495208825128]},"properties":{"OBJECTID":219,"Name":"689 EN TM","Address":"1416 11th St SW","City":"LIVE OAK","Zip":"32064","COUNTY":"SUWANNEE","X":-83.008318459999998,"Y":30.29049521,"LONGLAT":"-83.00831846,30.29049521","USNG":"17R LP 06849 52683","OWNERSHIP":"STATE","PARCELID":"2702S13E08076000000","FACILITY_TYPE":"NATIONAL GUARD"}},{"type":"Feature","id":220,"geometry":{"type":"Point","coordinates":[-81.012964263418056,29.207863178096176]},"properties":{"OBJECTID":220,"Name":"BTRY C, 1ST BN, 265TH ADA","Address":"405 S BASIN ST","City":"DAYTONA BEACH","Zip":"32114","COUNTY":"VOLUSIA","X":-81.012964260000004,"Y":29.20786318,"LONGLAT":"-81.01296426,29.20786318","USNG":"17R MN 98739 31015","OWNERSHIP":"STATE","PARCELID":null,"FACILITY_TYPE":"NATIONAL GUARD"}},{"type":"Feature","id":221,"geometry":{"type":"Point","coordinates":[-81.300382123995561,29.023303435296395]},"properties":{"OBJECTID":221,"Name":"BTRY B, 265th ADA","Address":"401 S ALABAMA AVE","City":"DELAND","Zip":"32724","COUNTY":"VOLUSIA","X":-81.300382119999995,"Y":29.023303439999999,"LONGLAT":"-81.30038212,29.02330344","USNG":"17R MN 70749 10604","OWNERSHIP":"STATE","PARCELID":null,"FACILITY_TYPE":"NATIONAL GUARD"}},{"type":"Feature","id":222,"geometry":{"type":"Point","coordinates":[-81.012964263418056,29.207863178096176]},"properties":{"OBJECTID":222,"Name":"HQ 1ST BN 265TH ADA","Address":"405 S BASIN ST","City":"DAYTONA BEACH","Zip":"32114","COUNTY":"VOLUSIA","X":-81.012964260000004,"Y":29.20786318,"LONGLAT":"-81.01296426,29.20786318","USNG":"17R MN 98739 31015","OWNERSHIP":"STATE","PARCELID":null,"FACILITY_TYPE":"NATIONAL GUARD"}},{"type":"Feature","id":223,"geometry":{"type":"Point","coordinates":[-81.300382123995561,29.023303435296395]},"properties":{"OBJECTID":223,"Name":"BTRY B, 265th ADA","Address":"401 S ALABAMA AVE","City":"DELAND","Zip":"32724","COUNTY":"VOLUSIA","X":-81.300382119999995,"Y":29.023303439999999,"LONGLAT":"-81.30038212,29.02330344","USNG":"17R MN 70749 10604","OWNERSHIP":"STATE","PARCELID":null,"FACILITY_TYPE":"NATIONAL GUARD"}},{"type":"Feature","id":224,"geometry":{"type":"Point","coordinates":[-81.300382123995561,29.023303435296395]},"properties":{"OBJECTID":224,"Name":"BTRY B, 265th ADA","Address":"401 S ALABAMA AVE","City":"DELAND","Zip":"32724","COUNTY":"VOLUSIA","X":-81.300382119999995,"Y":29.023303439999999,"LONGLAT":"-81.30038212,29.02330344","USNG":"17R MN 70749 10604","OWNERSHIP":"STATE","PARCELID":null,"FACILITY_TYPE":"NATIONAL GUARD"}},{"type":"Feature","id":225,"geometry":{"type":"Point","coordinates":[-81.012964263418056,29.207863178096176]},"properties":{"OBJECTID":225,"Name":"HHB 1ST BN 265TH ADA","Address":"405 S BASIN ST","City":"DAYTONA BEACH","Zip":"32114","COUNTY":"VOLUSIA","X":-81.012964260000004,"Y":29.20786318,"LONGLAT":"-81.01296426,29.20786318","USNG":"17R MN 98739 31015","OWNERSHIP":"STATE","PARCELID":null,"FACILITY_TYPE":"NATIONAL GUARD"}},{"type":"Feature","id":226,"geometry":{"type":"Point","coordinates":[-81.300382123995561,29.023303435296395]},"properties":{"OBJECTID":226,"Name":"BTRY B, 265th ADA","Address":"401 S ALABAMA AVE","City":"DELAND","Zip":"32724","COUNTY":"VOLUSIA","X":-81.300382119999995,"Y":29.023303439999999,"LONGLAT":"-81.30038212,29.02330344","USNG":"17R MN 70749 10604","OWNERSHIP":"STATE","PARCELID":null,"FACILITY_TYPE":"NATIONAL GUARD"}},{"type":"Feature","id":227,"geometry":{"type":"Point","coordinates":[-85.536280341383616,30.775833465266761]},"properties":{"OBJECTID":227,"Name":"53 BSB, D CO","Address":"749 S 7TH ST","City":"CHIPLEY","Zip":"32428","COUNTY":"WASHINGTON","X":-85.536280340000005,"Y":30.775833469999998,"LONGLAT":"-85.53628034,30.77583347","USNG":"16R FV 40068 05674","OWNERSHIP":"STATE","PARCELID":"00000000-00-1826-0000","FACILITY_TYPE":"NATIONAL GUARD"}},{"type":"Feature","id":228,"geometry":{"type":"Point","coordinates":[-85.536280341383616,30.775833465266761]},"properties":{"OBJECTID":228,"Name":"CO C 3RD BN 124TH IN","Address":"749 S 7TH ST","City":"CHIPLEY","Zip":"32428","COUNTY":"WASHINGTON","X":-85.536280340000005,"Y":30.775833469999998,"LONGLAT":"-85.53628034,30.77583347","USNG":"16R FV 40068 05674","OWNERSHIP":"STATE","PARCELID":"00000000-00-1826-0000","FACILITY_TYPE":"NATIONAL GUARD"}}]}