{"type":"FeatureCollection","features":[{"type":"Feature","id":1,"geometry":{"type":"Point","coordinates":[-82.039619999959939,28.865579999217953]},"properties":{"OBJECTID":1,"Name":"AMTRAK-WILDWOOD STATION","Address":"601 N MAIN ST","City":"WILDWOOD STATION","Zip":" ","COUNTY":"SUMTER","X":-82.039619999999999,"Y":28.865580000000001,"LONGLAT":"-82.03962000,28.86558000","USNG":"17R LM 98607 93537","OWNERSHIP":null,"PARCELID":null,"FACILITY_TYPE":"RAIL FACILITY"}},{"type":"Feature","id":2,"geometry":{"type":"Point","coordinates":[-82.166459999994089,29.790279999254253]},"properties":{"OBJECTID":2,"Name":"AMTRAK-WALDO","Address":"14648 NE 147TH AVE","City":"WALDO","Zip":" ","COUNTY":"ALACHUA","X":-82.166460000000001,"Y":29.790279999999999,"LONGLAT":"-82.16646000,29.79028000","USNG":"17R LN 87257 96117","OWNERSHIP":null,"PARCELID":null,"FACILITY_TYPE":"RAIL FACILITY"}},{"type":"Feature","id":3,"geometry":{"type":"Point","coordinates":[-80.170620000303529,26.118699998996004]},"properties":{"OBJECTID":3,"Name":"AMTRAK-FORT LAUDERDALE","Address":"200 SW 21ST TER","City":"FORT LAUDERDALE","Zip":" ","COUNTY":"BROWARD","X":-80.17062,"Y":26.1187,"LONGLAT":"-80.17062000,26.11870000","USNG":"17R NJ 82920 89093","OWNERSHIP":null,"PARCELID":null,"FACILITY_TYPE":"RAIL FACILITY"}},{"type":"Feature","id":4,"geometry":{"type":"Point","coordinates":[-81.639649999700751,29.649769999052189]},"properties":{"OBJECTID":4,"Name":"AMTRAK-PALATKA","Address":"220 N 11TH ST","City":"PALATKA","Zip":" ","COUNTY":"PUTNAM","X":-81.639650000000003,"Y":29.64977,"LONGLAT":"-81.63965000,29.64977000","USNG":"17R MN 38091 80149","OWNERSHIP":null,"PARCELID":null,"FACILITY_TYPE":"RAIL FACILITY"}},{"type":"Feature","id":5,"geometry":{"type":"Point","coordinates":[-81.95167999968902,28.045559999085093]},"properties":{"OBJECTID":5,"Name":"AMTRAK-LAKELAND","Address":"600 E MAIN ST","City":"LAKELAND","Zip":" ","COUNTY":"POLK","X":-81.951679999999996,"Y":28.045559999999998,"LONGLAT":"-81.95168000,28.04556000","USNG":"17R MM 06465 02614","OWNERSHIP":null,"PARCELID":null,"FACILITY_TYPE":"RAIL FACILITY"}},{"type":"Feature","id":6,"geometry":{"type":"Point","coordinates":[-80.257700000011766,25.84950999931074]},"properties":{"OBJECTID":6,"Name":"AMTRAK-MIAMI","Address":"8303 NW 37TH AVE   ","City":"MIAMI","Zip":" ","COUNTY":"MIAMI-DADE","X":-80.2577,"Y":25.849509999999999,"LONGLAT":"-80.25770000,25.84951000","USNG":"17R NJ 74383 59228","OWNERSHIP":null,"PARCELID":null,"FACILITY_TYPE":"RAIL FACILITY"}},{"type":"Feature","id":7,"geometry":{"type":"Point","coordinates":[-82.451239999984892,27.952389999383456]},"properties":{"OBJECTID":7,"Name":"AMTRAK-TAMPA","Address":"601 N NEBRASKA AVE","City":"TAMPA","Zip":" ","COUNTY":"HILLSBOROUGH","X":-82.451239999999999,"Y":27.952390000000001,"LONGLAT":"-82.45124000,27.95239000","USNG":"17R LL 57239 92775","OWNERSHIP":null,"PARCELID":null,"FACILITY_TYPE":"RAIL FACILITY"}},{"type":"Feature","id":8,"geometry":{"type":"Point","coordinates":[-81.434510000140847,27.497659999421245]},"properties":{"OBJECTID":8,"Name":"AMTRAK-SEBRING","Address":"601 E CENTER AVE","City":"SEBRING","Zip":" ","COUNTY":"HIGHLANDS","X":-81.434510000000003,"Y":27.49766,"LONGLAT":"-81.43451000,27.49766000","USNG":"17R ML 57081 41632","OWNERSHIP":null,"PARCELID":null,"FACILITY_TYPE":"RAIL FACILITY"}},{"type":"Feature","id":9,"geometry":{"type":"Point","coordinates":[-80.167680000002548,26.011019999064469]},"properties":{"OBJECTID":9,"Name":"AMTRAK-HOLLYWOOD","Address":"3001 HOLLYWOOD BLVD","City":"HOLLYWOOD","Zip":" ","COUNTY":"BROWARD","X":-80.167680000000004,"Y":26.011019999999998,"LONGLAT":"-80.16768000,26.01102000","USNG":"17R NJ 83290 77169","OWNERSHIP":null,"PARCELID":null,"FACILITY_TYPE":"RAIL FACILITY"}},{"type":"Feature","id":10,"geometry":{"type":"Point","coordinates":[-82.384376802000105,27.961018746452645]},"properties":{"OBJECTID":10,"Name":"CSX CORPORATION INTERMODAL FACILITY - TAMPA","Address":"E 8TH AVE AND N 67TH ST","City":"TAMPA","Zip":"33619","COUNTY":"HILLSBOROUGH","X":-82.384376799999998,"Y":27.961018750000001,"LONGLAT":"-82.38437680,27.96101875","USNG":"17R LL 63828 93655","OWNERSHIP":null,"PARCELID":"192915ZZZ000005795403A","FACILITY_TYPE":"RAIL FACILITY"}},{"type":"Feature","id":11,"geometry":{"type":"Point","coordinates":[-80.207543485168188,25.784555606444499]},"properties":{"OBJECTID":11,"Name":"Culmer Station","Address":"701 NW 11TH ST","City":"MIAMI","Zip":"33136","COUNTY":"MIAMI-DADE","X":-80.207543490000006,"Y":25.784555610000002,"LONGLAT":"-80.20754349,25.78455561","USNG":"17R NJ 79452 52064","OWNERSHIP":null,"PARCELID":null,"FACILITY_TYPE":"RAIL FACILITY"}},{"type":"Feature","id":12,"geometry":{"type":"Point","coordinates":[-80.093529999731416,26.455989999284238]},"properties":{"OBJECTID":12,"Name":"AMTRAK-DELRAY BEACH","Address":"345 S CONGRESS AVE","City":"DELRAY BEACH","Zip":" ","COUNTY":"PALM BEACH","X":-80.093530000000001,"Y":26.45599,"LONGLAT":"-80.09353000,26.45599000","USNG":"17R NK 90366 26501","OWNERSHIP":null,"PARCELID":null,"FACILITY_TYPE":"RAIL FACILITY"}},{"type":"Feature","id":13,"geometry":{"type":"Point","coordinates":[-81.351800000262628,28.597689999166963]},"properties":{"OBJECTID":13,"Name":"AMTRAK-WINTER PARK","Address":"150 W MORSE BLVD","City":"WINTER PARK","Zip":" ","COUNTY":"ORANGE","X":-81.351799999999997,"Y":28.59769,"LONGLAT":"-81.35180000,28.59769000","USNG":"17R MM 65602 63464","OWNERSHIP":null,"PARCELID":null,"FACILITY_TYPE":"RAIL FACILITY"}},{"type":"Feature","id":14,"geometry":{"type":"Point","coordinates":[-80.829980000209957,27.251939999347602]},"properties":{"OBJECTID":14,"Name":"AMTRAK-OKEECHOBEE","Address":"801 N PARROTT AVE","City":"OKEECHOBEE","Zip":" ","COUNTY":"OKEECHOBEE","X":-80.829980000000006,"Y":27.251940000000001,"LONGLAT":"-80.82998000,27.25194000","USNG":"17R NL 16830 14351","OWNERSHIP":null,"PARCELID":null,"FACILITY_TYPE":"RAIL FACILITY"}},{"type":"Feature","id":15,"geometry":{"type":"Point","coordinates":[-81.855977469654235,26.586513980126284]},"properties":{"OBJECTID":15,"Name":"LEE COUNTY TRANSIT (LLEETRAN)","Address":"6035 LANDING VIEW RD","City":"FORT MYERS","Zip":"33907","COUNTY":"LEE","X":-81.855977469999999,"Y":26.586513979999999,"LONGLAT":"-81.85597747,26.58651398","USNG":"17R MK 14763 40924","OWNERSHIP":null,"PARCELID":null,"FACILITY_TYPE":"RAIL FACILITY"}},{"type":"Feature","id":16,"geometry":{"type":"Point","coordinates":[-81.735040000129871,28.003429999244418]},"properties":{"OBJECTID":16,"Name":"AMTRAK-WINTER HAVEN","Address":"1800 7TH ST SW","City":"WINTER HAVEN","Zip":" ","COUNTY":"POLK","X":-81.735039999999998,"Y":28.003430000000002,"LONGLAT":"-81.73504000,28.00343000","USNG":"17R ML 27730 97799","OWNERSHIP":null,"PARCELID":null,"FACILITY_TYPE":"RAIL FACILITY"}},{"type":"Feature","id":17,"geometry":{"type":"Point","coordinates":[-82.385990881451178,27.956819285352275]},"properties":{"OBJECTID":17,"Name":"CSX TRANSPORTATION UCETA RAIL YARD","Address":"MILEPOST 879","City":"TAMPA","Zip":"33619","COUNTY":"HILLSBOROUGH","X":-82.385990879999994,"Y":27.956819289999999,"LONGLAT":"-82.38599088,27.95681929","USNG":"17R LL 63664 93192","OWNERSHIP":null,"PARCELID":"192915ZZZ000005795400A","FACILITY_TYPE":"RAIL FACILITY"}},{"type":"Feature","id":18,"geometry":{"type":"Point","coordinates":[-81.352439999761884,29.017139999034871]},"properties":{"OBJECTID":18,"Name":"AMTRAK-DELAND","Address":"2491 OLD NEW YORK AVE","City":"DELAND","Zip":" ","COUNTY":"VOLUSIA","X":-81.352440000000001,"Y":29.017140000000001,"LONGLAT":"-81.35244000,29.01714000","USNG":"17R MN 65677 09935","OWNERSHIP":null,"PARCELID":null,"FACILITY_TYPE":"RAIL FACILITY"}},{"type":"Feature","id":19,"geometry":{"type":"Point","coordinates":[-80.25990081658685,25.84567429284213]},"properties":{"OBJECTID":19,"Name":"Tri Rail Station","Address":"1125 E 25TH ST","City":"HIALEAH","Zip":"33013","COUNTY":"MIAMI-DADE","X":-80.259900819999999,"Y":25.845674290000002,"LONGLAT":"-80.25990082,25.84567429","USNG":"17R NJ 74165 58802","OWNERSHIP":null,"PARCELID":null,"FACILITY_TYPE":"RAIL FACILITY"}},{"type":"Feature","id":20,"geometry":{"type":"Point","coordinates":[-81.404649999727553,28.293419999510938]},"properties":{"OBJECTID":20,"Name":"AMTRAK-KISSIMMEE","Address":"111 E DAKIN AVE","City":"KISSIMMEE","Zip":" ","COUNTY":"OSCEOLA","X":-81.404650000000004,"Y":28.293420000000001,"LONGLAT":"-81.40465000,28.29342000","USNG":"17R MM 60321 29773","OWNERSHIP":null,"PARCELID":null,"FACILITY_TYPE":"RAIL FACILITY"}},{"type":"Feature","id":21,"geometry":{"type":"Point","coordinates":[-81.722870000081144,30.366019998981923]},"properties":{"OBJECTID":21,"Name":"AMTRAK-JACKSONVILLE","Address":"3570 CLIFFORD LN","City":"JACKSONVILLE","Zip":" ","COUNTY":"DUVAL","X":-81.72287,"Y":30.366019999999999,"LONGLAT":"-81.72287000,30.36602000","USNG":"17R MP 30537 59565","OWNERSHIP":null,"PARCELID":null,"FACILITY_TYPE":"RAIL FACILITY"}},{"type":"Feature","id":22,"geometry":{"type":"Point","coordinates":[-81.381399999912205,28.525959999200776]},"properties":{"OBJECTID":22,"Name":"AMTRAK-ORLANDO","Address":"1400 SLIGH BLVD","City":"ORLANDO","Zip":" ","COUNTY":"ORANGE","X":-81.381399999999999,"Y":28.525960000000001,"LONGLAT":"-81.38140000,28.52596000","USNG":"17R MM 62683 55527","OWNERSHIP":null,"PARCELID":null,"FACILITY_TYPE":"RAIL FACILITY"}},{"type":"Feature","id":23,"geometry":{"type":"Point","coordinates":[-80.122010000305039,26.317919999286001]},"properties":{"OBJECTID":23,"Name":"AMTRAK-DEERFIELD BEACH","Address":"1300 W HILLSBORO BLVD","City":"DEERFIELD BEACH","Zip":" ","COUNTY":"BROWARD","X":-80.122010000000003,"Y":26.317920000000001,"LONGLAT":"-80.12201000,26.31792000","USNG":"17R NK 87631 11189","OWNERSHIP":null,"PARCELID":null,"FACILITY_TYPE":"RAIL FACILITY"}},{"type":"Feature","id":24,"geometry":{"type":"Point","coordinates":[-80.06198999971069,26.71247999924018]},"properties":{"OBJECTID":24,"Name":"AMTRAK-WEST PALM BEACH","Address":"201 S TAMARIND AVE","City":"WEST PALM BEACH","Zip":" ","COUNTY":"PALM BEACH","X":-80.061989999999994,"Y":26.712479999999999,"LONGLAT":"-80.06199000,26.71248000","USNG":"17R NK 93302 54933","OWNERSHIP":null,"PARCELID":null,"FACILITY_TYPE":"RAIL FACILITY"}}]}