{"type":"FeatureCollection","features":[{"type":"Feature","id":1,"geometry":{"type":"Point","coordinates":[-87.13841367804487,30.528554477576396]},"properties":{"OBJECTID":1,"Name":"CSX CORP. JOHN T. COLLINSON RAILROAD BRIDGE","Address":".3 MILES NW OF I-10 BRIDGE","City":"PENSACOLA","Zip":" ","COUNTY":"SANTA ROSA","X":-87.138413679999999,"Y":30.52855448,"LONGLAT":"-87.13841368,30.52855448","USNG":"16R DU 86721 77363","OWNERSHIP":null,"PARCELID":null,"FACILITY_TYPE":"RAILROAD BRIDGE"}},{"type":"Feature","id":2,"geometry":{"type":"Point","coordinates":[-81.29274531853261,28.807425264196002]},"properties":{"OBJECTID":2,"Name":"CSX TRANSPORTATION DEPOT","Address":" ","City":"SANFORD","Zip":"32771","COUNTY":"SEMINOLE","X":-81.292745319999995,"Y":28.807425259999999,"LONGLAT":"-81.29274532,28.80742526","USNG":"17R MM 71433 86685","OWNERSHIP":null,"PARCELID":"2619305AE85000000","FACILITY_TYPE":"RAILROAD BRIDGE"}},{"type":"Feature","id":3,"geometry":{"type":"Point","coordinates":[-82.370324192596073,27.954292368857452]},"properties":{"OBJECTID":3,"Name":"CSX CORPORATION TAMPA BYPASS CANAL BRIDGE","Address":".12 MILES E OF ORIENT ROAD","City":"TAMPA","Zip":"33619","COUNTY":"HILLSBOROUGH","X":-82.370324190000005,"Y":27.954292370000001,"LONGLAT":"-82.37032419,27.95429237","USNG":"17R LL 65202 92894","OWNERSHIP":null,"PARCELID":null,"FACILITY_TYPE":"RAILROAD BRIDGE"}},{"type":"Feature","id":4,"geometry":{"type":"Point","coordinates":[-82.383231457426021,27.859583594463434]},"properties":{"OBJECTID":4,"Name":"CSX CORPORATION ALAFIA RIVER BRIDGE","Address":".01 MILE E OF SR-45","City":"RIVERVIEW","Zip":"33569","COUNTY":"HILLSBOROUGH","X":-82.383231460000005,"Y":27.859583600000001,"LONGLAT":"-82.38323146,27.85958360","USNG":"17R LL 63813 82416","OWNERSHIP":null,"PARCELID":"CSX TRANSPORTATION INC","FACILITY_TYPE":"RAILROAD BRIDGE"}},{"type":"Feature","id":5,"geometry":{"type":"Point","coordinates":[-81.484270111224646,30.629006183951468]},"properties":{"OBJECTID":5,"Name":"CSX CORP. ISLAND CAUSEWAY RAILROAD BRIDGE","Address":"SR 200/A1A OVER THE AMELIA RIVER","City":"FERNANDINA BEACH","Zip":"32034","COUNTY":"NASSAU","X":-81.484270109999997,"Y":30.629006180000001,"LONGLAT":"-81.48427011,30.62900618","USNG":"17R MP 53590 88587","OWNERSHIP":null,"PARCELID":null,"FACILITY_TYPE":"RAILROAD BRIDGE"}},{"type":"Feature","id":6,"geometry":{"type":"Point","coordinates":[-85.544756362599216,30.257148158561204]},"properties":{"OBJECTID":6,"Name":"BAYLINE RAILROAD BAYOU GEORGE BRIDGE","Address":"PARALLEL WITH US 231 OVER BAYOU GEORGE ","City":"PANAMA CITY","Zip":"32404","COUNTY":"BAY","X":-85.544756359999994,"Y":30.25714816,"LONGLAT":"-85.54475636,30.25714816","USNG":"16R FU 39999 48175","OWNERSHIP":null,"PARCELID":null,"FACILITY_TYPE":"RAILROAD BRIDGE"}},{"type":"Feature","id":7,"geometry":{"type":"Point","coordinates":[-87.146471206757809,30.523828227187394]},"properties":{"OBJECTID":7,"Name":"CSX CORP ESCAMBIA BAY RAILROAD BRIDGE","Address":"PARALLEL TO I-10 OVER ESCAMBIA BAY","City":"AVALON BEACH","Zip":" ","COUNTY":"SANTA ROSA","X":-87.146471210000001,"Y":30.523828229999999,"LONGLAT":"-87.14647121,30.52382823","USNG":"16R DU 85947 76841","OWNERSHIP":null,"PARCELID":null,"FACILITY_TYPE":"RAILROAD BRIDGE"}},{"type":"Feature","id":8,"geometry":{"type":"Point","coordinates":[-80.145405912573551,26.118529130957583]},"properties":{"OBJECTID":8,"Name":"FLORIDA EAST COAST RAILWAY BRIDGE AT NEW RIVER","Address":"300-400 BLOCK OF SW 2ND AVENUE","City":"FORT LAUDERDALE","Zip":"33315","COUNTY":"BROWARD","X":-80.145405909999994,"Y":26.118529129999999,"LONGLAT":"-80.14540591,26.11852913","USNG":"17R NJ 85441 89090","OWNERSHIP":null,"PARCELID":"504210010000","FACILITY_TYPE":"RAILROAD BRIDGE"}},{"type":"Feature","id":9,"geometry":{"type":"Point","coordinates":[-82.690804273502835,28.032758426022045]},"properties":{"OBJECTID":9,"Name":"CSX CORP. OLD TAMPA BAY BRIDGE","Address":"0.28 MILES N OF SR-580.","City":"OLDSMAR","Zip":" ","COUNTY":"PINELLAS","X":-82.690804270000001,"Y":28.032758430000001,"LONGLAT":"-82.69080427,28.03275843","USNG":"17R LM 33792 01983","OWNERSHIP":null,"PARCELID":"15 27 01 00001 777 0000","FACILITY_TYPE":"RAILROAD BRIDGE"}},{"type":"Feature","id":10,"geometry":{"type":"Point","coordinates":[-81.540431409572335,30.413924166783005]},"properties":{"OBJECTID":10,"Name":"CSX CORP. BLOUNT ISLAND RAILROAD BRIDGE","Address":"STATE HWY 105 AND BLOUNT ISLAND ROAD","City":"JACKSONVILLE","Zip":"32226","COUNTY":"DUVAL","X":-81.540431409999997,"Y":30.413924170000001,"LONGLAT":"-81.54043141,30.41392417","USNG":"17R MP 48093 64776","OWNERSHIP":null,"PARCELID":null,"FACILITY_TYPE":"RAILROAD BRIDGE"}},{"type":"Feature","id":11,"geometry":{"type":"Point","coordinates":[-84.863395643104553,30.689517666093362]},"properties":{"OBJECTID":11,"Name":"CSX CORP. APALACHICOLA BRIDGE - RAILROAD","Address":"OVER APALACHICOLA RIVER","City":"CHATTAHOOCHEE","Zip":"32324","COUNTY":"GADSDEN","X":-84.863395639999993,"Y":30.689517670000001,"LONGLAT":"-84.86339564,30.68951767","USNG":"16R GU 04653 97141","OWNERSHIP":null,"PARCELID":null,"FACILITY_TYPE":"RAILROAD BRIDGE"}}]}