{"type":"FeatureCollection","features":[{"type":"Feature","id":1,"geometry":{"type":"Point","coordinates":[-82.186102876299003,29.095829770500355]},"properties":{"OBJECTID":1,"Name":"REST AREA/S","Address":"MILE MARKER 346S","City":"OCALA","Zip":"34476","COUNTY":"MARION","X":-82.186102880000007,"Y":29.095829770000002,"LONGLAT":"-82.18610288,29.09582977","USNG":"17R LN 84576 19183","OWNERSHIP":null,"PARCELID":null,"FACILITY_TYPE":"REST AREA"}},{"type":"Feature","id":2,"geometry":{"type":"Point","coordinates":[-80.876695420910238,28.687346621220392]},"properties":{"OBJECTID":2,"Name":"MIMS REST AREA I-95","Address":"NORTHBOUND I-95, NORTH OF SR 46","City":"MIMS","Zip":"32754","COUNTY":"BREVARD","X":-80.876695420000004,"Y":28.68734662,"LONGLAT":"-80.87669542,28.68734662","USNG":"17R NM 12045 73353","OWNERSHIP":null,"PARCELID":null,"FACILITY_TYPE":"REST AREA"}},{"type":"Feature","id":3,"geometry":{"type":"Point","coordinates":[-83.249261855749239,30.367465708944007]},"properties":{"OBJECTID":3,"Name":"REST AREA/E","Address":"","City":"LEE","Zip":"32059","COUNTY":"MADISON","X":-83.249261860000004,"Y":30.367465710000001,"LONGLAT":"-83.24926186,30.36746571","USNG":"17R KP 83840 61650","OWNERSHIP":null,"PARCELID":null,"FACILITY_TYPE":"REST AREA"}},{"type":"Feature","id":4,"geometry":{"type":"Point","coordinates":[-87.35393000061039,30.547639999858148]},"properties":{"OBJECTID":4,"Name":"REST AREA/E","Address":"","City":"PENSACOLA","Zip":"32526","COUNTY":"ESCAMBIA","X":-87.353930000000005,"Y":30.547640000000001,"LONGLAT":"-87.35393000,30.54764000","USNG":"16R DU 66053 79524","OWNERSHIP":null,"PARCELID":null,"FACILITY_TYPE":"REST AREA"}},{"type":"Feature","id":5,"geometry":{"type":"Point","coordinates":[-86.981390000373509,30.608309999032691]},"properties":{"OBJECTID":5,"Name":"REST AREA/E","Address":"","City":"MILTON","Zip":"32583","COUNTY":"SANTA ROSA","X":-86.981390000000005,"Y":30.608309999999999,"LONGLAT":"-86.98139000,30.60831000","USNG":"16R EU 01783 86194","OWNERSHIP":"COUNTY","PARCELID":" ","FACILITY_TYPE":"REST AREA"}},{"type":"Feature","id":6,"geometry":{"type":"Point","coordinates":[-80.41355000059724,27.462629999563134]},"properties":{"OBJECTID":6,"Name":"REST AREA/N","Address":"","City":"FORT PIERCE","Zip":"34945","COUNTY":"ST. LUCIE","X":-80.413550000000001,"Y":27.462630000000001,"LONGLAT":"-80.41355000,27.46263000","USNG":"17R NL 57945 37814","OWNERSHIP":null,"PARCELID":null,"FACILITY_TYPE":"REST AREA"}},{"type":"Feature","id":7,"geometry":{"type":"Point","coordinates":[-81.373561577030955,28.724712793548303]},"properties":{"OBJECTID":7,"Name":"REST AREA/E","Address":"","City":"LONGWOOD","Zip":"32750","COUNTY":"SEMINOLE","X":-81.373561580000001,"Y":28.724712790000002,"LONGLAT":"-81.37356158,28.72471279","USNG":"17R MM 63519 77543","OWNERSHIP":null,"PARCELID":null,"FACILITY_TYPE":"REST AREA"}},{"type":"Feature","id":8,"geometry":{"type":"Point","coordinates":[-82.368481676202165,28.216276446954922]},"properties":{"OBJECTID":8,"Name":"REST AREA/N","Address":"MILE MARKER 277","City":"WESLEY CHAPEL","Zip":"33543","COUNTY":"PASCO","X":-82.368481680000002,"Y":28.216276449999999,"LONGLAT":"-82.36848168,28.21627645","USNG":"17R LM 65709 21919","OWNERSHIP":null,"PARCELID":"1926230000299000000","FACILITY_TYPE":"REST AREA"}},{"type":"Feature","id":9,"geometry":{"type":"Point","coordinates":[-80.825629999501786,27.604899998901818]},"properties":{"OBJECTID":9,"Name":"REST AREA/S","Address":"","City":"OKEECHOBEE","Zip":"34972","COUNTY":"OKEECHOBEE","X":-80.825630000000004,"Y":27.604900000000001,"LONGLAT":"-80.82563000,27.60490000","USNG":"17R NL 17206 53448","OWNERSHIP":null,"PARCELID":null,"FACILITY_TYPE":"REST AREA"}},{"type":"Feature","id":10,"geometry":{"type":"Point","coordinates":[-80.631950000030798,26.146229998624428]},"properties":{"OBJECTID":10,"Name":"REST AREA/S","Address":"","City":"WEST BROWARD COUNTY","Zip":"00041","COUNTY":"BROWARD","X":-80.631950000000003,"Y":26.146229999999999,"LONGLAT":"-80.63195000,26.14623000","USNG":"17R NJ 36788 91930","OWNERSHIP":null,"PARCELID":null,"FACILITY_TYPE":"REST AREA"}},{"type":"Feature","id":11,"geometry":{"type":"Point","coordinates":[-80.182629162242847,26.22666242173597]},"properties":{"OBJECTID":11,"Name":"REST AREA","Address":"","City":"POMPANO BEACH","Zip":"33068","COUNTY":"BROWARD","X":-80.182629160000005,"Y":26.22666242,"LONGLAT":"-80.18262916,26.22666242","USNG":"17R NK 81644 01043","OWNERSHIP":"STATE","PARCELID":"494205000050","FACILITY_TYPE":"REST AREA"}},{"type":"Feature","id":12,"geometry":{"type":"Point","coordinates":[-81.327245943328734,29.702037632137927]},"properties":{"OBJECTID":12,"Name":"REST AREA/N","Address":"MILE MARKER 302N","City":"SAINT AUGUSTINE","Zip":"32086","COUNTY":"ST. JOHNS","X":-81.327245939999997,"Y":29.70203763,"LONGLAT":"-81.32724594,29.70203763","USNG":"17R MN 68343 85814","OWNERSHIP":null,"PARCELID":"4444444444","FACILITY_TYPE":"REST AREA"}},{"type":"Feature","id":13,"geometry":{"type":"Point","coordinates":[-82.579944252622056,29.979015680491255]},"properties":{"OBJECTID":13,"Name":"REST AREA/S","Address":"","City":"LAKE CITY","Zip":"32024","COUNTY":"COLUMBIA","X":-82.579944249999997,"Y":29.97901568,"LONGLAT":"-82.57994425,29.97901568","USNG":"17R LP 47576 17510","OWNERSHIP":null,"PARCELID":null,"FACILITY_TYPE":"REST AREA"}},{"type":"Feature","id":14,"geometry":{"type":"Point","coordinates":[-81.981940117481543,28.786656740149155]},"properties":{"OBJECTID":14,"Name":"REST AREA","Address":"MILE MARKER 300","City":"WILDWOOD","Zip":"34785","COUNTY":"SUMTER","X":-81.981940120000004,"Y":28.786656740000002,"LONGLAT":"-81.98194012,28.78665674","USNG":"17R MM 04160 84744","OWNERSHIP":null,"PARCELID":null,"FACILITY_TYPE":"REST AREA"}},{"type":"Feature","id":15,"geometry":{"type":"Point","coordinates":[-83.146852132826766,30.612714498672652]},"properties":{"OBJECTID":15,"Name":"DOT I-75 WELCOME CENTER","Address":"I-75 S MM 471","City":"JENNINGS","Zip":"32053","COUNTY":"HAMILTON","X":-83.146852129999999,"Y":30.612714499999999,"LONGLAT":"-83.14685213,30.61271450","USNG":"17R KP 94201 88646","OWNERSHIP":"STATE","PARCELID":"3838-010","FACILITY_TYPE":"REST AREA"}},{"type":"Feature","id":16,"geometry":{"type":"Point","coordinates":[-83.730542739456865,30.446909463148714]},"properties":{"OBJECTID":16,"Name":"REST AREA/W","Address":"","City":"MONTICELLO","Zip":"32344","COUNTY":"JEFFERSON","X":-83.730542740000004,"Y":30.446909460000001,"LONGLAT":"-83.73054274,30.44690946","USNG":"17R KP 37784 71475","OWNERSHIP":null,"PARCELID":"00-00-00-0000-0RDS-0000","FACILITY_TYPE":"REST AREA"}},{"type":"Feature","id":17,"geometry":{"type":"Point","coordinates":[-86.507837426093417,30.727712850938509]},"properties":{"OBJECTID":17,"Name":"REST AREA/W","Address":"","City":"CRESTVIEW","Zip":"32539","COUNTY":"OKALOOSA","X":-86.507837429999995,"Y":30.72771285,"LONGLAT":"-86.50783743,30.72771285","USNG":"16R EU 47118 99529","OWNERSHIP":null,"PARCELID":null,"FACILITY_TYPE":"REST AREA"}},{"type":"Feature","id":18,"geometry":{"type":"Point","coordinates":[-82.183802717421756,29.093005848122395]},"properties":{"OBJECTID":18,"Name":"REST AREA/N","Address":"MILE MARKER 346N","City":"OCALA","Zip":"34476","COUNTY":"MARION","X":-82.183802720000003,"Y":29.093005850000001,"LONGLAT":"-82.18380272,29.09300585","USNG":"17R LN 84796 18868","OWNERSHIP":null,"PARCELID":null,"FACILITY_TYPE":"REST AREA"}},{"type":"Feature","id":19,"geometry":{"type":"Point","coordinates":[-81.496695834948284,30.091191288080342]},"properties":{"OBJECTID":19,"Name":"REST AREA/N","Address":"MILE MARKER 331N","City":"JACKSONVILLE","Zip":"32259","COUNTY":"ST. JOHNS","X":-81.496695829999993,"Y":30.091191290000001,"LONGLAT":"-81.49669583,30.09119129","USNG":"17R MP 52138 28994","OWNERSHIP":null,"PARCELID":"4444444444","FACILITY_TYPE":"REST AREA"}},{"type":"Feature","id":20,"geometry":{"type":"Point","coordinates":[-81.274081815288397,28.094530396939618]},"properties":{"OBJECTID":20,"Name":"REST AREA","Address":"","City":"SAINT CLOUD","Zip":"34772","COUNTY":"OSCEOLA","X":-81.274081820000006,"Y":28.0945304,"LONGLAT":"-81.27408182,28.09453040","USNG":"17R MM 73075 07704","OWNERSHIP":null,"PARCELID":null,"FACILITY_TYPE":"REST AREA"}},{"type":"Feature","id":21,"geometry":{"type":"Point","coordinates":[-80.370940000736226,27.298489999837539]},"properties":{"OBJECTID":21,"Name":"REST AREA/N","Address":"","City":"PORT SAINT LUCIE","Zip":"34986","COUNTY":"ST. LUCIE","X":-80.370940000000004,"Y":27.298490000000001,"LONGLAT":"-80.37094000,27.29849000","USNG":"17R NL 62247 19653","OWNERSHIP":null,"PARCELID":null,"FACILITY_TYPE":"REST AREA"}},{"type":"Feature","id":22,"geometry":{"type":"Point","coordinates":[-80.819159999422538,27.59754999894643]},"properties":{"OBJECTID":22,"Name":"REST AREA/N","Address":"","City":"OKEECHOBEE","Zip":"34972","COUNTY":"OKEECHOBEE","X":-80.819159999999997,"Y":27.597549999999998,"LONGLAT":"-80.81916000,27.59755000","USNG":"17R NL 17846 52635","OWNERSHIP":null,"PARCELID":null,"FACILITY_TYPE":"REST AREA"}},{"type":"Feature","id":23,"geometry":{"type":"Point","coordinates":[-85.319520000178358,30.757419999743618]},"properties":{"OBJECTID":23,"Name":"REST AREA/W","Address":"","City":"MARIANNA","Zip":"32448","COUNTY":"JACKSON","X":-85.319519999999997,"Y":30.75742,"LONGLAT":"-85.31952000,30.75742000","USNG":"16R FV 60844 03924","OWNERSHIP":null,"PARCELID":null,"FACILITY_TYPE":"REST AREA"}},{"type":"Feature","id":24,"geometry":{"type":"Point","coordinates":[-80.609049999751676,27.950299999415687]},"properties":{"OBJECTID":24,"Name":"REST AREA/S","Address":"","City":"PALM BAY","Zip":"32909","COUNTY":"BREVARD","X":-80.609049999999996,"Y":27.950299999999999,"LONGLAT":"-80.60905000,27.95030000","USNG":"17R NL 38456 91758","OWNERSHIP":null,"PARCELID":null,"FACILITY_TYPE":"REST AREA"}},{"type":"Feature","id":25,"geometry":{"type":"Point","coordinates":[-84.384784750977531,30.485242121132316]},"properties":{"OBJECTID":25,"Name":"REST AREA/W","Address":"","City":"TALLAHASSEE","Zip":"32303","COUNTY":"LEON","X":-84.384784749999994,"Y":30.485242119999999,"LONGLAT":"-84.38478475,30.48524212","USNG":"16R GU 51037 75463","OWNERSHIP":null,"PARCELID":null,"FACILITY_TYPE":"REST AREA"}},{"type":"Feature","id":26,"geometry":{"type":"Point","coordinates":[-80.888081963708558,28.708535699679476]},"properties":{"OBJECTID":26,"Name":"REST AREA/S","Address":"","City":"MIMS","Zip":"32754","COUNTY":"BREVARD","X":-80.888081959999994,"Y":28.708535699999999,"LONGLAT":"-80.88808196,28.70853570","USNG":"17R NM 10931 75699","OWNERSHIP":null,"PARCELID":null,"FACILITY_TYPE":"REST AREA"}},{"type":"Feature","id":27,"geometry":{"type":"Point","coordinates":[-82.214309999515834,28.583129999679873]},"properties":{"OBJECTID":27,"Name":"REST AREA/N","Address":"","City":"WEBSTER","Zip":"33597","COUNTY":"SUMTER","X":-82.214309999999998,"Y":28.583130000000001,"LONGLAT":"-82.21431000,28.58313000","USNG":"17R LM 81250 62403","OWNERSHIP":null,"PARCELID":null,"FACILITY_TYPE":"REST AREA"}},{"type":"Feature","id":28,"geometry":{"type":"Point","coordinates":[-86.974909999867876,30.613619998196171]},"properties":{"OBJECTID":28,"Name":"REST AREA/W","Address":"","City":"MILTON","Zip":"32583","COUNTY":"SANTA ROSA","X":-86.974909999999994,"Y":30.613620000000001,"LONGLAT":"-86.97491000,30.61362000","USNG":"16R EU 02404 86782","OWNERSHIP":"COUNTY","PARCELID":" ","FACILITY_TYPE":"REST AREA"}},{"type":"Feature","id":29,"geometry":{"type":"Point","coordinates":[-80.619909999529142,26.146529999846834]},"properties":{"OBJECTID":29,"Name":"REST AREA/N","Address":"","City":"WEST BROWARD COUNTY","Zip":"00041","COUNTY":"BROWARD","X":-80.619910000000004,"Y":26.146529999999998,"LONGLAT":"-80.61991000,26.14653000","USNG":"17R NJ 37991 91966","OWNERSHIP":null,"PARCELID":null,"FACILITY_TYPE":"REST AREA"}},{"type":"Feature","id":30,"geometry":{"type":"Point","coordinates":[-80.424720000530257,27.468080000058723]},"properties":{"OBJECTID":30,"Name":"REST AREA/S","Address":"","City":"FORT PIERCE","Zip":"34945","COUNTY":"ST. LUCIE","X":-80.424719999999994,"Y":27.46808,"LONGLAT":"-80.42472000,27.46808000","USNG":"17R NL 56838 38412","OWNERSHIP":null,"PARCELID":null,"FACILITY_TYPE":"REST AREA"}},{"type":"Feature","id":31,"geometry":{"type":"Point","coordinates":[-81.763159999941337,28.174169998926896]},"properties":{"OBJECTID":31,"Name":"REST AREA/W","Address":"","City":"POLK CITY","Zip":"33868","COUNTY":"POLK","X":-81.763159999999999,"Y":28.17417,"LONGLAT":"-81.76316000,28.17417000","USNG":"17R MM 25083 16731","OWNERSHIP":null,"PARCELID":null,"FACILITY_TYPE":"REST AREA"}},{"type":"Feature","id":32,"geometry":{"type":"Point","coordinates":[-80.387012931717422,25.66104303399328]},"properties":{"OBJECTID":32,"Name":"REST AREA","Address":"","City":"MIAMI","Zip":"33186","COUNTY":"MIAMI-DADE","X":-80.387012929999997,"Y":25.661043029999998,"LONGLAT":"-80.38701293,25.66104303","USNG":"17R NJ 61522 38289","OWNERSHIP":null,"PARCELID":null,"FACILITY_TYPE":"REST AREA"}},{"type":"Feature","id":33,"geometry":{"type":"Point","coordinates":[-82.799492427451213,30.273735354431519]},"properties":{"OBJECTID":33,"Name":"REST AREA/E","Address":"","City":"WELLBORN","Zip":"32094","COUNTY":"SUWANNEE","X":-82.799492430000001,"Y":30.27373536,"LONGLAT":"-82.79949243,30.27373536","USNG":"17R LP 26907 50488","OWNERSHIP":null,"PARCELID":null,"FACILITY_TYPE":"REST AREA"}},{"type":"Feature","id":34,"geometry":{"type":"Point","coordinates":[-82.361706789008025,29.590717439650682]},"properties":{"OBJECTID":34,"Name":"REST AREA/N","Address":"","City":"GAINESVILLE","Zip":"32608","COUNTY":"ALACHUA","X":-82.36170679,"Y":29.590717439999999,"LONGLAT":"-82.36170679,29.59071744","USNG":"17R LN 68124 74208","OWNERSHIP":null,"PARCELID":null,"FACILITY_TYPE":"REST AREA"}},{"type":"Feature","id":35,"geometry":{"type":"Point","coordinates":[-81.67817885667742,30.69698989767161]},"properties":{"OBJECTID":35,"Name":"REST AREA/S","Address":"","City":"YULEE","Zip":"32097","COUNTY":"NASSAU","X":-81.678178860000003,"Y":30.696989899999998,"LONGLAT":"-81.67817886,30.69698990","USNG":"17R MP 35052 96217","OWNERSHIP":null,"PARCELID":null,"FACILITY_TYPE":"REST AREA"}},{"type":"Feature","id":36,"geometry":{"type":"Point","coordinates":[-80.603712093675853,27.9338071544502]},"properties":{"OBJECTID":36,"Name":"MILE MARKER 168/I-95 REST AREA","Address":"MILE MARKER 168","City":"MALABAR","Zip":"32950","COUNTY":"BREVARD","X":-80.603712090000002,"Y":27.933807160000001,"LONGLAT":"-80.60371209,27.93380716","USNG":"17R NL 38987 89933","OWNERSHIP":"STATE","PARCELID":"29 372600  252","FACILITY_TYPE":"REST AREA"}},{"type":"Feature","id":37,"geometry":{"type":"Point","coordinates":[-83.243719311269047,30.368807563130268]},"properties":{"OBJECTID":37,"Name":"REST AREA/W","Address":"","City":"LEE","Zip":"32059","COUNTY":"MADISON","X":-83.243719310000003,"Y":30.36880756,"LONGLAT":"-83.24371931,30.36880756","USNG":"17R KP 84375 61788","OWNERSHIP":null,"PARCELID":null,"FACILITY_TYPE":"REST AREA"}},{"type":"Feature","id":38,"geometry":{"type":"Point","coordinates":[-82.577131054092362,29.977365923912046]},"properties":{"OBJECTID":38,"Name":"REST AREA/N","Address":"","City":"LAKE CITY","Zip":"32025","COUNTY":"COLUMBIA","X":-82.577131050000006,"Y":29.97736592,"LONGLAT":"-82.57713105,29.97736592","USNG":"17R LP 47845 17323","OWNERSHIP":null,"PARCELID":null,"FACILITY_TYPE":"REST AREA"}},{"type":"Feature","id":39,"geometry":{"type":"Point","coordinates":[-85.331220000864178,30.757129999749658]},"properties":{"OBJECTID":39,"Name":"REST AREA/E","Address":"","City":"MARIANNA","Zip":"32448","COUNTY":"JACKSON","X":-85.331220000000002,"Y":30.75713,"LONGLAT":"-85.33122000,30.75713000","USNG":"16R FV 59725 03876","OWNERSHIP":null,"PARCELID":null,"FACILITY_TYPE":"REST AREA"}},{"type":"Feature","id":40,"geometry":{"type":"Point","coordinates":[-83.733827794167425,30.444443650136254]},"properties":{"OBJECTID":40,"Name":"REST AREA/E","Address":"","City":"LAMONT","Zip":"32336","COUNTY":"JEFFERSON","X":-83.733827790000007,"Y":30.44444365,"LONGLAT":"-83.73382779,30.44444365","USNG":"17R KP 37462 71210","OWNERSHIP":null,"PARCELID":"00-00-00-0000-0RDS-0000","FACILITY_TYPE":"REST AREA"}},{"type":"Feature","id":41,"geometry":{"type":"Point","coordinates":[-82.420583339313239,27.692441480236802]},"properties":{"OBJECTID":41,"Name":"REST AREA/S","Address":"","City":"RUSKIN","Zip":"33570","COUNTY":"HILLSBOROUGH","X":-82.420583339999993,"Y":27.692441479999999,"LONGLAT":"-82.42058334,27.69244148","USNG":"17R LL 59921 63940","OWNERSHIP":null,"PARCELID":null,"FACILITY_TYPE":"REST AREA"}},{"type":"Feature","id":42,"geometry":{"type":"Point","coordinates":[-81.499197821973738,30.094422212297218]},"properties":{"OBJECTID":42,"Name":"REST AREA/S","Address":"MILE MARKER 331S","City":"JACKSONVILLE","Zip":"32259","COUNTY":"ST. JOHNS","X":-81.499197820000006,"Y":30.094422210000001,"LONGLAT":"-81.49919782,30.09442221","USNG":"17R MP 51898 29353","OWNERSHIP":null,"PARCELID":"4444444444","FACILITY_TYPE":"REST AREA"}},{"type":"Feature","id":43,"geometry":{"type":"Point","coordinates":[-86.506634329773632,30.726065741780321]},"properties":{"OBJECTID":43,"Name":"REST AREA/E","Address":"","City":"CRESTVIEW","Zip":"32539","COUNTY":"OKALOOSA","X":-86.506634329999997,"Y":30.726065739999999,"LONGLAT":"-86.50663433,30.72606574","USNG":"16R EU 47234 99347","OWNERSHIP":null,"PARCELID":null,"FACILITY_TYPE":"REST AREA"}},{"type":"Feature","id":44,"geometry":{"type":"Point","coordinates":[-81.06612999919318,26.168779998640325]},"properties":{"OBJECTID":44,"Name":"REST AREA/N","Address":"","City":"IMMOKALEE","Zip":"34142","COUNTY":"COLLIER","X":-81.066130000000001,"Y":26.168780000000002,"LONGLAT":"-81.06613000,26.16878000","USNG":"17R MJ 93391 94377","OWNERSHIP":"COUNTY","PARCELID":" ","FACILITY_TYPE":"REST AREA"}},{"type":"Feature","id":45,"geometry":{"type":"Point","coordinates":[-82.373532857010559,28.213574314457482]},"properties":{"OBJECTID":45,"Name":"REST AREA/S","Address":"MILE MARKER 277","City":"LUTZ","Zip":"33559","COUNTY":"PASCO","X":-82.373532859999997,"Y":28.213574319999999,"LONGLAT":"-82.37353286,28.21357432","USNG":"17R LM 65210 21625","OWNERSHIP":null,"PARCELID":"1926140000299000000","FACILITY_TYPE":"REST AREA"}},{"type":"Feature","id":46,"geometry":{"type":"Point","coordinates":[-81.084609999114136,26.168209999653378]},"properties":{"OBJECTID":46,"Name":"REST AREA/S","Address":"","City":"IMMOKALEE","Zip":"34142","COUNTY":"COLLIER","X":-81.084609999999998,"Y":26.168209999999998,"LONGLAT":"-81.08461000,26.16821000","USNG":"17R MJ 91544 94315","OWNERSHIP":"COUNTY","PARCELID":" ","FACILITY_TYPE":"REST AREA"}},{"type":"Feature","id":47,"geometry":{"type":"Point","coordinates":[-82.402605716662791,30.253387189982455]},"properties":{"OBJECTID":47,"Name":"REST AREA/E","Address":"","City":"SANDERSON","Zip":"32087","COUNTY":"BAKER","X":-82.402605719999997,"Y":30.253387190000002,"LONGLAT":"-82.40260572,30.25338719","USNG":"17R LP 65060 47695","OWNERSHIP":null,"PARCELID":null,"FACILITY_TYPE":"REST AREA"}},{"type":"Feature","id":48,"geometry":{"type":"Point","coordinates":[-81.503139999377396,28.516609998316902]},"properties":{"OBJECTID":48,"Name":"REST AREA/S","Address":"","City":"ORLANDO","Zip":"32835","COUNTY":"ORANGE","X":-81.503140000000002,"Y":28.51661,"LONGLAT":"-81.50314000,28.51661000","USNG":"17R MM 50767 54535","OWNERSHIP":null,"PARCELID":null,"FACILITY_TYPE":"REST AREA"}},{"type":"Feature","id":49,"geometry":{"type":"Point","coordinates":[-80.374430000732858,27.30703999949575]},"properties":{"OBJECTID":49,"Name":"REST AREA/S","Address":"","City":"PORT SAINT LUCIE","Zip":"34986","COUNTY":"ST. LUCIE","X":-80.374430000000004,"Y":27.307040000000001,"LONGLAT":"-80.37443000,27.30704000","USNG":"17R NL 61897 20598","OWNERSHIP":null,"PARCELID":null,"FACILITY_TYPE":"REST AREA"}},{"type":"Feature","id":50,"geometry":{"type":"Point","coordinates":[-82.211759681320018,28.587700395975997]},"properties":{"OBJECTID":50,"Name":"REST AREA/S","Address":"MILE MARKER 307","City":"WEBSTER","Zip":"33597","COUNTY":"SUMTER","X":-82.21175968,"Y":28.587700399999999,"LONGLAT":"-82.21175968,28.58770040","USNG":"17R LM 81504 62907","OWNERSHIP":null,"PARCELID":null,"FACILITY_TYPE":"REST AREA"}},{"type":"Feature","id":51,"geometry":{"type":"Point","coordinates":[-81.334600037519124,29.715546535898138]},"properties":{"OBJECTID":51,"Name":"REST AREA/S","Address":"MILE MARKER 303S","City":"HASTINGS","Zip":"32145","COUNTY":"ST. JOHNS","X":-81.334600039999998,"Y":29.715546539999998,"LONGLAT":"-81.33460004,29.71554654","USNG":"17R MN 67636 87313","OWNERSHIP":null,"PARCELID":"4444444444","FACILITY_TYPE":"REST AREA"}},{"type":"Feature","id":52,"geometry":{"type":"Point","coordinates":[-80.644389999512313,26.146249998603771]},"properties":{"OBJECTID":52,"Name":"REST AREA/S","Address":"","City":"WEST BROWARD COUNTY","Zip":"00041","COUNTY":"BROWARD","X":-80.644390000000001,"Y":26.146249999999998,"LONGLAT":"-80.64439000,26.14625000","USNG":"17R NJ 35544 91928","OWNERSHIP":null,"PARCELID":null,"FACILITY_TYPE":"REST AREA"}},{"type":"Feature","id":53,"geometry":{"type":"Point","coordinates":[-80.328940000792059,27.127409999696578]},"properties":{"OBJECTID":53,"Name":"REST AREA/N","Address":"","City":"PALM CITY","Zip":"34990","COUNTY":"MARTIN","X":-80.328940000000003,"Y":27.127410000000001,"LONGLAT":"-80.32894000,27.12741000","USNG":"17R NL 66505 00724","OWNERSHIP":null,"PARCELID":"ROW","FACILITY_TYPE":"REST AREA"}},{"type":"Feature","id":54,"geometry":{"type":"Point","coordinates":[-80.603712093675853,27.9338071544502]},"properties":{"OBJECTID":54,"Name":"MILE MARKER 168/I-95 REST AREA","Address":"MILE MARKER 168","City":"MALABAR","Zip":"32950","COUNTY":"BREVARD","X":-80.603712090000002,"Y":27.933807160000001,"LONGLAT":"-80.60371209,27.93380716","USNG":"17R NL 38987 89933","OWNERSHIP":"STATE","PARCELID":"29 372600  252","FACILITY_TYPE":"REST AREA"}},{"type":"Feature","id":55,"geometry":{"type":"Point","coordinates":[-82.400654882562094,30.254880511566736]},"properties":{"OBJECTID":55,"Name":"REST AREA/W","Address":"","City":"SANDERSON","Zip":"32087","COUNTY":"BAKER","X":-82.400654880000005,"Y":30.25488051,"LONGLAT":"-82.40065488,30.25488051","USNG":"17R LP 65249 47858","OWNERSHIP":null,"PARCELID":null,"FACILITY_TYPE":"REST AREA"}},{"type":"Feature","id":56,"geometry":{"type":"Point","coordinates":[-80.603712093675853,27.9338071544502]},"properties":{"OBJECTID":56,"Name":"MILE MARKER 168/I-95 REST AREA","Address":"MILE MARKER 168","City":"MALABAR","Zip":"32950","COUNTY":"BREVARD","X":-80.603712090000002,"Y":27.933807160000001,"LONGLAT":"-80.60371209,27.93380716","USNG":"17R NL 38987 89933","OWNERSHIP":"STATE","PARCELID":"29 372600  252","FACILITY_TYPE":"REST AREA"}},{"type":"Feature","id":57,"geometry":{"type":"Point","coordinates":[-82.783710354415334,30.273684927514321]},"properties":{"OBJECTID":57,"Name":"REST AREA/W","Address":"","City":"LAKE CITY","Zip":"32055","COUNTY":"COLUMBIA","X":-82.783710350000007,"Y":30.273684930000002,"LONGLAT":"-82.78371035,30.27368493","USNG":"17R LP 28425 50459","OWNERSHIP":null,"PARCELID":null,"FACILITY_TYPE":"REST AREA"}},{"type":"Feature","id":58,"geometry":{"type":"Point","coordinates":[-81.494540000176457,28.511399998986544]},"properties":{"OBJECTID":58,"Name":"REST AREA/N","Address":"","City":"ORLANDO","Zip":"32835","COUNTY":"ORANGE","X":-81.494540000000001,"Y":28.511399999999998,"LONGLAT":"-81.49454000,28.51140000","USNG":"17R MM 51606 53954","OWNERSHIP":null,"PARCELID":null,"FACILITY_TYPE":"REST AREA"}},{"type":"Feature","id":59,"geometry":{"type":"Point","coordinates":[-82.363879397847811,29.589631077335451]},"properties":{"OBJECTID":59,"Name":"REST AREA/S","Address":"","City":"GAINESVILLE","Zip":"32608","COUNTY":"ALACHUA","X":-82.363879400000002,"Y":29.58963108,"LONGLAT":"-82.36387940,29.58963108","USNG":"17R LN 67912 74090","OWNERSHIP":null,"PARCELID":null,"FACILITY_TYPE":"REST AREA"}},{"type":"Feature","id":60,"geometry":{"type":"Point","coordinates":[-81.774850001037521,28.166779999005154]},"properties":{"OBJECTID":60,"Name":"REST AREA/E","Address":"","City":"POLK CITY","Zip":"33868","COUNTY":"POLK","X":-81.774850000000001,"Y":28.166779999999999,"LONGLAT":"-81.77485000,28.16678000","USNG":"17R MM 23931 15920","OWNERSHIP":null,"PARCELID":null,"FACILITY_TYPE":"REST AREA"}},{"type":"Feature","id":61,"geometry":{"type":"Point","coordinates":[-84.388766219483287,30.483690062445646]},"properties":{"OBJECTID":61,"Name":"REST AREA/E","Address":"","City":"TALLAHASSEE","Zip":"32304","COUNTY":"LEON","X":-84.388766219999994,"Y":30.483690060000001,"LONGLAT":"-84.38876622,30.48369006","USNG":"16R GU 50659 75282","OWNERSHIP":null,"PARCELID":null,"FACILITY_TYPE":"REST AREA"}},{"type":"Feature","id":62,"geometry":{"type":"Point","coordinates":[-80.34446999964203,27.12775999965822]},"properties":{"OBJECTID":62,"Name":"REST AREA/S","Address":"","City":"PALM CITY","Zip":"34990","COUNTY":"MARTIN","X":-80.344470000000001,"Y":27.127759999999999,"LONGLAT":"-80.34447000,27.12776000","USNG":"17R NL 64965 00755","OWNERSHIP":null,"PARCELID":"ROW","FACILITY_TYPE":"REST AREA"}},{"type":"Feature","id":63,"geometry":{"type":"Point","coordinates":[-82.424839999148631,27.678879999046771]},"properties":{"OBJECTID":63,"Name":"REST AREA/N","Address":"","City":"RUSKIN","Zip":"33570","COUNTY":"HILLSBOROUGH","X":-82.424840000000003,"Y":27.678879999999999,"LONGLAT":"-82.42484000,27.67888000","USNG":"17R LL 59484 62442","OWNERSHIP":null,"PARCELID":null,"FACILITY_TYPE":"REST AREA"}},{"type":"Feature","id":64,"geometry":{"type":"Point","coordinates":[-84.892400238207316,30.626574930842335]},"properties":{"OBJECTID":64,"Name":"REST AREA/MM 110","Address":"","City":"QUINCY","Zip":"32351","COUNTY":"GADSDEN","X":-84.892400240000001,"Y":30.62657493,"LONGLAT":"-84.89240024,30.62657493","USNG":"16R GU 02006 90111","OWNERSHIP":"STATE","PARCELID":"2-25-3N-7W-0000-00320-0000","FACILITY_TYPE":"REST AREA"}},{"type":"Feature","id":65,"geometry":{"type":"Point","coordinates":[-80.174875110335407,26.634232693396822]},"properties":{"OBJECTID":65,"Name":"REST AREA","Address":"","City":"WEST PALM BEACH","Zip":"33414","COUNTY":"PALM BEACH","X":-80.174875110000002,"Y":26.634232690000001,"LONGLAT":"-80.17487511,26.63423269","USNG":"17R NK 82129 46189","OWNERSHIP":"STATE","PARCELID":"00424327050200011","FACILITY_TYPE":"REST AREA"}},{"type":"Feature","id":66,"geometry":{"type":"Point","coordinates":[-81.382149999349338,28.704109999347835]},"properties":{"OBJECTID":66,"Name":"REST AREA/W","Address":"","City":"LONGWOOD","Zip":"32750","COUNTY":"SEMINOLE","X":-81.382149999999996,"Y":28.70411,"LONGLAT":"-81.38215000,28.70411000","USNG":"17R MM 62672 75264","OWNERSHIP":null,"PARCELID":null,"FACILITY_TYPE":"REST AREA"}}]}