{"type":"FeatureCollection","features":[{"type":"Feature","id":1,"geometry":{"type":"Point","coordinates":[-85.564113988270748,30.24187199713035]},"properties":{"OBJECTID":1,"Name":"Tommy Smith ES","Address":"5044 Tommy Smith Way","City":"Panama City","Zip":"32404","COUNTY":"BAY","X":-85.564113989999996,"Y":30.241872000000001,"LONGLAT":"-85.56411399, 30.24187200","USNG":"16R FU 38157 46459","FACILITY_TYPE":"SHELTER","SHELTER_TYPE":"RISK","RPC_Region":"1","Year_Built":"1991","Building":"2 Classroom","AS_IS_A_Retrofit_R":"R","Generator_Type":" ","PreMitigation_Capacity_Spaces":0,"PreMitigation_Square_Footage":0,"EHPA_Capacity_Gained_Spaces":0,"EHPA_Square_Footage_Gained":0,"Retrofit_Capacity_Gained_Spaces":400,"Retrofit_Square_Footage_Gained":8007,"Risk_Capacity_Spaces":400,"Risk_Square_Footage":8007,"Planned_Usage_Spaces":0,"FundingSource_F_Federal_State_S":"HMGP","Evacuation_Zone":"No","SURGE_ZONE":"No","FLOOD_ZONE":"No","EHPA":"No","General_Pop":"Yes","SPECIAL_NEEDS":" ","Pet_Friendly":"Yes","Does_not_meet_ARC_4496":" ","Survey_Needed":" "}},{"type":"Feature","id":2,"geometry":{"type":"Point","coordinates":[-85.667979011933539,30.168730001173163]},"properties":{"OBJECTID":2,"Name":"Jinks MS","Address":"600 W 11th St","City":"Panama City","Zip":"32401","COUNTY":"BAY","X":-85.667979009999996,"Y":30.16873,"LONGLAT":"-85.66797901, 30.16873000","USNG":"16R FU 28258 38231","FACILITY_TYPE":"SHELTER","SHELTER_TYPE":"RISK","RPC_Region":"1","Year_Built":"2003","Building":"6 Band / Classroom","AS_IS_A_Retrofit_R":"R","Generator_Type":" ","PreMitigation_Capacity_Spaces":0,"PreMitigation_Square_Footage":0,"EHPA_Capacity_Gained_Spaces":0,"EHPA_Square_Footage_Gained":0,"Retrofit_Capacity_Gained_Spaces":125,"Retrofit_Square_Footage_Gained":2769,"Risk_Capacity_Spaces":138,"Risk_Square_Footage":2769,"Planned_Usage_Spaces":125,"FundingSource_F_Federal_State_S":"HMGP","Evacuation_Zone":"No","SURGE_ZONE":"No","FLOOD_ZONE":"No","EHPA":"No","General_Pop":"Yes","SPECIAL_NEEDS":" ","Pet_Friendly":"Yes","Does_not_meet_ARC_4496":" ","Survey_Needed":" "}},{"type":"Feature","id":3,"geometry":{"type":"Point","coordinates":[-85.641266976048641,30.166847006334589]},"properties":{"OBJECTID":3,"Name":"Rosenwald HS","Address":"1310 E 11th St","City":"Panama City","Zip":"32401","COUNTY":"BAY","X":-85.641266979999997,"Y":30.166847010000001,"LONGLAT":"-85.64126698, 30.16684701","USNG":"16R FU 30833 38053","FACILITY_TYPE":"SHELTER","SHELTER_TYPE":"RISK","RPC_Region":"1","Year_Built":"2002","Building":"13 Classroom","AS_IS_A_Retrofit_R":"R","Generator_Type":" ","PreMitigation_Capacity_Spaces":0,"PreMitigation_Square_Footage":0,"EHPA_Capacity_Gained_Spaces":0,"EHPA_Square_Footage_Gained":0,"Retrofit_Capacity_Gained_Spaces":175,"Retrofit_Square_Footage_Gained":3493,"Risk_Capacity_Spaces":175,"Risk_Square_Footage":3493,"Planned_Usage_Spaces":202,"FundingSource_F_Federal_State_S":" ","Evacuation_Zone":"No","SURGE_ZONE":"No","FLOOD_ZONE":"No","EHPA":"No","General_Pop":"Yes","SPECIAL_NEEDS":" ","Pet_Friendly":"Yes","Does_not_meet_ARC_4496":" ","Survey_Needed":" "}},{"type":"Feature","id":4,"geometry":{"type":"Point","coordinates":[-85.688954706322818,30.394178731450708]},"properties":{"OBJECTID":4,"Name":"Bozeman Learning Center","Address":"13410 SR 77","City":"Panama City","Zip":"32409","COUNTY":"BAY","X":-85.688954710000004,"Y":30.39417873,"LONGLAT":"-85.68895471, 30.39417873","USNG":"16R FU 25949 63194","FACILITY_TYPE":"SHELTER","SHELTER_TYPE":"RISK","RPC_Region":"1","Year_Built":"2000","Building":"5 Classroom","AS_IS_A_Retrofit_R":"R","Generator_Type":" ","PreMitigation_Capacity_Spaces":0,"PreMitigation_Square_Footage":0,"EHPA_Capacity_Gained_Spaces":0,"EHPA_Square_Footage_Gained":0,"Retrofit_Capacity_Gained_Spaces":686,"Retrofit_Square_Footage_Gained":11518,"Risk_Capacity_Spaces":576,"Risk_Square_Footage":11518,"Planned_Usage_Spaces":686,"FundingSource_F_Federal_State_S":"HMGP","Evacuation_Zone":"No","SURGE_ZONE":"No","FLOOD_ZONE":"No","EHPA":"No","General_Pop":"Yes","SPECIAL_NEEDS":" ","Pet_Friendly":"Yes","Does_not_meet_ARC_4496":" ","Survey_Needed":" "}},{"type":"Feature","id":5,"geometry":{"type":"Point","coordinates":[-85.564113988270748,30.24187199713035]},"properties":{"OBJECTID":5,"Name":"Tommy Smith ES","Address":"5044 Tommy Smith Way","City":"Panama City","Zip":"32404","COUNTY":"BAY","X":-85.564113989999996,"Y":30.241872000000001,"LONGLAT":"-85.56411399, 30.24187200","USNG":"16R FU 38157 46459","FACILITY_TYPE":"SHELTER","SHELTER_TYPE":"RISK","RPC_Region":"1","Year_Built":"1991","Building":"3 Classroom","AS_IS_A_Retrofit_R":"R","Generator_Type":" ","PreMitigation_Capacity_Spaces":0,"PreMitigation_Square_Footage":0,"EHPA_Capacity_Gained_Spaces":0,"EHPA_Square_Footage_Gained":0,"Retrofit_Capacity_Gained_Spaces":426,"Retrofit_Square_Footage_Gained":8515,"Risk_Capacity_Spaces":426,"Risk_Square_Footage":8515,"Planned_Usage_Spaces":0,"FundingSource_F_Federal_State_S":"HMGP","Evacuation_Zone":"No","SURGE_ZONE":"No","FLOOD_ZONE":"No","EHPA":"No","General_Pop":"Yes","SPECIAL_NEEDS":" ","Pet_Friendly":"Yes","Does_not_meet_ARC_4496":" ","Survey_Needed":" "}},{"type":"Feature","id":6,"geometry":{"type":"Point","coordinates":[-85.64554131185146,30.202286001439337]},"properties":{"OBJECTID":6,"Name":"New Horizons Learning Center","Address":"3100 Minnesota Ave","City":"Panama City","Zip":"32405","COUNTY":"BAY","X":-85.645541309999999,"Y":30.202286000000001,"LONGLAT":"-85.64554131, 30.20228600","USNG":"16R FU 30374 41975","FACILITY_TYPE":"SHELTER","SHELTER_TYPE":"RISK","RPC_Region":"1","Year_Built":"0","Building":"2","AS_IS_A_Retrofit_R":"A","Generator_Type":" ","PreMitigation_Capacity_Spaces":0,"PreMitigation_Square_Footage":0,"EHPA_Capacity_Gained_Spaces":222,"EHPA_Square_Footage_Gained":4443,"Retrofit_Capacity_Gained_Spaces":0,"Retrofit_Square_Footage_Gained":0,"Risk_Capacity_Spaces":222,"Risk_Square_Footage":4443,"Planned_Usage_Spaces":0,"FundingSource_F_Federal_State_S":"L","Evacuation_Zone":"No","SURGE_ZONE":"No","FLOOD_ZONE":"No","EHPA":"Yes","General_Pop":"Yes","SPECIAL_NEEDS":" ","Pet_Friendly":"Yes","Does_not_meet_ARC_4496":" ","Survey_Needed":"Yes"}},{"type":"Feature","id":7,"geometry":{"type":"Point","coordinates":[-85.707029041636687,30.183323983899644]},"properties":{"OBJECTID":7,"Name":"Moore ES","Address":"1900 Michigan Ave","City":"Panama City","Zip":"32405","COUNTY":"BAY","X":-85.707029039999995,"Y":30.183323980000001,"LONGLAT":"-85.70702904, 30.18332398","USNG":"16R FU 24479 39805","FACILITY_TYPE":"SHELTER","SHELTER_TYPE":"RISK","RPC_Region":"1","Year_Built":"1996","Building":"5 Media (13)","AS_IS_A_Retrofit_R":"R","Generator_Type":" ","PreMitigation_Capacity_Spaces":0,"PreMitigation_Square_Footage":0,"EHPA_Capacity_Gained_Spaces":0,"EHPA_Square_Footage_Gained":0,"Retrofit_Capacity_Gained_Spaces":46,"Retrofit_Square_Footage_Gained":925,"Risk_Capacity_Spaces":46,"Risk_Square_Footage":925,"Planned_Usage_Spaces":0,"FundingSource_F_Federal_State_S":"HMGP","Evacuation_Zone":"D","SURGE_ZONE":"5","FLOOD_ZONE":"No","EHPA":"No","General_Pop":"Yes","SPECIAL_NEEDS":" ","Pet_Friendly":"Yes","Does_not_meet_ARC_4496":" ","Survey_Needed":" "}},{"type":"Feature","id":8,"geometry":{"type":"Point","coordinates":[-85.658706028942433,30.170614001328943]},"properties":{"OBJECTID":8,"Name":"Bay HS","Address":"1204 Harrison Ave","City":"Panama City","Zip":"32405","COUNTY":"BAY","X":-85.658706030000005,"Y":30.170614,"LONGLAT":"-85.65870603, 30.17061400","USNG":"16R FU 29148 38450","FACILITY_TYPE":"SHELTER","SHELTER_TYPE":"RISK","RPC_Region":"1","Year_Built":"2001","Building":"7 Cafeteria","AS_IS_A_Retrofit_R":"R","Generator_Type":" ","PreMitigation_Capacity_Spaces":0,"PreMitigation_Square_Footage":0,"EHPA_Capacity_Gained_Spaces":0,"EHPA_Square_Footage_Gained":0,"Retrofit_Capacity_Gained_Spaces":680,"Retrofit_Square_Footage_Gained":13609,"Risk_Capacity_Spaces":680,"Risk_Square_Footage":13609,"Planned_Usage_Spaces":967,"FundingSource_F_Federal_State_S":" ","Evacuation_Zone":"No","SURGE_ZONE":"No","FLOOD_ZONE":"No","EHPA":"No","General_Pop":"Yes","SPECIAL_NEEDS":" ","Pet_Friendly":"Yes","Does_not_meet_ARC_4496":" ","Survey_Needed":" "}},{"type":"Feature","id":9,"geometry":{"type":"Point","coordinates":[-85.645856990272989,30.146896986872694]},"properties":{"OBJECTID":9,"Name":"Merriam-Cherry St. ES","Address":"1125 Cherry St","City":"Panama City","Zip":"32401","COUNTY":"BAY","X":-85.645856989999999,"Y":30.146896989999998,"LONGLAT":"-85.64585699, 30.14689699","USNG":"16R FU 30417 35837","FACILITY_TYPE":"SHELTER","SHELTER_TYPE":"RISK","RPC_Region":"1","Year_Built":"1996","Building":"11 Multipurpose / Cafeteria","AS_IS_A_Retrofit_R":"A","Generator_Type":" ","PreMitigation_Capacity_Spaces":0,"PreMitigation_Square_Footage":0,"EHPA_Capacity_Gained_Spaces":253,"EHPA_Square_Footage_Gained":5054,"Retrofit_Capacity_Gained_Spaces":0,"Retrofit_Square_Footage_Gained":0,"Risk_Capacity_Spaces":253,"Risk_Square_Footage":5054,"Planned_Usage_Spaces":0,"FundingSource_F_Federal_State_S":"L","Evacuation_Zone":"C","SURGE_ZONE":"No","FLOOD_ZONE":"No","EHPA":"Yes","General_Pop":"Yes","SPECIAL_NEEDS":" ","Pet_Friendly":"Yes","Does_not_meet_ARC_4496":" ","Survey_Needed":"Yes"}},{"type":"Feature","id":10,"geometry":{"type":"Point","coordinates":[-85.57356000004512,30.312274999483602]},"properties":{"OBJECTID":10,"Name":"Waller ES","Address":"11332 Hwy 338","City":"Youngstown","Zip":"32466","COUNTY":"BAY","X":-85.573560000000001,"Y":30.312275,"LONGLAT":"-85.57356000, 30.31227500","USNG":"16R FU 37151 54250","FACILITY_TYPE":"SHELTER","SHELTER_TYPE":"RISK","RPC_Region":"1","Year_Built":"1996","Building":"3 Cafeteria","AS_IS_A_Retrofit_R":"R","Generator_Type":" ","PreMitigation_Capacity_Spaces":0,"PreMitigation_Square_Footage":0,"EHPA_Capacity_Gained_Spaces":0,"EHPA_Square_Footage_Gained":0,"Retrofit_Capacity_Gained_Spaces":82,"Retrofit_Square_Footage_Gained":1638,"Risk_Capacity_Spaces":82,"Risk_Square_Footage":1638,"Planned_Usage_Spaces":0,"FundingSource_F_Federal_State_S":"L","Evacuation_Zone":"No","SURGE_ZONE":"No","FLOOD_ZONE":"No","EHPA":"No","General_Pop":"Yes","SPECIAL_NEEDS":" ","Pet_Friendly":"Yes","Does_not_meet_ARC_4496":" ","Survey_Needed":" "}},{"type":"Feature","id":11,"geometry":{"type":"Point","coordinates":[-85.688954706322818,30.394178731450708]},"properties":{"OBJECTID":11,"Name":"Bozeman Learning Center","Address":"13410 SR 77","City":"Panama City","Zip":"32409","COUNTY":"BAY","X":-85.688954710000004,"Y":30.39417873,"LONGLAT":"-85.68895471, 30.39417873","USNG":"16R FU 25949 63194","FACILITY_TYPE":"SHELTER","SHELTER_TYPE":"RISK","RPC_Region":"1","Year_Built":"2000","Building":"1 Admin / Clinic","AS_IS_A_Retrofit_R":"R","Generator_Type":" ","PreMitigation_Capacity_Spaces":0,"PreMitigation_Square_Footage":0,"EHPA_Capacity_Gained_Spaces":0,"EHPA_Square_Footage_Gained":0,"Retrofit_Capacity_Gained_Spaces":267,"Retrofit_Square_Footage_Gained":5340,"Risk_Capacity_Spaces":267,"Risk_Square_Footage":5340,"Planned_Usage_Spaces":267,"FundingSource_F_Federal_State_S":" ","Evacuation_Zone":"No","SURGE_ZONE":"No","FLOOD_ZONE":"No","EHPA":"No","General_Pop":"Yes","SPECIAL_NEEDS":" ","Pet_Friendly":"Yes","Does_not_meet_ARC_4496":" ","Survey_Needed":" "}},{"type":"Feature","id":12,"geometry":{"type":"Point","coordinates":[-85.564113988270748,30.24187199713035]},"properties":{"OBJECTID":12,"Name":"Tommy Smith ES","Address":"5044 Tommy Smith Way","City":"Panama City","Zip":"32404","COUNTY":"BAY","X":-85.564113989999996,"Y":30.241872000000001,"LONGLAT":"-85.56411399, 30.24187200","USNG":"16R FU 38157 46459","FACILITY_TYPE":"SHELTER","SHELTER_TYPE":"RISK","RPC_Region":"1","Year_Built":"1991","Building":"1 Classroom","AS_IS_A_Retrofit_R":"R","Generator_Type":" ","PreMitigation_Capacity_Spaces":0,"PreMitigation_Square_Footage":0,"EHPA_Capacity_Gained_Spaces":0,"EHPA_Square_Footage_Gained":0,"Retrofit_Capacity_Gained_Spaces":235,"Retrofit_Square_Footage_Gained":4708,"Risk_Capacity_Spaces":235,"Risk_Square_Footage":4708,"Planned_Usage_Spaces":0,"FundingSource_F_Federal_State_S":"HMGP","Evacuation_Zone":"No","SURGE_ZONE":"No","FLOOD_ZONE":"No","EHPA":"No","General_Pop":"Yes","SPECIAL_NEEDS":" ","Pet_Friendly":"Yes","Does_not_meet_ARC_4496":" ","Survey_Needed":" "}},{"type":"Feature","id":13,"geometry":{"type":"Point","coordinates":[-85.691233009956562,30.170703016980216]},"properties":{"OBJECTID":13,"Name":"Oakland Terrace ES","Address":"2010 W 12th St","City":"Panama City","Zip":"32401","COUNTY":"BAY","X":-85.691233010000005,"Y":30.170703020000001,"LONGLAT":"-85.69123301, 30.17070302","USNG":"16R FU 26016 38424","FACILITY_TYPE":"SHELTER","SHELTER_TYPE":"RISK","RPC_Region":"1","Year_Built":"2000","Building":"13 Classroom","AS_IS_A_Retrofit_R":"R","Generator_Type":" ","PreMitigation_Capacity_Spaces":0,"PreMitigation_Square_Footage":0,"EHPA_Capacity_Gained_Spaces":0,"EHPA_Square_Footage_Gained":0,"Retrofit_Capacity_Gained_Spaces":224,"Retrofit_Square_Footage_Gained":3365,"Risk_Capacity_Spaces":168,"Risk_Square_Footage":3365,"Planned_Usage_Spaces":294,"FundingSource_F_Federal_State_S":"HMGP","Evacuation_Zone":"No","SURGE_ZONE":"No","FLOOD_ZONE":"No","EHPA":"No","General_Pop":"Yes","SPECIAL_NEEDS":" ","Pet_Friendly":"Yes","Does_not_meet_ARC_4496":" ","Survey_Needed":" "}},{"type":"Feature","id":14,"geometry":{"type":"Point","coordinates":[-85.600513995287528,30.135599020148646]},"properties":{"OBJECTID":14,"Name":"Parker ES","Address":"640 S Hwy 22A","City":"Panama City","Zip":"32404","COUNTY":"BAY","X":-85.600514000000004,"Y":30.135599020000001,"LONGLAT":"-85.60051400, 30.13559902","USNG":"16R FU 34800 34637","FACILITY_TYPE":"SHELTER","SHELTER_TYPE":"RISK","RPC_Region":"1","Year_Built":"2007","Building":"2 Multipurpose","AS_IS_A_Retrofit_R":"A","Generator_Type":" ","PreMitigation_Capacity_Spaces":0,"PreMitigation_Square_Footage":0,"EHPA_Capacity_Gained_Spaces":180,"EHPA_Square_Footage_Gained":3600,"Retrofit_Capacity_Gained_Spaces":0,"Retrofit_Square_Footage_Gained":0,"Risk_Capacity_Spaces":180,"Risk_Square_Footage":3600,"Planned_Usage_Spaces":0,"FundingSource_F_Federal_State_S":"L","Evacuation_Zone":"No","SURGE_ZONE":"No","FLOOD_ZONE":"No","EHPA":"Yes","General_Pop":"Yes","SPECIAL_NEEDS":" ","Pet_Friendly":"Yes","Does_not_meet_ARC_4496":" ","Survey_Needed":"Yes"}},{"type":"Feature","id":15,"geometry":{"type":"Point","coordinates":[-85.621161976078582,30.174270020010198]},"properties":{"OBJECTID":15,"Name":"Cedar Grove ES","Address":"2826 East 15th St","City":"Panama City","Zip":"32405","COUNTY":"BAY","X":-85.621161979999997,"Y":30.174270020000002,"LONGLAT":"-85.62116198, 30.17427002","USNG":"16R FU 32759 38899","FACILITY_TYPE":"SHELTER","SHELTER_TYPE":"RISK","RPC_Region":"1","Year_Built":"1999","Building":"12 Classroom","AS_IS_A_Retrofit_R":"R","Generator_Type":" ","PreMitigation_Capacity_Spaces":0,"PreMitigation_Square_Footage":0,"EHPA_Capacity_Gained_Spaces":0,"EHPA_Square_Footage_Gained":0,"Retrofit_Capacity_Gained_Spaces":306,"Retrofit_Square_Footage_Gained":4865,"Risk_Capacity_Spaces":243,"Risk_Square_Footage":4865,"Planned_Usage_Spaces":306,"FundingSource_F_Federal_State_S":"HMGP","Evacuation_Zone":"No","SURGE_ZONE":"No","FLOOD_ZONE":"No","EHPA":"No","General_Pop":"Yes","SPECIAL_NEEDS":" ","Pet_Friendly":"Yes","Does_not_meet_ARC_4496":" ","Survey_Needed":" "}},{"type":"Feature","id":16,"geometry":{"type":"Point","coordinates":[-85.707029041636687,30.183323983899644]},"properties":{"OBJECTID":16,"Name":"Moore ES","Address":"1900 Michigan Ave","City":"Panama City","Zip":"32405","COUNTY":"BAY","X":-85.707029039999995,"Y":30.183323980000001,"LONGLAT":"-85.70702904, 30.18332398","USNG":"16R FU 24479 39805","FACILITY_TYPE":"SHELTER","SHELTER_TYPE":"RISK","RPC_Region":"1","Year_Built":"1996","Building":"3 Cafeteria (11)","AS_IS_A_Retrofit_R":"R","Generator_Type":" ","PreMitigation_Capacity_Spaces":0,"PreMitigation_Square_Footage":0,"EHPA_Capacity_Gained_Spaces":0,"EHPA_Square_Footage_Gained":0,"Retrofit_Capacity_Gained_Spaces":483,"Retrofit_Square_Footage_Gained":9661,"Risk_Capacity_Spaces":483,"Risk_Square_Footage":9661,"Planned_Usage_Spaces":0,"FundingSource_F_Federal_State_S":"HMGP","Evacuation_Zone":"D","SURGE_ZONE":"5","FLOOD_ZONE":"No","EHPA":"No","General_Pop":"Yes","SPECIAL_NEEDS":" ","Pet_Friendly":"Yes","Does_not_meet_ARC_4496":" ","Survey_Needed":" "}},{"type":"Feature","id":17,"geometry":{"type":"Point","coordinates":[-85.688954706322818,30.394178731450708]},"properties":{"OBJECTID":17,"Name":"Bozeman Learning Center","Address":"13410 SR 77","City":"Panama City","Zip":"32409","COUNTY":"BAY","X":-85.688954710000004,"Y":30.39417873,"LONGLAT":"-85.68895471, 30.39417873","USNG":"16R FU 25949 63194","FACILITY_TYPE":"SHELTER","SHELTER_TYPE":"RISK","RPC_Region":"1","Year_Built":"2000","Building":"3 Classroom","AS_IS_A_Retrofit_R":"R","Generator_Type":" ","PreMitigation_Capacity_Spaces":0,"PreMitigation_Square_Footage":0,"EHPA_Capacity_Gained_Spaces":0,"EHPA_Square_Footage_Gained":0,"Retrofit_Capacity_Gained_Spaces":526,"Retrofit_Square_Footage_Gained":7894,"Risk_Capacity_Spaces":395,"Risk_Square_Footage":7894,"Planned_Usage_Spaces":641,"FundingSource_F_Federal_State_S":" ","Evacuation_Zone":"No","SURGE_ZONE":"No","FLOOD_ZONE":"No","EHPA":"No","General_Pop":"Yes","SPECIAL_NEEDS":" ","Pet_Friendly":"Yes","Does_not_meet_ARC_4496":" ","Survey_Needed":" "}},{"type":"Feature","id":18,"geometry":{"type":"Point","coordinates":[-85.564113988270748,30.24187199713035]},"properties":{"OBJECTID":18,"Name":"Tommy Smith ES","Address":"5044 Tommy Smith Way","City":"Panama City","Zip":"32404","COUNTY":"BAY","X":-85.564113989999996,"Y":30.241872000000001,"LONGLAT":"-85.56411399, 30.24187200","USNG":"16R FU 38157 46459","FACILITY_TYPE":"SHELTER","SHELTER_TYPE":"RISK","RPC_Region":"1","Year_Built":"1991","Building":"4 Classroom","AS_IS_A_Retrofit_R":"R","Generator_Type":" ","PreMitigation_Capacity_Spaces":0,"PreMitigation_Square_Footage":0,"EHPA_Capacity_Gained_Spaces":0,"EHPA_Square_Footage_Gained":0,"Retrofit_Capacity_Gained_Spaces":438,"Retrofit_Square_Footage_Gained":8764,"Risk_Capacity_Spaces":438,"Risk_Square_Footage":8764,"Planned_Usage_Spaces":0,"FundingSource_F_Federal_State_S":"HMGP","Evacuation_Zone":"No","SURGE_ZONE":"No","FLOOD_ZONE":"No","EHPA":"No","General_Pop":"Yes","SPECIAL_NEEDS":" ","Pet_Friendly":"Yes","Does_not_meet_ARC_4496":" ","Survey_Needed":" "}},{"type":"Feature","id":19,"geometry":{"type":"Point","coordinates":[-85.688954706322818,30.394178731450708]},"properties":{"OBJECTID":19,"Name":"Bozeman Learning Center","Address":"13410 SR 77","City":"Panama City","Zip":"32409","COUNTY":"BAY","X":-85.688954710000004,"Y":30.39417873,"LONGLAT":"-85.68895471, 30.39417873","USNG":"16R FU 25949 63194","FACILITY_TYPE":"SHELTER","SHELTER_TYPE":"RISK","RPC_Region":"1","Year_Built":"2000","Building":"9 Cafeteria","AS_IS_A_Retrofit_R":"A","Generator_Type":"HW 600KW","PreMitigation_Capacity_Spaces":0,"PreMitigation_Square_Footage":0,"EHPA_Capacity_Gained_Spaces":110,"EHPA_Square_Footage_Gained":8277,"Retrofit_Capacity_Gained_Spaces":0,"Retrofit_Square_Footage_Gained":0,"Risk_Capacity_Spaces":138,"Risk_Square_Footage":8277,"Planned_Usage_Spaces":108,"FundingSource_F_Federal_State_S":"EHPA","Evacuation_Zone":"No","SURGE_ZONE":"No","FLOOD_ZONE":"No","EHPA":"Yes","General_Pop":" ","SPECIAL_NEEDS":"Yes","Pet_Friendly":"Yes","Does_not_meet_ARC_4496":" ","Survey_Needed":" "}},{"type":"Feature","id":20,"geometry":{"type":"Point","coordinates":[-85.63851796412844,30.166553011445266]},"properties":{"OBJECTID":20,"Name":"Pattersen ES","Address":"1025 Redwood Ave","City":"Panama City","Zip":"32401","COUNTY":"BAY","X":-85.638517960000001,"Y":30.166553010000001,"LONGLAT":"-85.63851796, 30.16655301","USNG":"16R FU 31098 38023","FACILITY_TYPE":"SHELTER","SHELTER_TYPE":"RISK","RPC_Region":"1","Year_Built":"2000","Building":"16 Classroom","AS_IS_A_Retrofit_R":"R","Generator_Type":" ","PreMitigation_Capacity_Spaces":0,"PreMitigation_Square_Footage":0,"EHPA_Capacity_Gained_Spaces":0,"EHPA_Square_Footage_Gained":0,"Retrofit_Capacity_Gained_Spaces":265,"Retrofit_Square_Footage_Gained":5294,"Risk_Capacity_Spaces":265,"Risk_Square_Footage":5294,"Planned_Usage_Spaces":0,"FundingSource_F_Federal_State_S":"F-HB7121","Evacuation_Zone":"No","SURGE_ZONE":"No","FLOOD_ZONE":"No","EHPA":"No","General_Pop":"Yes","SPECIAL_NEEDS":" ","Pet_Friendly":"Yes","Does_not_meet_ARC_4496":" ","Survey_Needed":" "}},{"type":"Feature","id":21,"geometry":{"type":"Point","coordinates":[-85.688954706322818,30.394178731450708]},"properties":{"OBJECTID":21,"Name":"Bozeman Learning Center","Address":"13410 SR 77","City":"Panama City","Zip":"32409","COUNTY":"BAY","X":-85.688954710000004,"Y":30.39417873,"LONGLAT":"-85.68895471, 30.39417873","USNG":"16R FU 25949 63194","FACILITY_TYPE":"SHELTER","SHELTER_TYPE":"RISK","RPC_Region":"1","Year_Built":"2000","Building":"4 Classroom","AS_IS_A_Retrofit_R":"R","Generator_Type":" ","PreMitigation_Capacity_Spaces":0,"PreMitigation_Square_Footage":0,"EHPA_Capacity_Gained_Spaces":0,"EHPA_Square_Footage_Gained":0,"Retrofit_Capacity_Gained_Spaces":580,"Retrofit_Square_Footage_Gained":9401,"Risk_Capacity_Spaces":470,"Risk_Square_Footage":9401,"Planned_Usage_Spaces":580,"FundingSource_F_Federal_State_S":"HMGP","Evacuation_Zone":"No","SURGE_ZONE":"No","FLOOD_ZONE":"No","EHPA":"No","General_Pop":"Yes","SPECIAL_NEEDS":" ","Pet_Friendly":"Yes","Does_not_meet_ARC_4496":" ","Survey_Needed":" "}},{"type":"Feature","id":22,"geometry":{"type":"Point","coordinates":[-85.667979011933539,30.168730001173163]},"properties":{"OBJECTID":22,"Name":"Jinks MS","Address":"600 W 11th St","City":"Panama City","Zip":"32401","COUNTY":"BAY","X":-85.667979009999996,"Y":30.16873,"LONGLAT":"-85.66797901, 30.16873000","USNG":"16R FU 28258 38231","FACILITY_TYPE":"SHELTER","SHELTER_TYPE":"RISK","RPC_Region":"1","Year_Built":"2003","Building":"10 Cafeteria","AS_IS_A_Retrofit_R":"R","Generator_Type":" ","PreMitigation_Capacity_Spaces":0,"PreMitigation_Square_Footage":0,"EHPA_Capacity_Gained_Spaces":0,"EHPA_Square_Footage_Gained":0,"Retrofit_Capacity_Gained_Spaces":76,"Retrofit_Square_Footage_Gained":1836,"Risk_Capacity_Spaces":92,"Risk_Square_Footage":1836,"Planned_Usage_Spaces":76,"FundingSource_F_Federal_State_S":"HMGP","Evacuation_Zone":"No","SURGE_ZONE":"No","FLOOD_ZONE":"No","EHPA":"No","General_Pop":"Yes","SPECIAL_NEEDS":" ","Pet_Friendly":"Yes","Does_not_meet_ARC_4496":" ","Survey_Needed":" "}},{"type":"Feature","id":23,"geometry":{"type":"Point","coordinates":[-85.650792003344279,30.210480009087092]},"properties":{"OBJECTID":23,"Name":"Bay County Sheriff Office","Address":"3421 Highway 77","City":"Panama City","Zip":"32404","COUNTY":"BAY","X":-85.650791999999996,"Y":30.210480010000001,"LONGLAT":"-85.65079200, 30.21048001","USNG":"16R FU 29858 42878","FACILITY_TYPE":"SHELTER","SHELTER_TYPE":"RISK","RPC_Region":"1","Year_Built":"1994","Building":"1 Main","AS_IS_A_Retrofit_R":"R","Generator_Type":" ","PreMitigation_Capacity_Spaces":0,"PreMitigation_Square_Footage":0,"EHPA_Capacity_Gained_Spaces":0,"EHPA_Square_Footage_Gained":0,"Retrofit_Capacity_Gained_Spaces":494,"Retrofit_Square_Footage_Gained":9880,"Risk_Capacity_Spaces":494,"Risk_Square_Footage":9880,"Planned_Usage_Spaces":494,"FundingSource_F_Federal_State_S":"S FY 11-12 1515A","Evacuation_Zone":"No","SURGE_ZONE":"No","FLOOD_ZONE":"No","EHPA":"No","General_Pop":"Yes","SPECIAL_NEEDS":" ","Pet_Friendly":"Yes","Does_not_meet_ARC_4496":" ","Survey_Needed":" "}},{"type":"Feature","id":24,"geometry":{"type":"Point","coordinates":[-85.563175969678909,30.242199980910424]},"properties":{"OBJECTID":24,"Name":"Merritt Brown MS","Address":"5601 Merritt Brown Rd","City":"Panama City","Zip":"32404","COUNTY":"BAY","X":-85.563175970000003,"Y":30.242199979999999,"LONGLAT":"-85.56317597, 30.24219998","USNG":"16R FU 38247 46496","FACILITY_TYPE":"SHELTER","SHELTER_TYPE":"RISK","RPC_Region":"1","Year_Built":"1988","Building":"4 Classroom 1st Floor","AS_IS_A_Retrofit_R":"R","Generator_Type":" ","PreMitigation_Capacity_Spaces":0,"PreMitigation_Square_Footage":0,"EHPA_Capacity_Gained_Spaces":0,"EHPA_Square_Footage_Gained":0,"Retrofit_Capacity_Gained_Spaces":877,"Retrofit_Square_Footage_Gained":17538,"Risk_Capacity_Spaces":877,"Risk_Square_Footage":17538,"Planned_Usage_Spaces":0,"FundingSource_F_Federal_State_S":"HMGP","Evacuation_Zone":"No","SURGE_ZONE":"No","FLOOD_ZONE":"No","EHPA":"No","General_Pop":"Yes","SPECIAL_NEEDS":" ","Pet_Friendly":"Yes","Does_not_meet_ARC_4496":" ","Survey_Needed":" "}},{"type":"Feature","id":25,"geometry":{"type":"Point","coordinates":[-85.57356000004512,30.312274999483602]},"properties":{"OBJECTID":25,"Name":"Waller ES","Address":"11332 Hwy 338","City":"Youngstown","Zip":"32466","COUNTY":"BAY","X":-85.573560000000001,"Y":30.312275,"LONGLAT":"-85.57356000, 30.31227500","USNG":"16R FU 37151 54250","FACILITY_TYPE":"SHELTER","SHELTER_TYPE":"RISK","RPC_Region":"1","Year_Built":"1998","Building":"4 Classroom","AS_IS_A_Retrofit_R":"R","Generator_Type":" ","PreMitigation_Capacity_Spaces":0,"PreMitigation_Square_Footage":0,"EHPA_Capacity_Gained_Spaces":0,"EHPA_Square_Footage_Gained":0,"Retrofit_Capacity_Gained_Spaces":207,"Retrofit_Square_Footage_Gained":4141,"Risk_Capacity_Spaces":207,"Risk_Square_Footage":4141,"Planned_Usage_Spaces":0,"FundingSource_F_Federal_State_S":"L","Evacuation_Zone":"No","SURGE_ZONE":"No","FLOOD_ZONE":"No","EHPA":"No","General_Pop":"Yes","SPECIAL_NEEDS":" ","Pet_Friendly":"Yes","Does_not_meet_ARC_4496":" ","Survey_Needed":" "}},{"type":"Feature","id":26,"geometry":{"type":"Point","coordinates":[-85.655846040371571,30.228498000212731]},"properties":{"OBJECTID":26,"Name":"Mowat MS","Address":"1903 Hwy 390","City":"Lynn Haven","Zip":"33444","COUNTY":"BAY","X":-85.65584604,"Y":30.228497999999998,"LONGLAT":"-85.65584604, 30.22849800","USNG":"16R FU 29348 44869","FACILITY_TYPE":"SHELTER","SHELTER_TYPE":"RISK","RPC_Region":"1","Year_Built":"2000","Building":"11 Classroom","AS_IS_A_Retrofit_R":"R","Generator_Type":" ","PreMitigation_Capacity_Spaces":0,"PreMitigation_Square_Footage":0,"EHPA_Capacity_Gained_Spaces":0,"EHPA_Square_Footage_Gained":0,"Retrofit_Capacity_Gained_Spaces":139,"Retrofit_Square_Footage_Gained":2782,"Risk_Capacity_Spaces":139,"Risk_Square_Footage":2782,"Planned_Usage_Spaces":139,"FundingSource_F_Federal_State_S":"HMGP","Evacuation_Zone":"No","SURGE_ZONE":"No","FLOOD_ZONE":"No","EHPA":"No","General_Pop":"Yes","SPECIAL_NEEDS":" ","Pet_Friendly":"Yes","Does_not_meet_ARC_4496":" ","Survey_Needed":" "}},{"type":"Feature","id":27,"geometry":{"type":"Point","coordinates":[-85.615243010889998,30.166080984193133]},"properties":{"OBJECTID":27,"Name":"Rutherford HS","Address":"1000 School Ave","City":"Panama City","Zip":"32401","COUNTY":"BAY","X":-85.61524301,"Y":30.166080990000001,"LONGLAT":"-85.61524301, 30.16608099","USNG":"16R FU 33340 37998","FACILITY_TYPE":"SHELTER","SHELTER_TYPE":"RISK","RPC_Region":"1","Year_Built":"1995","Building":"2  Media / Classroom 1st Floor","AS_IS_A_Retrofit_R":"R","Generator_Type":" ","PreMitigation_Capacity_Spaces":0,"PreMitigation_Square_Footage":0,"EHPA_Capacity_Gained_Spaces":0,"EHPA_Square_Footage_Gained":0,"Retrofit_Capacity_Gained_Spaces":237,"Retrofit_Square_Footage_Gained":4740,"Risk_Capacity_Spaces":237,"Risk_Square_Footage":4740,"Planned_Usage_Spaces":237,"FundingSource_F_Federal_State_S":"HMGP","Evacuation_Zone":"No","SURGE_ZONE":"No","FLOOD_ZONE":"No","EHPA":"No","General_Pop":"Yes","SPECIAL_NEEDS":" ","Pet_Friendly":"Yes","Does_not_meet_ARC_4496":" ","Survey_Needed":" "}},{"type":"Feature","id":28,"geometry":{"type":"Point","coordinates":[-85.688954706322818,30.394178731450708]},"properties":{"OBJECTID":28,"Name":"Bozeman Learning Center","Address":"13410 SR 77","City":"Panama City","Zip":"32409","COUNTY":"BAY","X":-85.688954710000004,"Y":30.39417873,"LONGLAT":"-85.68895471, 30.39417873","USNG":"16R FU 25949 63194","FACILITY_TYPE":"SHELTER","SHELTER_TYPE":"RISK","RPC_Region":"1","Year_Built":"2000","Building":"6 Music","AS_IS_A_Retrofit_R":"R","Generator_Type":" ","PreMitigation_Capacity_Spaces":0,"PreMitigation_Square_Footage":0,"EHPA_Capacity_Gained_Spaces":0,"EHPA_Square_Footage_Gained":0,"Retrofit_Capacity_Gained_Spaces":319,"Retrofit_Square_Footage_Gained":4791,"Risk_Capacity_Spaces":240,"Risk_Square_Footage":4791,"Planned_Usage_Spaces":604,"FundingSource_F_Federal_State_S":"HMGP","Evacuation_Zone":"No","SURGE_ZONE":"No","FLOOD_ZONE":"No","EHPA":"No","General_Pop":"Yes","SPECIAL_NEEDS":" ","Pet_Friendly":"Yes","Does_not_meet_ARC_4496":" ","Survey_Needed":" "}},{"type":"Feature","id":29,"geometry":{"type":"Point","coordinates":[-85.688954706322818,30.394178731450708]},"properties":{"OBJECTID":29,"Name":"Bozeman Learning Center","Address":"13410 SR 77","City":"Panama City","Zip":"32409","COUNTY":"BAY","X":-85.688954710000004,"Y":30.39417873,"LONGLAT":"-85.68895471, 30.39417873","USNG":"16R FU 25949 63194","FACILITY_TYPE":"SHELTER","SHELTER_TYPE":"RISK","RPC_Region":"1","Year_Built":"2000","Building":"7 Classroom","AS_IS_A_Retrofit_R":"R","Generator_Type":" ","PreMitigation_Capacity_Spaces":0,"PreMitigation_Square_Footage":0,"EHPA_Capacity_Gained_Spaces":0,"EHPA_Square_Footage_Gained":0,"Retrofit_Capacity_Gained_Spaces":510,"Retrofit_Square_Footage_Gained":7647,"Risk_Capacity_Spaces":382,"Risk_Square_Footage":7647,"Planned_Usage_Spaces":826,"FundingSource_F_Federal_State_S":"L","Evacuation_Zone":"No","SURGE_ZONE":"No","FLOOD_ZONE":"No","EHPA":"No","General_Pop":"Yes","SPECIAL_NEEDS":" ","Pet_Friendly":"Yes","Does_not_meet_ARC_4496":" ","Survey_Needed":" "}},{"type":"Feature","id":30,"geometry":{"type":"Point","coordinates":[-85.440588959227142,30.366351012395988]},"properties":{"OBJECTID":30,"Name":"Waller ES","Address":"11332 Highway 388","City":"Fountain","Zip":"32466","COUNTY":"BAY","X":-85.440588959999999,"Y":30.366351009999999,"LONGLAT":"-85.44058896, 30.36635101","USNG":"16R FU 49855 60412","FACILITY_TYPE":"SHELTER","SHELTER_TYPE":"RISK","RPC_Region":"1","Year_Built":"2000","Building":"5 Classroom","AS_IS_A_Retrofit_R":"R","Generator_Type":" ","PreMitigation_Capacity_Spaces":0,"PreMitigation_Square_Footage":0,"EHPA_Capacity_Gained_Spaces":0,"EHPA_Square_Footage_Gained":0,"Retrofit_Capacity_Gained_Spaces":288,"Retrofit_Square_Footage_Gained":5757,"Risk_Capacity_Spaces":288,"Risk_Square_Footage":5757,"Planned_Usage_Spaces":0,"FundingSource_F_Federal_State_S":"F-HB7121","Evacuation_Zone":"No","SURGE_ZONE":"No","FLOOD_ZONE":"No","EHPA":"No","General_Pop":"Yes","SPECIAL_NEEDS":" ","Pet_Friendly":"Yes","Does_not_meet_ARC_4496":" ","Survey_Needed":" "}},{"type":"Feature","id":31,"geometry":{"type":"Point","coordinates":[-85.707029041636687,30.183323983899644]},"properties":{"OBJECTID":31,"Name":"Moore ES","Address":"1900 Michigan Ave","City":"Panama City","Zip":"32405","COUNTY":"BAY","X":-85.707029039999995,"Y":30.183323980000001,"LONGLAT":"-85.70702904, 30.18332398","USNG":"16R FU 24479 39805","FACILITY_TYPE":"SHELTER","SHELTER_TYPE":"RISK","RPC_Region":"1","Year_Built":"1996","Building":"2 Classroom (10)","AS_IS_A_Retrofit_R":"R","Generator_Type":" ","PreMitigation_Capacity_Spaces":0,"PreMitigation_Square_Footage":0,"EHPA_Capacity_Gained_Spaces":0,"EHPA_Square_Footage_Gained":0,"Retrofit_Capacity_Gained_Spaces":168,"Retrofit_Square_Footage_Gained":3357,"Risk_Capacity_Spaces":168,"Risk_Square_Footage":3357,"Planned_Usage_Spaces":0,"FundingSource_F_Federal_State_S":"HMGP","Evacuation_Zone":"D","SURGE_ZONE":"5","FLOOD_ZONE":"No","EHPA":"No","General_Pop":"Yes","SPECIAL_NEEDS":" ","Pet_Friendly":"Yes","Does_not_meet_ARC_4496":" ","Survey_Needed":" "}},{"type":"Feature","id":32,"geometry":{"type":"Point","coordinates":[-85.615243010889998,30.166080984193133]},"properties":{"OBJECTID":32,"Name":"Rutherford HS","Address":"1000 School Ave","City":"Springfield","Zip":"32401","COUNTY":"BAY","X":-85.61524301,"Y":30.166080990000001,"LONGLAT":"-85.61524301, 30.16608099","USNG":"16R FU 33340 37998","FACILITY_TYPE":"SHELTER","SHELTER_TYPE":"RISK","RPC_Region":"1","Year_Built":"1986","Building":"13 Cafeteria","AS_IS_A_Retrofit_R":"R","Generator_Type":" ","PreMitigation_Capacity_Spaces":0,"PreMitigation_Square_Footage":0,"EHPA_Capacity_Gained_Spaces":0,"EHPA_Square_Footage_Gained":0,"Retrofit_Capacity_Gained_Spaces":552,"Retrofit_Square_Footage_Gained":11031,"Risk_Capacity_Spaces":552,"Risk_Square_Footage":11031,"Planned_Usage_Spaces":0,"FundingSource_F_Federal_State_S":"F-HB7121","Evacuation_Zone":"No","SURGE_ZONE":"No","FLOOD_ZONE":"No","EHPA":"No","General_Pop":"Yes","SPECIAL_NEEDS":" ","Pet_Friendly":"Yes","Does_not_meet_ARC_4496":" ","Survey_Needed":" "}},{"type":"Feature","id":33,"geometry":{"type":"Point","coordinates":[-85.688954706322818,30.394178731450708]},"properties":{"OBJECTID":33,"Name":"Bozeman Learning Center","Address":"13410 SR 77","City":"Panama City","Zip":"32409","COUNTY":"BAY","X":-85.688954710000004,"Y":30.39417873,"LONGLAT":"-85.68895471, 30.39417873","USNG":"16R FU 25949 63194","FACILITY_TYPE":"SHELTER","SHELTER_TYPE":"RISK","RPC_Region":"1","Year_Built":"2000","Building":"2 Classroom","AS_IS_A_Retrofit_R":"R","Generator_Type":" ","PreMitigation_Capacity_Spaces":0,"PreMitigation_Square_Footage":0,"EHPA_Capacity_Gained_Spaces":0,"EHPA_Square_Footage_Gained":0,"Retrofit_Capacity_Gained_Spaces":436,"Retrofit_Square_Footage_Gained":6541,"Risk_Capacity_Spaces":327,"Risk_Square_Footage":6541,"Planned_Usage_Spaces":587,"FundingSource_F_Federal_State_S":"HMGP","Evacuation_Zone":"No","SURGE_ZONE":"No","FLOOD_ZONE":"No","EHPA":"No","General_Pop":"Yes","SPECIAL_NEEDS":" ","Pet_Friendly":"Yes","Does_not_meet_ARC_4496":" ","Survey_Needed":" "}},{"type":"Feature","id":34,"geometry":{"type":"Point","coordinates":[-85.688954706322818,30.394178731450708]},"properties":{"OBJECTID":34,"Name":"Bozeman Learning Center","Address":"13410 SR 77","City":"Panama City","Zip":"32409","COUNTY":"BAY","X":-85.688954710000004,"Y":30.39417873,"LONGLAT":"-85.68895471, 30.39417873","USNG":"16R FU 25949 63194","FACILITY_TYPE":"SHELTER","SHELTER_TYPE":"RISK","RPC_Region":"1","Year_Built":"2000","Building":"8 Gym","AS_IS_A_Retrofit_R":"A","Generator_Type":"HW 600KW","PreMitigation_Capacity_Spaces":0,"PreMitigation_Square_Footage":0,"EHPA_Capacity_Gained_Spaces":191,"EHPA_Square_Footage_Gained":11466,"Retrofit_Capacity_Gained_Spaces":0,"Retrofit_Square_Footage_Gained":0,"Risk_Capacity_Spaces":191,"Risk_Square_Footage":11466,"Planned_Usage_Spaces":0,"FundingSource_F_Federal_State_S":"HMGP / EHPA","Evacuation_Zone":"No","SURGE_ZONE":"No","FLOOD_ZONE":"No","EHPA":"Yes","General_Pop":" ","SPECIAL_NEEDS":"Yes","Pet_Friendly":"Yes","Does_not_meet_ARC_4496":" ","Survey_Needed":" "}},{"type":"Feature","id":35,"geometry":{"type":"Point","coordinates":[-85.707029041636687,30.183323983899644]},"properties":{"OBJECTID":35,"Name":"Moore ES","Address":"1900 Michigan Ave","City":"Panama City","Zip":"32405","COUNTY":"BAY","X":-85.707029039999995,"Y":30.183323980000001,"LONGLAT":"-85.70702904, 30.18332398","USNG":"16R FU 24479 39805","FACILITY_TYPE":"SHELTER","SHELTER_TYPE":"RISK","RPC_Region":"1","Year_Built":"1996","Building":"4 Classroom (12)","AS_IS_A_Retrofit_R":"R","Generator_Type":" ","PreMitigation_Capacity_Spaces":0,"PreMitigation_Square_Footage":0,"EHPA_Capacity_Gained_Spaces":0,"EHPA_Square_Footage_Gained":0,"Retrofit_Capacity_Gained_Spaces":393,"Retrofit_Square_Footage_Gained":7862,"Risk_Capacity_Spaces":393,"Risk_Square_Footage":7862,"Planned_Usage_Spaces":0,"FundingSource_F_Federal_State_S":"HMGP","Evacuation_Zone":"D","SURGE_ZONE":"5","FLOOD_ZONE":"No","EHPA":"No","General_Pop":"Yes","SPECIAL_NEEDS":" ","Pet_Friendly":"Yes","Does_not_meet_ARC_4496":" ","Survey_Needed":" "}},{"type":"Feature","id":36,"geometry":{"type":"Point","coordinates":[-85.621161976078582,30.174270020010198]},"properties":{"OBJECTID":36,"Name":"Cedar Grove ES","Address":"2826 East 15th St","City":"Panama City","Zip":"32405","COUNTY":"BAY","X":-85.621161979999997,"Y":30.174270020000002,"LONGLAT":"-85.62116198, 30.17427002","USNG":"16R FU 32759 38899","FACILITY_TYPE":"SHELTER","SHELTER_TYPE":"RISK","RPC_Region":"1","Year_Built":"1999","Building":"13 Music","AS_IS_A_Retrofit_R":"R","Generator_Type":" ","PreMitigation_Capacity_Spaces":0,"PreMitigation_Square_Footage":0,"EHPA_Capacity_Gained_Spaces":0,"EHPA_Square_Footage_Gained":0,"Retrofit_Capacity_Gained_Spaces":142,"Retrofit_Square_Footage_Gained":2137,"Risk_Capacity_Spaces":107,"Risk_Square_Footage":2137,"Planned_Usage_Spaces":206,"FundingSource_F_Federal_State_S":"HMGP","Evacuation_Zone":"No","SURGE_ZONE":"No","FLOOD_ZONE":"No","EHPA":"No","General_Pop":"Yes","SPECIAL_NEEDS":" ","Pet_Friendly":"Yes","Does_not_meet_ARC_4496":" ","Survey_Needed":" "}},{"type":"Feature","id":37,"geometry":{"type":"Point","coordinates":[-85.691233009956562,30.170703016980216]},"properties":{"OBJECTID":37,"Name":"Oakland Terrace ES","Address":"2010 W 12th St","City":"Panama City","Zip":"32401","COUNTY":"BAY","X":-85.691233010000005,"Y":30.170703020000001,"LONGLAT":"-85.69123301, 30.17070302","USNG":"16R FU 26016 38424","FACILITY_TYPE":"SHELTER","SHELTER_TYPE":"RISK","RPC_Region":"1","Year_Built":"1986","Building":"14 Classroom","AS_IS_A_Retrofit_R":"R","Generator_Type":" ","PreMitigation_Capacity_Spaces":0,"PreMitigation_Square_Footage":0,"EHPA_Capacity_Gained_Spaces":0,"EHPA_Square_Footage_Gained":0,"Retrofit_Capacity_Gained_Spaces":258,"Retrofit_Square_Footage_Gained":4159,"Risk_Capacity_Spaces":208,"Risk_Square_Footage":4159,"Planned_Usage_Spaces":258,"FundingSource_F_Federal_State_S":"HMGP","Evacuation_Zone":"No","SURGE_ZONE":"No","FLOOD_ZONE":"No","EHPA":"No","General_Pop":"Yes","SPECIAL_NEEDS":" ","Pet_Friendly":"Yes","Does_not_meet_ARC_4496":" ","Survey_Needed":" "}},{"type":"Feature","id":38,"geometry":{"type":"Point","coordinates":[-80.731034496794805,27.999019840977311]},"properties":{"OBJECTID":38,"Name":"Palm Bay Community Center","Address":"1951 NW Malabar Rd","City":"Palm Bay","Zip":"32907","COUNTY":"BREVARD","X":-80.731034500000007,"Y":27.999019839999999,"LONGLAT":"-80.73103450, 27.99901984","USNG":"17R NL 26445 97122","FACILITY_TYPE":"SHELTER","SHELTER_TYPE":"RISK","RPC_Region":"5","Year_Built":"2005","Building":"Main","AS_IS_A_Retrofit_R":"A","Generator_Type":"400 KW","PreMitigation_Capacity_Spaces":484,"PreMitigation_Square_Footage":9675,"EHPA_Capacity_Gained_Spaces":0,"EHPA_Square_Footage_Gained":0,"Retrofit_Capacity_Gained_Spaces":0,"Retrofit_Square_Footage_Gained":0,"Risk_Capacity_Spaces":484,"Risk_Square_Footage":9675,"Planned_Usage_Spaces":484,"FundingSource_F_Federal_State_S":" ","Evacuation_Zone":"No","SURGE_ZONE":"No","FLOOD_ZONE":"No","EHPA":"No","General_Pop":"Yes","SPECIAL_NEEDS":" ","Pet_Friendly":"Yes","Does_not_meet_ARC_4496":" ","Survey_Needed":" "}},{"type":"Feature","id":39,"geometry":{"type":"Point","coordinates":[-80.72831497100843,28.247943415085828]},"properties":{"OBJECTID":39,"Name":"Viera Regional Community Center","Address":"2300 Judge Fran Jamieson Way","City":"Viera","Zip":"32940","COUNTY":"BREVARD","X":-80.72831497,"Y":28.247943419999999,"LONGLAT":"-80.72831497, 28.24794342","USNG":"17R NM 26651 24698","FACILITY_TYPE":"SHELTER","SHELTER_TYPE":"RISK","RPC_Region":"5","Year_Built":"2005","Building":"Main","AS_IS_A_Retrofit_R":"A","Generator_Type":"350 KW","PreMitigation_Capacity_Spaces":484,"PreMitigation_Square_Footage":9675,"EHPA_Capacity_Gained_Spaces":0,"EHPA_Square_Footage_Gained":0,"Retrofit_Capacity_Gained_Spaces":0,"Retrofit_Square_Footage_Gained":0,"Risk_Capacity_Spaces":484,"Risk_Square_Footage":9675,"Planned_Usage_Spaces":484,"FundingSource_F_Federal_State_S":" ","Evacuation_Zone":"No","SURGE_ZONE":"No","FLOOD_ZONE":"No","EHPA":"No","General_Pop":"Yes","SPECIAL_NEEDS":" ","Pet_Friendly":"Yes","Does_not_meet_ARC_4496":" ","Survey_Needed":" "}},{"type":"Feature","id":40,"geometry":{"type":"Point","coordinates":[-80.80573898822152,28.474653995266522]},"properties":{"OBJECTID":40,"Name":"Port St. John Community Center","Address":"6650 Corto Rd","City":"Port St. John","Zip":"32927","COUNTY":"BREVARD","X":-80.805738989999995,"Y":28.474654000000001,"LONGLAT":"-80.80573899, 28.47465400","USNG":"17R NM 19015 49799","FACILITY_TYPE":"SHELTER","SHELTER_TYPE":"RISK","RPC_Region":"5","Year_Built":"1999","Building":"Main","AS_IS_A_Retrofit_R":"R","Generator_Type":"70 KW","PreMitigation_Capacity_Spaces":0,"PreMitigation_Square_Footage":0,"EHPA_Capacity_Gained_Spaces":0,"EHPA_Square_Footage_Gained":0,"Retrofit_Capacity_Gained_Spaces":248,"Retrofit_Square_Footage_Gained":4962,"Risk_Capacity_Spaces":248,"Risk_Square_Footage":4962,"Planned_Usage_Spaces":260,"FundingSource_F_Federal_State_S":"HMGP","Evacuation_Zone":"No","SURGE_ZONE":"No","FLOOD_ZONE":"No","EHPA":"No","General_Pop":"Yes","SPECIAL_NEEDS":" ","Pet_Friendly":"Yes","Does_not_meet_ARC_4496":" ","Survey_Needed":" "}},{"type":"Feature","id":41,"geometry":{"type":"Point","coordinates":[-80.373361442681599,25.971138263251518]},"properties":{"OBJECTID":41,"Name":"Everglades HS","Address":"17100 SW 48th Ct","City":"Miramar","Zip":"33027","COUNTY":"BROWARD","X":-80.373361439999996,"Y":25.97113826,"LONGLAT":"-80.37336144, 25.97113826","USNG":"17R NJ 62728 72637","FACILITY_TYPE":"SHELTER","SHELTER_TYPE":"RISK","RPC_Region":"10","Year_Built":"2002","Building":"2 Cafeteria / Gym / Auditorium","AS_IS_A_Retrofit_R":"A","Generator_Type":" ","PreMitigation_Capacity_Spaces":0,"PreMitigation_Square_Footage":0,"EHPA_Capacity_Gained_Spaces":2272,"EHPA_Square_Footage_Gained":45434,"Retrofit_Capacity_Gained_Spaces":0,"Retrofit_Square_Footage_Gained":0,"Risk_Capacity_Spaces":2272,"Risk_Square_Footage":45434,"Planned_Usage_Spaces":1122,"FundingSource_F_Federal_State_S":"L","Evacuation_Zone":"No","SURGE_ZONE":"No","FLOOD_ZONE":"0.20%","EHPA":"Yes","General_Pop":" ","SPECIAL_NEEDS":" ","Pet_Friendly":"Yes","Does_not_meet_ARC_4496":" ","Survey_Needed":"Yes"}},{"type":"Feature","id":42,"geometry":{"type":"Point","coordinates":[-80.393797244055278,26.066475497008689]},"properties":{"OBJECTID":42,"Name":"Falcon Cove MS","Address":"4251 Bonaventure Blvd","City":"Weston","Zip":"33332","COUNTY":"BROWARD","X":-80.393797239999998,"Y":26.066475499999999,"LONGLAT":"-80.39379724, 26.06647550","USNG":"17R NJ 60633 83186","FACILITY_TYPE":"SHELTER","SHELTER_TYPE":"RISK","RPC_Region":"10","Year_Built":"1999","Building":"2 Cafeteria / Gym / Music","AS_IS_A_Retrofit_R":"A","Generator_Type":" ","PreMitigation_Capacity_Spaces":0,"PreMitigation_Square_Footage":0,"EHPA_Capacity_Gained_Spaces":1225,"EHPA_Square_Footage_Gained":24508,"Retrofit_Capacity_Gained_Spaces":0,"Retrofit_Square_Footage_Gained":0,"Risk_Capacity_Spaces":1225,"Risk_Square_Footage":24508,"Planned_Usage_Spaces":998,"FundingSource_F_Federal_State_S":"L","Evacuation_Zone":"No","SURGE_ZONE":"No","FLOOD_ZONE":"0.20%","EHPA":"Yes","General_Pop":" ","SPECIAL_NEEDS":" ","Pet_Friendly":"Yes","Does_not_meet_ARC_4496":" ","Survey_Needed":"Yes"}},{"type":"Feature","id":43,"geometry":{"type":"Point","coordinates":[-80.181863157650952,26.309731679214739]},"properties":{"OBJECTID":43,"Name":"Lyons Creek MS","Address":"4333 Sol Press Blvd","City":"Coconut Creek","Zip":"33073","COUNTY":"BROWARD","X":-80.181863160000006,"Y":26.309731679999999,"LONGLAT":"-80.18186316, 26.30973168","USNG":"17R NK 81663 10243","FACILITY_TYPE":"SHELTER","SHELTER_TYPE":"RISK","RPC_Region":"10","Year_Built":"1999","Building":"3 Cafeteria / Gym / Music","AS_IS_A_Retrofit_R":"A","Generator_Type":" ","PreMitigation_Capacity_Spaces":0,"PreMitigation_Square_Footage":0,"EHPA_Capacity_Gained_Spaces":2698,"EHPA_Square_Footage_Gained":53951,"Retrofit_Capacity_Gained_Spaces":0,"Retrofit_Square_Footage_Gained":0,"Risk_Capacity_Spaces":2698,"Risk_Square_Footage":53951,"Planned_Usage_Spaces":998,"FundingSource_F_Federal_State_S":"L","Evacuation_Zone":"No","SURGE_ZONE":"No","FLOOD_ZONE":"0.20%","EHPA":"Yes","General_Pop":" ","SPECIAL_NEEDS":" ","Pet_Friendly":"Yes","Does_not_meet_ARC_4496":" ","Survey_Needed":"Yes"}},{"type":"Feature","id":44,"geometry":{"type":"Point","coordinates":[-80.390106172350954,26.084487200190587]},"properties":{"OBJECTID":44,"Name":"Everglades ES","Address":"2900 Bonaventure Blvd","City":"Weston","Zip":"33331","COUNTY":"BROWARD","X":-80.390106169999996,"Y":26.084487200000002,"LONGLAT":"-80.39010617, 26.08448720","USNG":"17R NJ 60993 85183","FACILITY_TYPE":"SHELTER","SHELTER_TYPE":"RISK","RPC_Region":"10","Year_Built":"1998","Building":"1 Main","AS_IS_A_Retrofit_R":"A","Generator_Type":" ","PreMitigation_Capacity_Spaces":0,"PreMitigation_Square_Footage":0,"EHPA_Capacity_Gained_Spaces":2287,"EHPA_Square_Footage_Gained":45745,"Retrofit_Capacity_Gained_Spaces":0,"Retrofit_Square_Footage_Gained":0,"Risk_Capacity_Spaces":2287,"Risk_Square_Footage":45745,"Planned_Usage_Spaces":1214,"FundingSource_F_Federal_State_S":"L","Evacuation_Zone":"No","SURGE_ZONE":"No","FLOOD_ZONE":"0.20%","EHPA":"Yes","General_Pop":"Yes","SPECIAL_NEEDS":" ","Pet_Friendly":"Yes","Does_not_meet_ARC_4496":" ","Survey_Needed":"Yes"}},{"type":"Feature","id":45,"geometry":{"type":"Point","coordinates":[-80.276208104010593,26.196076726389791]},"properties":{"OBJECTID":45,"Name":"Millennium MS","Address":"5803 NW 94th Ave","City":"Tamarac","Zip":"33321","COUNTY":"BROWARD","X":-80.276208100000005,"Y":26.196076730000001,"LONGLAT":"-80.27620810, 26.19607673","USNG":"17R NJ 72315 97600","FACILITY_TYPE":"SHELTER","SHELTER_TYPE":"RISK","RPC_Region":"10","Year_Built":"2001","Building":"3 Cafeteria / Music","AS_IS_A_Retrofit_R":"A","Generator_Type":" ","PreMitigation_Capacity_Spaces":500,"PreMitigation_Square_Footage":10000,"EHPA_Capacity_Gained_Spaces":325,"EHPA_Square_Footage_Gained":6492,"Retrofit_Capacity_Gained_Spaces":0,"Retrofit_Square_Footage_Gained":0,"Risk_Capacity_Spaces":825,"Risk_Square_Footage":16492,"Planned_Usage_Spaces":325,"FundingSource_F_Federal_State_S":"L","Evacuation_Zone":"No","SURGE_ZONE":"No","FLOOD_ZONE":"No","EHPA":"Yes","General_Pop":"Yes","SPECIAL_NEEDS":" ","Pet_Friendly":"Yes","Does_not_meet_ARC_4496":" ","Survey_Needed":"Yes"}},{"type":"Feature","id":46,"geometry":{"type":"Point","coordinates":[-80.27596385328529,26.195658553065833]},"properties":{"OBJECTID":46,"Name":"Challenger ES","Address":"5700 NW 94 Ave","City":"Tamarac","Zip":"33321","COUNTY":"BROWARD","X":-80.275963849999997,"Y":26.195658550000001,"LONGLAT":"-80.27596385, 26.19565855","USNG":"17R NJ 72340 97553","FACILITY_TYPE":"SHELTER","SHELTER_TYPE":"RISK","RPC_Region":"10","Year_Built":"2000","Building":"1 Main","AS_IS_A_Retrofit_R":"A","Generator_Type":" ","PreMitigation_Capacity_Spaces":0,"PreMitigation_Square_Footage":0,"EHPA_Capacity_Gained_Spaces":2410,"EHPA_Square_Footage_Gained":48207,"Retrofit_Capacity_Gained_Spaces":0,"Retrofit_Square_Footage_Gained":0,"Risk_Capacity_Spaces":2410,"Risk_Square_Footage":48207,"Planned_Usage_Spaces":395,"FundingSource_F_Federal_State_S":"L","Evacuation_Zone":"No","SURGE_ZONE":"No","FLOOD_ZONE":"No","EHPA":"Yes","General_Pop":"Yes","SPECIAL_NEEDS":" ","Pet_Friendly":"Yes","Does_not_meet_ARC_4496":" ","Survey_Needed":"Yes"}},{"type":"Feature","id":47,"geometry":{"type":"Point","coordinates":[-82.041967027947479,29.779079001467966]},"properties":{"OBJECTID":47,"Name":"Keystone Heights HS","Address":"900 SW Orchid Ave","City":"Keystone Heights","Zip":"32656","COUNTY":"CLAY","X":-82.041967029999995,"Y":29.779078999999999,"LONGLAT":"-82.04196703, 29.77907900","USNG":"17R LN 99280 94760","FACILITY_TYPE":"SHELTER","SHELTER_TYPE":"RISK","RPC_Region":"4","Year_Built":"1995","Building":"9 Gym","AS_IS_A_Retrofit_R":"R","Generator_Type":"Yes, unknown kW","PreMitigation_Capacity_Spaces":0,"PreMitigation_Square_Footage":0,"EHPA_Capacity_Gained_Spaces":0,"EHPA_Square_Footage_Gained":0,"Retrofit_Capacity_Gained_Spaces":848,"Retrofit_Square_Footage_Gained":16960,"Risk_Capacity_Spaces":848,"Risk_Square_Footage":16960,"Planned_Usage_Spaces":859,"FundingSource_F_Federal_State_S":"1588-2006","Evacuation_Zone":"No","SURGE_ZONE":"No","FLOOD_ZONE":"No","EHPA":"No","General_Pop":"Yes","SPECIAL_NEEDS":" ","Pet_Friendly":"Yes","Does_not_meet_ARC_4496":" ","Survey_Needed":" "}},{"type":"Feature","id":48,"geometry":{"type":"Point","coordinates":[-81.487247981871093,30.323351011169091]},"properties":{"OBJECTID":48,"Name":"Landmark MS","Address":"101 Kernan Blvd N","City":"Jacksonville","Zip":"32225","COUNTY":"DUVAL","X":-81.487247980000006,"Y":30.32335101,"LONGLAT":"-81.48724798, 30.32335101","USNG":"17R MP 53158 54716","FACILITY_TYPE":"SHELTER","SHELTER_TYPE":"RISK","RPC_Region":"4","Year_Built":"1989","Building":"1F Classroom","AS_IS_A_Retrofit_R":"A","Generator_Type":"100 kW for campus","PreMitigation_Capacity_Spaces":0,"PreMitigation_Square_Footage":0,"EHPA_Capacity_Gained_Spaces":0,"EHPA_Square_Footage_Gained":0,"Retrofit_Capacity_Gained_Spaces":0,"Retrofit_Square_Footage_Gained":0,"Risk_Capacity_Spaces":920,"Risk_Square_Footage":18399,"Planned_Usage_Spaces":903,"FundingSource_F_Federal_State_S":"S, F HMGP1300-104","Evacuation_Zone":"No","SURGE_ZONE":"No","FLOOD_ZONE":"No","EHPA":"No","General_Pop":"Yes","SPECIAL_NEEDS":" ","Pet_Friendly":"Yes","Does_not_meet_ARC_4496":" ","Survey_Needed":" "}},{"type":"Feature","id":49,"geometry":{"type":"Point","coordinates":[-81.506345980773588,30.202800006994302]},"properties":{"OBJECTID":49,"Name":"Atlantic Coast HS","Address":"9735 R G Skinner Pkwy","City":"Jacksonville","Zip":"32256","COUNTY":"DUVAL","X":-81.506345980000006,"Y":30.202800010000001,"LONGLAT":"-81.50634598, 30.20280001","USNG":"17R MP 51263 41365","FACILITY_TYPE":"SHELTER","SHELTER_TYPE":"RISK","RPC_Region":"4","Year_Built":"2010","Building":"3 Classroom","AS_IS_A_Retrofit_R":"A","Generator_Type":" ","PreMitigation_Capacity_Spaces":0,"PreMitigation_Square_Footage":0,"EHPA_Capacity_Gained_Spaces":0,"EHPA_Square_Footage_Gained":0,"Retrofit_Capacity_Gained_Spaces":0,"Retrofit_Square_Footage_Gained":0,"Risk_Capacity_Spaces":1086,"Risk_Square_Footage":21725,"Planned_Usage_Spaces":0,"FundingSource_F_Federal_State_S":" ","Evacuation_Zone":"No","SURGE_ZONE":"No","FLOOD_ZONE":"No","EHPA":"No","General_Pop":"Yes","SPECIAL_NEEDS":" ","Pet_Friendly":"Yes","Does_not_meet_ARC_4496":" ","Survey_Needed":" "}},{"type":"Feature","id":50,"geometry":{"type":"Point","coordinates":[-81.727217008070426,30.393925001229299]},"properties":{"OBJECTID":50,"Name":"The Legends Center of Jacksonville","Address":"5130 Soutel Dr","City":"Jacksonville","Zip":"32208","COUNTY":"DUVAL","X":-81.727217010000004,"Y":30.393924999999999,"LONGLAT":"-81.72721701, 30.39392500","USNG":"17R MP 30139 62661","FACILITY_TYPE":"SHELTER","SHELTER_TYPE":"RISK","RPC_Region":"4","Year_Built":"2010","Building":"1A Gym","AS_IS_A_Retrofit_R":"A","Generator_Type":"475 kW","PreMitigation_Capacity_Spaces":0,"PreMitigation_Square_Footage":0,"EHPA_Capacity_Gained_Spaces":406,"EHPA_Square_Footage_Gained":8120,"Retrofit_Capacity_Gained_Spaces":0,"Retrofit_Square_Footage_Gained":0,"Risk_Capacity_Spaces":406,"Risk_Square_Footage":8120,"Planned_Usage_Spaces":478,"FundingSource_F_Federal_State_S":"L, S, F HB7121","Evacuation_Zone":"C","SURGE_ZONE":"No","FLOOD_ZONE":"No","EHPA":"Yes","General_Pop":"Yes","SPECIAL_NEEDS":" ","Pet_Friendly":"Yes","Does_not_meet_ARC_4496":" ","Survey_Needed":" "}},{"type":"Feature","id":51,"geometry":{"type":"Point","coordinates":[-81.587470984754532,30.18900599194852]},"properties":{"OBJECTID":51,"Name":"Mandarin MS","Address":"5100 Hood Rd","City":"Jacksonville","Zip":"32257","COUNTY":"DUVAL","X":-81.587470980000006,"Y":30.189005989999998,"LONGLAT":"-81.58747098, 30.18900599","USNG":"17R MP 43446 39874","FACILITY_TYPE":"SHELTER","SHELTER_TYPE":"RISK","RPC_Region":"4","Year_Built":"1989","Building":"1A Classroom / Gym","AS_IS_A_Retrofit_R":"R","Generator_Type":"100 kW for campus","PreMitigation_Capacity_Spaces":0,"PreMitigation_Square_Footage":0,"EHPA_Capacity_Gained_Spaces":0,"EHPA_Square_Footage_Gained":0,"Retrofit_Capacity_Gained_Spaces":558,"Retrofit_Square_Footage_Gained":11154,"Risk_Capacity_Spaces":558,"Risk_Square_Footage":11154,"Planned_Usage_Spaces":1764,"FundingSource_F_Federal_State_S":"L, F HB7121","Evacuation_Zone":"No","SURGE_ZONE":"No","FLOOD_ZONE":"No","EHPA":"No","General_Pop":"Yes","SPECIAL_NEEDS":" ","Pet_Friendly":"Yes","Does_not_meet_ARC_4496":" ","Survey_Needed":" "}},{"type":"Feature","id":52,"geometry":{"type":"Point","coordinates":[-81.487247981871093,30.323351011169091]},"properties":{"OBJECTID":52,"Name":"Landmark MS","Address":"101 Kernan Blvd N","City":"Jacksonville","Zip":"32225","COUNTY":"DUVAL","X":-81.487247980000006,"Y":30.32335101,"LONGLAT":"-81.48724798, 30.32335101","USNG":"17R MP 53158 54716","FACILITY_TYPE":"SHELTER","SHELTER_TYPE":"RISK","RPC_Region":"4","Year_Built":"1989","Building":"1A Classroom / Gym","AS_IS_A_Retrofit_R":"R","Generator_Type":"100 kW for campus","PreMitigation_Capacity_Spaces":0,"PreMitigation_Square_Footage":0,"EHPA_Capacity_Gained_Spaces":0,"EHPA_Square_Footage_Gained":0,"Retrofit_Capacity_Gained_Spaces":0,"Retrofit_Square_Footage_Gained":0,"Risk_Capacity_Spaces":558,"Risk_Square_Footage":11154,"Planned_Usage_Spaces":558,"FundingSource_F_Federal_State_S":"S, F HMGP 1561-235","Evacuation_Zone":"No","SURGE_ZONE":"No","FLOOD_ZONE":"No","EHPA":"No","General_Pop":"Yes","SPECIAL_NEEDS":" ","Pet_Friendly":"Yes","Does_not_meet_ARC_4496":" ","Survey_Needed":" "}},{"type":"Feature","id":53,"geometry":{"type":"Point","coordinates":[-87.362429018627566,30.740428981160022]},"properties":{"OBJECTID":53,"Name":"Molino Park ES","Address":"899 Hwy 97","City":"Molino","Zip":"32577","COUNTY":"ESCAMBIA","X":-87.362429019999993,"Y":30.740428980000001,"LONGLAT":"-87.36242902, 30.74042898","USNG":"16R DV 65306 00891","FACILITY_TYPE":"SHELTER","SHELTER_TYPE":"RISK","RPC_Region":"1","Year_Built":"2002","Building":"4 Classroom","AS_IS_A_Retrofit_R":"R","Generator_Type":" ","PreMitigation_Capacity_Spaces":0,"PreMitigation_Square_Footage":0,"EHPA_Capacity_Gained_Spaces":0,"EHPA_Square_Footage_Gained":0,"Retrofit_Capacity_Gained_Spaces":367,"Retrofit_Square_Footage_Gained":7331,"Risk_Capacity_Spaces":367,"Risk_Square_Footage":7331,"Planned_Usage_Spaces":307,"FundingSource_F_Federal_State_S":"S","Evacuation_Zone":"No","SURGE_ZONE":"No","FLOOD_ZONE":"No","EHPA":"No","General_Pop":"Yes","SPECIAL_NEEDS":" ","Pet_Friendly":"Yes","Does_not_meet_ARC_4496":" ","Survey_Needed":" "}},{"type":"Feature","id":54,"geometry":{"type":"Point","coordinates":[-87.362429018627566,30.740428981160022]},"properties":{"OBJECTID":54,"Name":"Molino Park ES","Address":"899 Hwy 97","City":"Molino","Zip":"32577","COUNTY":"ESCAMBIA","X":-87.362429019999993,"Y":30.740428980000001,"LONGLAT":"-87.36242902, 30.74042898","USNG":"16R DV 65306 00891","FACILITY_TYPE":"SHELTER","SHELTER_TYPE":"RISK","RPC_Region":"1","Year_Built":"2002","Building":"2 Art / Classroom","AS_IS_A_Retrofit_R":"R","Generator_Type":" ","PreMitigation_Capacity_Spaces":0,"PreMitigation_Square_Footage":0,"EHPA_Capacity_Gained_Spaces":0,"EHPA_Square_Footage_Gained":0,"Retrofit_Capacity_Gained_Spaces":315,"Retrofit_Square_Footage_Gained":6295,"Risk_Capacity_Spaces":315,"Risk_Square_Footage":6295,"Planned_Usage_Spaces":307,"FundingSource_F_Federal_State_S":"S","Evacuation_Zone":"No","SURGE_ZONE":"No","FLOOD_ZONE":"No","EHPA":"No","General_Pop":"Yes","SPECIAL_NEEDS":" ","Pet_Friendly":"Yes","Does_not_meet_ARC_4496":" ","Survey_Needed":" "}},{"type":"Feature","id":55,"geometry":{"type":"Point","coordinates":[-87.362429018627566,30.740428981160022]},"properties":{"OBJECTID":55,"Name":"Molino Park ES","Address":"899 Hwy 97","City":"Molino","Zip":"32577","COUNTY":"ESCAMBIA","X":-87.362429019999993,"Y":30.740428980000001,"LONGLAT":"-87.36242902, 30.74042898","USNG":"16R DV 65306 00891","FACILITY_TYPE":"SHELTER","SHELTER_TYPE":"RISK","RPC_Region":"1","Year_Built":"2002","Building":"1 Admin / Cafeteria / Media","AS_IS_A_Retrofit_R":"A","Generator_Type":" ","PreMitigation_Capacity_Spaces":0,"PreMitigation_Square_Footage":0,"EHPA_Capacity_Gained_Spaces":683,"EHPA_Square_Footage_Gained":13651,"Retrofit_Capacity_Gained_Spaces":0,"Retrofit_Square_Footage_Gained":0,"Risk_Capacity_Spaces":683,"Risk_Square_Footage":13651,"Planned_Usage_Spaces":307,"FundingSource_F_Federal_State_S":"L","Evacuation_Zone":"No","SURGE_ZONE":"No","FLOOD_ZONE":"No","EHPA":"Yes","General_Pop":"Yes","SPECIAL_NEEDS":" ","Pet_Friendly":"Yes","Does_not_meet_ARC_4496":" ","Survey_Needed":" "}},{"type":"Feature","id":56,"geometry":{"type":"Point","coordinates":[-87.362429018627566,30.740428981160022]},"properties":{"OBJECTID":56,"Name":"Molino Park ES","Address":"899 Hwy 97","City":"Molino","Zip":"32577","COUNTY":"ESCAMBIA","X":-87.362429019999993,"Y":30.740428980000001,"LONGLAT":"-87.36242902, 30.74042898","USNG":"16R DV 65306 00891","FACILITY_TYPE":"SHELTER","SHELTER_TYPE":"RISK","RPC_Region":"1","Year_Built":"2002","Building":"3 Classroom","AS_IS_A_Retrofit_R":"R","Generator_Type":" ","PreMitigation_Capacity_Spaces":0,"PreMitigation_Square_Footage":0,"EHPA_Capacity_Gained_Spaces":0,"EHPA_Square_Footage_Gained":0,"Retrofit_Capacity_Gained_Spaces":357,"Retrofit_Square_Footage_Gained":7137,"Risk_Capacity_Spaces":357,"Risk_Square_Footage":7137,"Planned_Usage_Spaces":307,"FundingSource_F_Federal_State_S":"S","Evacuation_Zone":"No","SURGE_ZONE":"No","FLOOD_ZONE":"No","EHPA":"No","General_Pop":"Yes","SPECIAL_NEEDS":" ","Pet_Friendly":"Yes","Does_not_meet_ARC_4496":" ","Survey_Needed":" "}},{"type":"Feature","id":57,"geometry":{"type":"Point","coordinates":[-87.362429018627566,30.740428981160022]},"properties":{"OBJECTID":57,"Name":"Molino Park ES","Address":"899 Hwy 97","City":"Molino","Zip":"32577","COUNTY":"ESCAMBIA","X":-87.362429019999993,"Y":30.740428980000001,"LONGLAT":"-87.36242902, 30.74042898","USNG":"16R DV 65306 00891","FACILITY_TYPE":"SHELTER","SHELTER_TYPE":"RISK","RPC_Region":"1","Year_Built":"2002","Building":"5 Classroom","AS_IS_A_Retrofit_R":"R","Generator_Type":" ","PreMitigation_Capacity_Spaces":0,"PreMitigation_Square_Footage":0,"EHPA_Capacity_Gained_Spaces":0,"EHPA_Square_Footage_Gained":0,"Retrofit_Capacity_Gained_Spaces":229,"Retrofit_Square_Footage_Gained":4589,"Risk_Capacity_Spaces":229,"Risk_Square_Footage":4589,"Planned_Usage_Spaces":307,"FundingSource_F_Federal_State_S":"S","Evacuation_Zone":"No","SURGE_ZONE":"No","FLOOD_ZONE":"No","EHPA":"No","General_Pop":"Yes","SPECIAL_NEEDS":" ","Pet_Friendly":"Yes","Does_not_meet_ARC_4496":" ","Survey_Needed":" "}},{"type":"Feature","id":58,"geometry":{"type":"Point","coordinates":[-81.442930706884184,26.807019916356381]},"properties":{"OBJECTID":58,"Name":"West Glades ES","Address":"2586 Hwy 731","City":"LaBelle","Zip":"33935","COUNTY":"GLADES","X":-81.442930709999999,"Y":26.807019919999998,"LONGLAT":"-81.44293071, 26.80701992","USNG":"17R MK 55979 65137","FACILITY_TYPE":"SHELTER","SHELTER_TYPE":"RISK","RPC_Region":"8","Year_Built":"2003","Building":"5 Cafeteria","AS_IS_A_Retrofit_R":"A","Generator_Type":"Yes, unknown kW","PreMitigation_Capacity_Spaces":0,"PreMitigation_Square_Footage":0,"EHPA_Capacity_Gained_Spaces":208,"EHPA_Square_Footage_Gained":4165,"Retrofit_Capacity_Gained_Spaces":0,"Retrofit_Square_Footage_Gained":0,"Risk_Capacity_Spaces":208,"Risk_Square_Footage":4165,"Planned_Usage_Spaces":594,"FundingSource_F_Federal_State_S":" ","Evacuation_Zone":"No","SURGE_ZONE":"No","FLOOD_ZONE":"No","EHPA":"Yes","General_Pop":"Yes","SPECIAL_NEEDS":" ","Pet_Friendly":"Yes","Does_not_meet_ARC_4496":" ","Survey_Needed":" "}},{"type":"Feature","id":59,"geometry":{"type":"Point","coordinates":[-82.930109536140719,30.475477134067482]},"properties":{"OBJECTID":59,"Name":"Hamilton County HS","Address":"5683 US Highway 129 S","City":"Jasper","Zip":"32052","COUNTY":"HAMILTON","X":-82.930109540000004,"Y":30.475477130000002,"LONGLAT":"-82.93010954, 30.47547713","USNG":"17R LP 14722 73057","FACILITY_TYPE":"SHELTER","SHELTER_TYPE":"RISK","RPC_Region":"3","Year_Built":"2003","Building":"6 Gym","AS_IS_A_Retrofit_R":"A","Generator_Type":"350 kW for campus","PreMitigation_Capacity_Spaces":0,"PreMitigation_Square_Footage":0,"EHPA_Capacity_Gained_Spaces":623,"EHPA_Square_Footage_Gained":12461,"Retrofit_Capacity_Gained_Spaces":0,"Retrofit_Square_Footage_Gained":0,"Risk_Capacity_Spaces":623,"Risk_Square_Footage":12461,"Planned_Usage_Spaces":0,"FundingSource_F_Federal_State_S":" ","Evacuation_Zone":"No","SURGE_ZONE":"No","FLOOD_ZONE":"No","EHPA":"Yes","General_Pop":"Yes","SPECIAL_NEEDS":" ","Pet_Friendly":"Yes","Does_not_meet_ARC_4496":" ","Survey_Needed":" "}},{"type":"Feature","id":60,"geometry":{"type":"Point","coordinates":[-82.369527025982507,27.739784003463068]},"properties":{"OBJECTID":60,"Name":"Shields MS","Address":"15732 Beth Shields Way","City":"Ruskin","Zip":"33573","COUNTY":"HILLSBOROUGH","X":-82.36952703,"Y":27.739784,"LONGLAT":"-82.36952703, 27.73978400","USNG":"17R LL 65015 69128","FACILITY_TYPE":"SHELTER","SHELTER_TYPE":"RISK","RPC_Region":"7","Year_Built":"2006","Building":"6 Classroom","AS_IS_A_Retrofit_R":"A","Generator_Type":" ","PreMitigation_Capacity_Spaces":0,"PreMitigation_Square_Footage":0,"EHPA_Capacity_Gained_Spaces":390,"EHPA_Square_Footage_Gained":7791,"Retrofit_Capacity_Gained_Spaces":0,"Retrofit_Square_Footage_Gained":0,"Risk_Capacity_Spaces":390,"Risk_Square_Footage":7791,"Planned_Usage_Spaces":540,"FundingSource_F_Federal_State_S":"L, S","Evacuation_Zone":"No","SURGE_ZONE":"No","FLOOD_ZONE":"No","EHPA":"Yes","General_Pop":"Yes","SPECIAL_NEEDS":" ","Pet_Friendly":"Yes","Does_not_meet_ARC_4496":" ","Survey_Needed":"Yes"}},{"type":"Feature","id":61,"geometry":{"type":"Point","coordinates":[-82.57390397708744,28.076834998400944]},"properties":{"OBJECTID":61,"Name":"Smith MS","Address":"14303 Citrus Pointe Dr","City":"Tampa","Zip":"33625","COUNTY":"HILLSBOROUGH","X":-82.573903979999997,"Y":28.076834999999999,"LONGLAT":"-82.57390398, 28.07683500","USNG":"17R LM 45348 06713","FACILITY_TYPE":"SHELTER","SHELTER_TYPE":"RISK","RPC_Region":"7","Year_Built":"2005","Building":"4 Classroom","AS_IS_A_Retrofit_R":"A","Generator_Type":" ","PreMitigation_Capacity_Spaces":0,"PreMitigation_Square_Footage":0,"EHPA_Capacity_Gained_Spaces":1599,"EHPA_Square_Footage_Gained":31989,"Retrofit_Capacity_Gained_Spaces":0,"Retrofit_Square_Footage_Gained":0,"Risk_Capacity_Spaces":1599,"Risk_Square_Footage":31989,"Planned_Usage_Spaces":675,"FundingSource_F_Federal_State_S":"L,S","Evacuation_Zone":"No","SURGE_ZONE":"No","FLOOD_ZONE":"No","EHPA":"Yes","General_Pop":"Yes","SPECIAL_NEEDS":" ","Pet_Friendly":"Yes","Does_not_meet_ARC_4496":" ","Survey_Needed":"Yes"}},{"type":"Feature","id":62,"geometry":{"type":"Point","coordinates":[-82.57390397708744,28.076834998400944]},"properties":{"OBJECTID":62,"Name":"Smith MS","Address":"14303 Citrus Pointe Dr","City":"Tampa","Zip":"33625","COUNTY":"HILLSBOROUGH","X":-82.573903979999997,"Y":28.076834999999999,"LONGLAT":"-82.57390398, 28.07683500","USNG":"17R LM 45348 06713","FACILITY_TYPE":"SHELTER","SHELTER_TYPE":"RISK","RPC_Region":"7","Year_Built":"2005","Building":"3 Gym","AS_IS_A_Retrofit_R":"A","Generator_Type":" ","PreMitigation_Capacity_Spaces":0,"PreMitigation_Square_Footage":0,"EHPA_Capacity_Gained_Spaces":501,"EHPA_Square_Footage_Gained":10020,"Retrofit_Capacity_Gained_Spaces":0,"Retrofit_Square_Footage_Gained":0,"Risk_Capacity_Spaces":501,"Risk_Square_Footage":10020,"Planned_Usage_Spaces":675,"FundingSource_F_Federal_State_S":"L,S","Evacuation_Zone":"No","SURGE_ZONE":"No","FLOOD_ZONE":"No","EHPA":"Yes","General_Pop":"Yes","SPECIAL_NEEDS":" ","Pet_Friendly":"Yes","Does_not_meet_ARC_4496":" ","Survey_Needed":"Yes"}},{"type":"Feature","id":63,"geometry":{"type":"Point","coordinates":[-82.236590041797172,28.022888985508501]},"properties":{"OBJECTID":63,"Name":"Strawberry Crest HS","Address":"4691 Gallagher Rd","City":"Dover","Zip":"33527","COUNTY":"HILLSBOROUGH","X":-82.236590039999996,"Y":28.022888989999998,"LONGLAT":"-82.23659004, 28.02288899","USNG":"17R LM 78435 00354","FACILITY_TYPE":"SHELTER","SHELTER_TYPE":"RISK","RPC_Region":"7","Year_Built":"2006","Building":"5 Lab","AS_IS_A_Retrofit_R":"A","Generator_Type":" ","PreMitigation_Capacity_Spaces":0,"PreMitigation_Square_Footage":0,"EHPA_Capacity_Gained_Spaces":362,"EHPA_Square_Footage_Gained":7245,"Retrofit_Capacity_Gained_Spaces":0,"Retrofit_Square_Footage_Gained":0,"Risk_Capacity_Spaces":362,"Risk_Square_Footage":7245,"Planned_Usage_Spaces":400,"FundingSource_F_Federal_State_S":"L, S","Evacuation_Zone":"No","SURGE_ZONE":"No","FLOOD_ZONE":"No","EHPA":"Yes","General_Pop":"Yes","SPECIAL_NEEDS":" ","Pet_Friendly":"Yes","Does_not_meet_ARC_4496":" ","Survey_Needed":"Yes"}},{"type":"Feature","id":64,"geometry":{"type":"Point","coordinates":[-80.465259515342112,27.741514769374714]},"properties":{"OBJECTID":64,"Name":"Liberty Magnet School","Address":"6850 81st St","City":"Vero Beach","Zip":"32967","COUNTY":"INDIAN RIVER","X":-80.465259520000004,"Y":27.741514769999998,"LONGLAT":"-80.46525952, 27.74151477","USNG":"17R NL 52702 68683","FACILITY_TYPE":"SHELTER","SHELTER_TYPE":"RISK","RPC_Region":"9","Year_Built":"2005","Building":"1 Main","AS_IS_A_Retrofit_R":"A","Generator_Type":" ","PreMitigation_Capacity_Spaces":184,"PreMitigation_Square_Footage":3680,"EHPA_Capacity_Gained_Spaces":0,"EHPA_Square_Footage_Gained":0,"Retrofit_Capacity_Gained_Spaces":0,"Retrofit_Square_Footage_Gained":0,"Risk_Capacity_Spaces":184,"Risk_Square_Footage":3680,"Planned_Usage_Spaces":184,"FundingSource_F_Federal_State_S":" ","Evacuation_Zone":"No","SURGE_ZONE":"No","FLOOD_ZONE":"No","EHPA":"No","General_Pop":"Yes","SPECIAL_NEEDS":" ","Pet_Friendly":"Yes","Does_not_meet_ARC_4496":" ","Survey_Needed":"Yes"}},{"type":"Feature","id":65,"geometry":{"type":"Point","coordinates":[-81.780182003141533,28.845597005990911]},"properties":{"OBJECTID":65,"Name":"Treadway ES","Address":"10619 Treadway School Rd","City":"Leesburg","Zip":"34748","COUNTY":"LAKE","X":-81.780181999999996,"Y":28.845597009999999,"LONGLAT":"-81.78018200, 28.84559701","USNG":"17R MM 23896 91129","FACILITY_TYPE":"SHELTER","SHELTER_TYPE":"RISK","RPC_Region":"5","Year_Built":"2004","Building":"13 Cafeteria","AS_IS_A_Retrofit_R":"A","Generator_Type":" ","PreMitigation_Capacity_Spaces":0,"PreMitigation_Square_Footage":0,"EHPA_Capacity_Gained_Spaces":193,"EHPA_Square_Footage_Gained":3865,"Retrofit_Capacity_Gained_Spaces":0,"Retrofit_Square_Footage_Gained":0,"Risk_Capacity_Spaces":193,"Risk_Square_Footage":3865,"Planned_Usage_Spaces":212,"FundingSource_F_Federal_State_S":"L","Evacuation_Zone":"No","SURGE_ZONE":"No","FLOOD_ZONE":"No","EHPA":"Yes","General_Pop":"Yes","SPECIAL_NEEDS":" ","Pet_Friendly":"Yes","Does_not_meet_ARC_4496":" ","Survey_Needed":" "}},{"type":"Feature","id":66,"geometry":{"type":"Point","coordinates":[-81.7257869719637,28.710834987919771]},"properties":{"OBJECTID":66,"Name":"Astatula ES","Address":"13925 Florida Ave","City":"Astatula","Zip":"34705","COUNTY":"LAKE","X":-81.725786970000001,"Y":28.710834989999999,"LONGLAT":"-81.72578697, 28.71083499","USNG":"17R MM 29111 76164","FACILITY_TYPE":"SHELTER","SHELTER_TYPE":"RISK","RPC_Region":"5","Year_Built":"1999","Building":"3 Cafeteria / Music","AS_IS_A_Retrofit_R":"A","Generator_Type":"Yes, unknown kW","PreMitigation_Capacity_Spaces":0,"PreMitigation_Square_Footage":0,"EHPA_Capacity_Gained_Spaces":231,"EHPA_Square_Footage_Gained":4628,"Retrofit_Capacity_Gained_Spaces":0,"Retrofit_Square_Footage_Gained":0,"Risk_Capacity_Spaces":231,"Risk_Square_Footage":4628,"Planned_Usage_Spaces":315,"FundingSource_F_Federal_State_S":"S-1523","Evacuation_Zone":"No","SURGE_ZONE":"No","FLOOD_ZONE":"No","EHPA":"Yes","General_Pop":"Yes","SPECIAL_NEEDS":" ","Pet_Friendly":"Yes","Does_not_meet_ARC_4496":" ","Survey_Needed":"Yes"}},{"type":"Feature","id":67,"geometry":{"type":"Point","coordinates":[-81.721591385994856,28.525671448032742]},"properties":{"OBJECTID":67,"Name":"Lost Lake ES","Address":"1901 Johns Lake Rd","City":"Clermont","Zip":"34711","COUNTY":"LAKE","X":-81.72159139,"Y":28.525671450000001,"LONGLAT":"-81.72159139, 28.52567145","USNG":"17R MM 29397 55648","FACILITY_TYPE":"SHELTER","SHELTER_TYPE":"RISK","RPC_Region":"5","Year_Built":"1999","Building":"3 Cafeteria / Music","AS_IS_A_Retrofit_R":"A","Generator_Type":"Yes, unknown kW","PreMitigation_Capacity_Spaces":0,"PreMitigation_Square_Footage":0,"EHPA_Capacity_Gained_Spaces":230,"EHPA_Square_Footage_Gained":4590,"Retrofit_Capacity_Gained_Spaces":0,"Retrofit_Square_Footage_Gained":0,"Risk_Capacity_Spaces":230,"Risk_Square_Footage":4590,"Planned_Usage_Spaces":303,"FundingSource_F_Federal_State_S":"L","Evacuation_Zone":"No","SURGE_ZONE":"No","FLOOD_ZONE":"No","EHPA":"Yes","General_Pop":"Yes","SPECIAL_NEEDS":" ","Pet_Friendly":"Yes","Does_not_meet_ARC_4496":" ","Survey_Needed":"Yes"}},{"type":"Feature","id":68,"geometry":{"type":"Point","coordinates":[-81.780182003141533,28.845597005990911]},"properties":{"OBJECTID":68,"Name":"Treadway ES","Address":"10619 Treadway School Rd","City":"Leesburg","Zip":"34748","COUNTY":"LAKE","X":-81.780181999999996,"Y":28.845597009999999,"LONGLAT":"-81.78018200, 28.84559701","USNG":"17R MM 23896 91129","FACILITY_TYPE":"SHELTER","SHELTER_TYPE":"RISK","RPC_Region":"5","Year_Built":"2004","Building":"11 Classroom","AS_IS_A_Retrofit_R":"A","Generator_Type":" ","PreMitigation_Capacity_Spaces":0,"PreMitigation_Square_Footage":0,"EHPA_Capacity_Gained_Spaces":187,"EHPA_Square_Footage_Gained":3738,"Retrofit_Capacity_Gained_Spaces":0,"Retrofit_Square_Footage_Gained":0,"Risk_Capacity_Spaces":187,"Risk_Square_Footage":3738,"Planned_Usage_Spaces":249,"FundingSource_F_Federal_State_S":"L","Evacuation_Zone":"No","SURGE_ZONE":"No","FLOOD_ZONE":"No","EHPA":"Yes","General_Pop":"Yes","SPECIAL_NEEDS":" ","Pet_Friendly":"Yes","Does_not_meet_ARC_4496":" ","Survey_Needed":" "}},{"type":"Feature","id":69,"geometry":{"type":"Point","coordinates":[-81.593580973222132,28.805367013892855]},"properties":{"OBJECTID":69,"Name":"Round Lake Charter ES","Address":"31333 Round Lake Rd","City":"Mt. Dora","Zip":"32757","COUNTY":"LAKE","X":-81.593580970000005,"Y":28.805367010000001,"LONGLAT":"-81.59358097, 28.80536701","USNG":"17R MM 42076 86566","FACILITY_TYPE":"SHELTER","SHELTER_TYPE":"RISK","RPC_Region":"5","Year_Built":"2000","Building":"1 Admin / Media","AS_IS_A_Retrofit_R":"A","Generator_Type":"180 kW for campus","PreMitigation_Capacity_Spaces":0,"PreMitigation_Square_Footage":0,"EHPA_Capacity_Gained_Spaces":51,"EHPA_Square_Footage_Gained":1026,"Retrofit_Capacity_Gained_Spaces":0,"Retrofit_Square_Footage_Gained":0,"Risk_Capacity_Spaces":51,"Risk_Square_Footage":1026,"Planned_Usage_Spaces":83,"FundingSource_F_Federal_State_S":"L","Evacuation_Zone":"No","SURGE_ZONE":"No","FLOOD_ZONE":"No","EHPA":"Yes","General_Pop":"Yes","SPECIAL_NEEDS":" ","Pet_Friendly":"Yes","Does_not_meet_ARC_4496":" ","Survey_Needed":"Yes"}},{"type":"Feature","id":70,"geometry":{"type":"Point","coordinates":[-81.721591385994856,28.525671448032742]},"properties":{"OBJECTID":70,"Name":"Lost Lake ES","Address":"1901 Johns Lake Rd","City":"Clermont","Zip":"34711","COUNTY":"LAKE","X":-81.72159139,"Y":28.525671450000001,"LONGLAT":"-81.72159139, 28.52567145","USNG":"17R MM 29397 55648","FACILITY_TYPE":"SHELTER","SHELTER_TYPE":"RISK","RPC_Region":"5","Year_Built":"1999","Building":"2 Classroom","AS_IS_A_Retrofit_R":"A","Generator_Type":"Yes, unknown kW","PreMitigation_Capacity_Spaces":0,"PreMitigation_Square_Footage":0,"EHPA_Capacity_Gained_Spaces":299,"EHPA_Square_Footage_Gained":5986,"Retrofit_Capacity_Gained_Spaces":0,"Retrofit_Square_Footage_Gained":0,"Risk_Capacity_Spaces":299,"Risk_Square_Footage":5986,"Planned_Usage_Spaces":251,"FundingSource_F_Federal_State_S":"L","Evacuation_Zone":"No","SURGE_ZONE":"No","FLOOD_ZONE":"No","EHPA":"Yes","General_Pop":"Yes","SPECIAL_NEEDS":" ","Pet_Friendly":"Yes","Does_not_meet_ARC_4496":" ","Survey_Needed":"Yes"}},{"type":"Feature","id":71,"geometry":{"type":"Point","coordinates":[-81.666416024102148,28.928407988523269]},"properties":{"OBJECTID":71,"Name":"Umatilla ES","Address":"60 Smith St","City":"Umatilla","Zip":"32784","COUNTY":"LAKE","X":-81.66641602,"Y":28.92840799,"LONGLAT":"-81.66641602, 28.92840799","USNG":"17R MN 35045 00236","FACILITY_TYPE":"SHELTER","SHELTER_TYPE":"RISK","RPC_Region":"5","Year_Built":"2000","Building":"1 Admin / Media","AS_IS_A_Retrofit_R":"A","Generator_Type":"Yes, unknown kW","PreMitigation_Capacity_Spaces":0,"PreMitigation_Square_Footage":0,"EHPA_Capacity_Gained_Spaces":48,"EHPA_Square_Footage_Gained":966,"Retrofit_Capacity_Gained_Spaces":0,"Retrofit_Square_Footage_Gained":0,"Risk_Capacity_Spaces":48,"Risk_Square_Footage":966,"Planned_Usage_Spaces":64,"FundingSource_F_Federal_State_S":"L","Evacuation_Zone":"No","SURGE_ZONE":"No","FLOOD_ZONE":"No","EHPA":"Yes","General_Pop":"Yes","SPECIAL_NEEDS":" ","Pet_Friendly":"Yes","Does_not_meet_ARC_4496":" ","Survey_Needed":"Yes"}},{"type":"Feature","id":72,"geometry":{"type":"Point","coordinates":[-81.742245766676959,28.771891038345416]},"properties":{"OBJECTID":72,"Name":"Tavares MS","Address":"13032 Lane Park Cutoff","City":"Tavares","Zip":"32778","COUNTY":"LAKE","X":-81.742245769999997,"Y":28.77189104,"LONGLAT":"-81.74224577, 28.77189104","USNG":"17R MM 27546 82939","FACILITY_TYPE":"SHELTER","SHELTER_TYPE":"RISK","RPC_Region":"5","Year_Built":"2003","Building":"5 ESE Classroom","AS_IS_A_Retrofit_R":"A","Generator_Type":" ","PreMitigation_Capacity_Spaces":0,"PreMitigation_Square_Footage":0,"EHPA_Capacity_Gained_Spaces":599,"EHPA_Square_Footage_Gained":11976,"Retrofit_Capacity_Gained_Spaces":0,"Retrofit_Square_Footage_Gained":0,"Risk_Capacity_Spaces":599,"Risk_Square_Footage":11976,"Planned_Usage_Spaces":632,"FundingSource_F_Federal_State_S":"L","Evacuation_Zone":"No","SURGE_ZONE":"No","FLOOD_ZONE":"No","EHPA":"Yes","General_Pop":"Yes","SPECIAL_NEEDS":" ","Pet_Friendly":"Yes","Does_not_meet_ARC_4496":" ","Survey_Needed":" "}},{"type":"Feature","id":73,"geometry":{"type":"Point","coordinates":[-81.7257869719637,28.710834987919771]},"properties":{"OBJECTID":73,"Name":"Astatula ES","Address":"13925 Florida Ave","City":"Astatula","Zip":"34705","COUNTY":"LAKE","X":-81.725786970000001,"Y":28.710834989999999,"LONGLAT":"-81.72578697, 28.71083499","USNG":"17R MM 29111 76164","FACILITY_TYPE":"SHELTER","SHELTER_TYPE":"RISK","RPC_Region":"5","Year_Built":"1999","Building":"2 Classroom","AS_IS_A_Retrofit_R":"A","Generator_Type":"Yes, unknown kW","PreMitigation_Capacity_Spaces":0,"PreMitigation_Square_Footage":0,"EHPA_Capacity_Gained_Spaces":312,"EHPA_Square_Footage_Gained":6247,"Retrofit_Capacity_Gained_Spaces":0,"Retrofit_Square_Footage_Gained":0,"Risk_Capacity_Spaces":312,"Risk_Square_Footage":6247,"Planned_Usage_Spaces":296,"FundingSource_F_Federal_State_S":"S-1523","Evacuation_Zone":"No","SURGE_ZONE":"No","FLOOD_ZONE":"No","EHPA":"Yes","General_Pop":"Yes","SPECIAL_NEEDS":" ","Pet_Friendly":"Yes","Does_not_meet_ARC_4496":" ","Survey_Needed":"Yes"}},{"type":"Feature","id":74,"geometry":{"type":"Point","coordinates":[-81.593580973222132,28.805367013892855]},"properties":{"OBJECTID":74,"Name":"Round Lake Charter ES","Address":"31333 Round Lake Rd","City":"Mt. Dora","Zip":"32757","COUNTY":"LAKE","X":-81.593580970000005,"Y":28.805367010000001,"LONGLAT":"-81.59358097, 28.80536701","USNG":"17R MM 42076 86566","FACILITY_TYPE":"SHELTER","SHELTER_TYPE":"RISK","RPC_Region":"5","Year_Built":"2000","Building":"3 Classroom","AS_IS_A_Retrofit_R":"A","Generator_Type":"180 kW for campus","PreMitigation_Capacity_Spaces":0,"PreMitigation_Square_Footage":0,"EHPA_Capacity_Gained_Spaces":273,"EHPA_Square_Footage_Gained":5467,"Retrofit_Capacity_Gained_Spaces":0,"Retrofit_Square_Footage_Gained":0,"Risk_Capacity_Spaces":273,"Risk_Square_Footage":5467,"Planned_Usage_Spaces":270,"FundingSource_F_Federal_State_S":"L","Evacuation_Zone":"No","SURGE_ZONE":"No","FLOOD_ZONE":"No","EHPA":"Yes","General_Pop":"Yes","SPECIAL_NEEDS":" ","Pet_Friendly":"Yes","Does_not_meet_ARC_4496":" ","Survey_Needed":" "}},{"type":"Feature","id":75,"geometry":{"type":"Point","coordinates":[-81.666416024102148,28.928407988523269]},"properties":{"OBJECTID":75,"Name":"Umatilla ES","Address":"60 Smith St","City":"Umatilla","Zip":"32784","COUNTY":"LAKE","X":-81.66641602,"Y":28.92840799,"LONGLAT":"-81.66641602, 28.92840799","USNG":"17R MN 35045 00236","FACILITY_TYPE":"SHELTER","SHELTER_TYPE":"RISK","RPC_Region":"5","Year_Built":"2000","Building":"6 Classroom","AS_IS_A_Retrofit_R":"A","Generator_Type":"180 kW","PreMitigation_Capacity_Spaces":0,"PreMitigation_Square_Footage":0,"EHPA_Capacity_Gained_Spaces":186,"EHPA_Square_Footage_Gained":3728,"Retrofit_Capacity_Gained_Spaces":0,"Retrofit_Square_Footage_Gained":0,"Risk_Capacity_Spaces":186,"Risk_Square_Footage":3728,"Planned_Usage_Spaces":249,"FundingSource_F_Federal_State_S":"L","Evacuation_Zone":"No","SURGE_ZONE":"No","FLOOD_ZONE":"No","EHPA":"Yes","General_Pop":"Yes","SPECIAL_NEEDS":" ","Pet_Friendly":"Yes","Does_not_meet_ARC_4496":" ","Survey_Needed":" "}},{"type":"Feature","id":76,"geometry":{"type":"Point","coordinates":[-81.780182003141533,28.845597005990911]},"properties":{"OBJECTID":76,"Name":"Treadway ES","Address":"10619 Treadway School Rd","City":"Leesburg","Zip":"34748","COUNTY":"LAKE","X":-81.780181999999996,"Y":28.845597009999999,"LONGLAT":"-81.78018200, 28.84559701","USNG":"17R MM 23896 91129","FACILITY_TYPE":"SHELTER","SHELTER_TYPE":"RISK","RPC_Region":"5","Year_Built":"2004","Building":"12 Classroom","AS_IS_A_Retrofit_R":"A","Generator_Type":" ","PreMitigation_Capacity_Spaces":0,"PreMitigation_Square_Footage":0,"EHPA_Capacity_Gained_Spaces":244,"EHPA_Square_Footage_Gained":4880,"Retrofit_Capacity_Gained_Spaces":0,"Retrofit_Square_Footage_Gained":0,"Risk_Capacity_Spaces":244,"Risk_Square_Footage":4880,"Planned_Usage_Spaces":272,"FundingSource_F_Federal_State_S":"L","Evacuation_Zone":"No","SURGE_ZONE":"No","FLOOD_ZONE":"No","EHPA":"Yes","General_Pop":"Yes","SPECIAL_NEEDS":" ","Pet_Friendly":"Yes","Does_not_meet_ARC_4496":" ","Survey_Needed":" "}},{"type":"Feature","id":77,"geometry":{"type":"Point","coordinates":[-81.593580973222132,28.805367013892855]},"properties":{"OBJECTID":77,"Name":"Round Lake Charter ES","Address":"31333 Round Lake Rd","City":"Mt. Dora","Zip":"32757","COUNTY":"LAKE","X":-81.593580970000005,"Y":28.805367010000001,"LONGLAT":"-81.59358097, 28.80536701","USNG":"17R MM 42076 86566","FACILITY_TYPE":"SHELTER","SHELTER_TYPE":"RISK","RPC_Region":"5","Year_Built":"2000","Building":"6 Classroom","AS_IS_A_Retrofit_R":"A","Generator_Type":"180 kW for campus","PreMitigation_Capacity_Spaces":0,"PreMitigation_Square_Footage":0,"EHPA_Capacity_Gained_Spaces":187,"EHPA_Square_Footage_Gained":3740,"Retrofit_Capacity_Gained_Spaces":0,"Retrofit_Square_Footage_Gained":0,"Risk_Capacity_Spaces":187,"Risk_Square_Footage":3740,"Planned_Usage_Spaces":249,"FundingSource_F_Federal_State_S":"S-1523","Evacuation_Zone":"No","SURGE_ZONE":"No","FLOOD_ZONE":"No","EHPA":"Yes","General_Pop":"Yes","SPECIAL_NEEDS":" ","Pet_Friendly":"Yes","Does_not_meet_ARC_4496":" ","Survey_Needed":" "}},{"type":"Feature","id":78,"geometry":{"type":"Point","coordinates":[-81.646133996885325,28.859507989403561]},"properties":{"OBJECTID":78,"Name":"Town of Lee-Publ. Saf / Emerg Shelter","Address":"304 Main St","City":"Lee","Zip":"32059","COUNTY":"LAKE","X":-81.646134000000004,"Y":28.859507990000001,"LONGLAT":"-81.64613400, 28.85950799","USNG":"17R MM 36980 92591","FACILITY_TYPE":"SHELTER","SHELTER_TYPE":"RISK","RPC_Region":"3","Year_Built":"2003","Building":"Fire","AS_IS_A_Retrofit_R":"A","Generator_Type":" ","PreMitigation_Capacity_Spaces":0,"PreMitigation_Square_Footage":0,"EHPA_Capacity_Gained_Spaces":0,"EHPA_Square_Footage_Gained":0,"Retrofit_Capacity_Gained_Spaces":0,"Retrofit_Square_Footage_Gained":0,"Risk_Capacity_Spaces":232,"Risk_Square_Footage":4632,"Planned_Usage_Spaces":300,"FundingSource_F_Federal_State_S":"S - 01CP-04-03-50-02-217","Evacuation_Zone":"No","SURGE_ZONE":"No","FLOOD_ZONE":"No","EHPA":"No","General_Pop":"Yes","SPECIAL_NEEDS":" ","Pet_Friendly":"Yes","Does_not_meet_ARC_4496":" ","Survey_Needed":" "}},{"type":"Feature","id":79,"geometry":{"type":"Point","coordinates":[-81.593580973222132,28.805367013892855]},"properties":{"OBJECTID":79,"Name":"Round Lake Charter ES","Address":"31333 Round Lake Rd","City":"Mt. Dora","Zip":"32757","COUNTY":"LAKE","X":-81.593580970000005,"Y":28.805367010000001,"LONGLAT":"-81.59358097, 28.80536701","USNG":"17R MM 42076 86566","FACILITY_TYPE":"SHELTER","SHELTER_TYPE":"RISK","RPC_Region":"5","Year_Built":"2000","Building":"4 Classroom","AS_IS_A_Retrofit_R":"A","Generator_Type":"180 kW for campus","PreMitigation_Capacity_Spaces":0,"PreMitigation_Square_Footage":0,"EHPA_Capacity_Gained_Spaces":209,"EHPA_Square_Footage_Gained":4172,"Retrofit_Capacity_Gained_Spaces":0,"Retrofit_Square_Footage_Gained":0,"Risk_Capacity_Spaces":209,"Risk_Square_Footage":4172,"Planned_Usage_Spaces":212,"FundingSource_F_Federal_State_S":"L","Evacuation_Zone":"No","SURGE_ZONE":"No","FLOOD_ZONE":"No","EHPA":"Yes","General_Pop":"Yes","SPECIAL_NEEDS":" ","Pet_Friendly":"Yes","Does_not_meet_ARC_4496":" ","Survey_Needed":" "}},{"type":"Feature","id":80,"geometry":{"type":"Point","coordinates":[-82.870520000681068,29.480349984215003]},"properties":{"OBJECTID":80,"Name":"Chiefland ES","Address":"1205 NW 4th Ave","City":"Chiefland","Zip":"32626","COUNTY":"LEVY","X":-82.870519999999999,"Y":29.480349990000001,"LONGLAT":"-82.87052000, 29.48034999","USNG":"17R LN 18643 62663","FACILITY_TYPE":"SHELTER","SHELTER_TYPE":"RISK","RPC_Region":"3","Year_Built":"1991","Building":"2 Classroom","AS_IS_A_Retrofit_R":"R","Generator_Type":"Unknown kW for all Buildings","PreMitigation_Capacity_Spaces":0,"PreMitigation_Square_Footage":0,"EHPA_Capacity_Gained_Spaces":0,"EHPA_Square_Footage_Gained":0,"Retrofit_Capacity_Gained_Spaces":362,"Retrofit_Square_Footage_Gained":7233,"Risk_Capacity_Spaces":362,"Risk_Square_Footage":7233,"Planned_Usage_Spaces":362,"FundingSource_F_Federal_State_S":"S-1467-2005","Evacuation_Zone":"No","SURGE_ZONE":"No","FLOOD_ZONE":"No","EHPA":"No","General_Pop":"Yes","SPECIAL_NEEDS":" ","Pet_Friendly":"Yes","Does_not_meet_ARC_4496":" ","Survey_Needed":" "}},{"type":"Feature","id":81,"geometry":{"type":"Point","coordinates":[-82.870520000681068,29.480349984215003]},"properties":{"OBJECTID":81,"Name":"Chiefland ES","Address":"1205 NW 4th Ave","City":"Chiefland","Zip":"32626","COUNTY":"LEVY","X":-82.870519999999999,"Y":29.480349990000001,"LONGLAT":"-82.87052000, 29.48034999","USNG":"17R LN 18643 62663","FACILITY_TYPE":"SHELTER","SHELTER_TYPE":"RISK","RPC_Region":"3","Year_Built":"1991","Building":"4 Classroom / Library","AS_IS_A_Retrofit_R":"R","Generator_Type":"Unknown kW for all Buildings","PreMitigation_Capacity_Spaces":0,"PreMitigation_Square_Footage":0,"EHPA_Capacity_Gained_Spaces":0,"EHPA_Square_Footage_Gained":0,"Retrofit_Capacity_Gained_Spaces":256,"Retrofit_Square_Footage_Gained":5123,"Risk_Capacity_Spaces":256,"Risk_Square_Footage":5123,"Planned_Usage_Spaces":43,"FundingSource_F_Federal_State_S":"S FY 11/12 1515A: 13-SR-AA-05-48-D3-368","Evacuation_Zone":"No","SURGE_ZONE":"No","FLOOD_ZONE":"No","EHPA":"No","General_Pop":"Yes","SPECIAL_NEEDS":" ","Pet_Friendly":"Yes","Does_not_meet_ARC_4496":" ","Survey_Needed":" "}},{"type":"Feature","id":82,"geometry":{"type":"Point","coordinates":[-82.870520000681068,29.480349984215003]},"properties":{"OBJECTID":82,"Name":"Chiefland ES","Address":"1205 NW 4th Ave","City":"Chiefland","Zip":"32626","COUNTY":"LEVY","X":-82.870519999999999,"Y":29.480349990000001,"LONGLAT":"-82.87052000, 29.48034999","USNG":"17R LN 18643 62663","FACILITY_TYPE":"SHELTER","SHELTER_TYPE":"RISK","RPC_Region":"3","Year_Built":"1991","Building":"3 Classroom","AS_IS_A_Retrofit_R":"R","Generator_Type":"Unknown kW for all Buildings","PreMitigation_Capacity_Spaces":0,"PreMitigation_Square_Footage":0,"EHPA_Capacity_Gained_Spaces":0,"EHPA_Square_Footage_Gained":0,"Retrofit_Capacity_Gained_Spaces":313,"Retrofit_Square_Footage_Gained":6269,"Risk_Capacity_Spaces":313,"Risk_Square_Footage":6269,"Planned_Usage_Spaces":443,"FundingSource_F_Federal_State_S":"S-1588-2006","Evacuation_Zone":"No","SURGE_ZONE":"No","FLOOD_ZONE":"No","EHPA":"No","General_Pop":"Yes","SPECIAL_NEEDS":" ","Pet_Friendly":"Yes","Does_not_meet_ARC_4496":" ","Survey_Needed":" "}},{"type":"Feature","id":83,"geometry":{"type":"Point","coordinates":[-83.445549990705999,30.478530004387625]},"properties":{"OBJECTID":83,"Name":"Madison Central School","Address":"2093 US Hwy 90","City":"Madison","Zip":"32340","COUNTY":"MADISON","X":-83.445549990000004,"Y":30.47853001,"LONGLAT":"-83.44554999, 30.47853001","USNG":"17R KP 65237 74354","FACILITY_TYPE":"SHELTER","SHELTER_TYPE":"RISK","RPC_Region":"3","Year_Built":"2000","Building":"7 Classroom","AS_IS_A_Retrofit_R":"R","Generator_Type":" ","PreMitigation_Capacity_Spaces":0,"PreMitigation_Square_Footage":0,"EHPA_Capacity_Gained_Spaces":0,"EHPA_Square_Footage_Gained":0,"Retrofit_Capacity_Gained_Spaces":329,"Retrofit_Square_Footage_Gained":6579,"Risk_Capacity_Spaces":329,"Risk_Square_Footage":6579,"Planned_Usage_Spaces":728,"FundingSource_F_Federal_State_S":"S-1435A-2003","Evacuation_Zone":"No","SURGE_ZONE":"No","FLOOD_ZONE":"No","EHPA":"No","General_Pop":"Yes","SPECIAL_NEEDS":" ","Pet_Friendly":"Yes","Does_not_meet_ARC_4496":" ","Survey_Needed":" "}},{"type":"Feature","id":84,"geometry":{"type":"Point","coordinates":[-83.445549990705999,30.478530004387625]},"properties":{"OBJECTID":84,"Name":"Madison Central School","Address":"2093 US Hwy 90","City":"Madison","Zip":"32340","COUNTY":"MADISON","X":-83.445549990000004,"Y":30.47853001,"LONGLAT":"-83.44554999, 30.47853001","USNG":"17R KP 65237 74354","FACILITY_TYPE":"SHELTER","SHELTER_TYPE":"RISK","RPC_Region":"3","Year_Built":"2000","Building":"11 Music","AS_IS_A_Retrofit_R":"R","Generator_Type":" ","PreMitigation_Capacity_Spaces":0,"PreMitigation_Square_Footage":0,"EHPA_Capacity_Gained_Spaces":0,"EHPA_Square_Footage_Gained":0,"Retrofit_Capacity_Gained_Spaces":259,"Retrofit_Square_Footage_Gained":5175,"Risk_Capacity_Spaces":259,"Risk_Square_Footage":5175,"Planned_Usage_Spaces":518,"FundingSource_F_Federal_State_S":"S-1435A-2003","Evacuation_Zone":"No","SURGE_ZONE":"No","FLOOD_ZONE":"No","EHPA":"No","General_Pop":"Yes","SPECIAL_NEEDS":" ","Pet_Friendly":"Yes","Does_not_meet_ARC_4496":" ","Survey_Needed":" "}},{"type":"Feature","id":85,"geometry":{"type":"Point","coordinates":[-83.445549990705999,30.478530004387625]},"properties":{"OBJECTID":85,"Name":"Madison Central School","Address":"2093 US Hwy 90","City":"Madison","Zip":"32340","COUNTY":"MADISON","X":-83.445549990000004,"Y":30.47853001,"LONGLAT":"-83.44554999, 30.47853001","USNG":"17R KP 65237 74354","FACILITY_TYPE":"SHELTER","SHELTER_TYPE":"RISK","RPC_Region":"3","Year_Built":"2000","Building":"9 Classroom / Lab","AS_IS_A_Retrofit_R":"R","Generator_Type":" ","PreMitigation_Capacity_Spaces":0,"PreMitigation_Square_Footage":0,"EHPA_Capacity_Gained_Spaces":0,"EHPA_Square_Footage_Gained":0,"Retrofit_Capacity_Gained_Spaces":360,"Retrofit_Square_Footage_Gained":7195,"Risk_Capacity_Spaces":360,"Risk_Square_Footage":7195,"Planned_Usage_Spaces":659,"FundingSource_F_Federal_State_S":"S-1435A-2003","Evacuation_Zone":"No","SURGE_ZONE":"No","FLOOD_ZONE":"No","EHPA":"No","General_Pop":"Yes","SPECIAL_NEEDS":" ","Pet_Friendly":"Yes","Does_not_meet_ARC_4496":" ","Survey_Needed":" "}},{"type":"Feature","id":86,"geometry":{"type":"Point","coordinates":[-83.445549990705999,30.478530004387625]},"properties":{"OBJECTID":86,"Name":"Madison Central School","Address":"2093 US Hwy 90","City":"Madison","Zip":"32340","COUNTY":"MADISON","X":-83.445549990000004,"Y":30.47853001,"LONGLAT":"-83.44554999, 30.47853001","USNG":"17R KP 65237 74354","FACILITY_TYPE":"SHELTER","SHELTER_TYPE":"RISK","RPC_Region":"3","Year_Built":"2000","Building":"10 Classroom / Lab","AS_IS_A_Retrofit_R":"R","Generator_Type":" ","PreMitigation_Capacity_Spaces":0,"PreMitigation_Square_Footage":0,"EHPA_Capacity_Gained_Spaces":0,"EHPA_Square_Footage_Gained":0,"Retrofit_Capacity_Gained_Spaces":448,"Retrofit_Square_Footage_Gained":8959,"Risk_Capacity_Spaces":448,"Risk_Square_Footage":8959,"Planned_Usage_Spaces":802,"FundingSource_F_Federal_State_S":"S-1435A-2003","Evacuation_Zone":"No","SURGE_ZONE":"No","FLOOD_ZONE":"No","EHPA":"No","General_Pop":"Yes","SPECIAL_NEEDS":" ","Pet_Friendly":"Yes","Does_not_meet_ARC_4496":" ","Survey_Needed":" "}},{"type":"Feature","id":87,"geometry":{"type":"Point","coordinates":[-83.445549990705999,30.478530004387625]},"properties":{"OBJECTID":87,"Name":"Madison Central School","Address":"2093 US Hwy 90","City":"Madison","Zip":"32340","COUNTY":"MADISON","X":-83.445549990000004,"Y":30.47853001,"LONGLAT":"-83.44554999, 30.47853001","USNG":"17R KP 65237 74354","FACILITY_TYPE":"SHELTER","SHELTER_TYPE":"RISK","RPC_Region":"3","Year_Built":"2000","Building":"1 Admin","AS_IS_A_Retrofit_R":"R","Generator_Type":" ","PreMitigation_Capacity_Spaces":0,"PreMitigation_Square_Footage":0,"EHPA_Capacity_Gained_Spaces":0,"EHPA_Square_Footage_Gained":0,"Retrofit_Capacity_Gained_Spaces":131,"Retrofit_Square_Footage_Gained":2621,"Risk_Capacity_Spaces":131,"Risk_Square_Footage":2621,"Planned_Usage_Spaces":518,"FundingSource_F_Federal_State_S":"S-1435A-2003","Evacuation_Zone":"No","SURGE_ZONE":"No","FLOOD_ZONE":"No","EHPA":"No","General_Pop":"Yes","SPECIAL_NEEDS":" ","Pet_Friendly":"Yes","Does_not_meet_ARC_4496":" ","Survey_Needed":" "}},{"type":"Feature","id":88,"geometry":{"type":"Point","coordinates":[-83.445549990705999,30.478530004387625]},"properties":{"OBJECTID":88,"Name":"Madison Central School","Address":"2093 US Hwy 90","City":"Madison","Zip":"32340","COUNTY":"MADISON","X":-83.445549990000004,"Y":30.47853001,"LONGLAT":"-83.44554999, 30.47853001","USNG":"17R KP 65237 74354","FACILITY_TYPE":"SHELTER","SHELTER_TYPE":"RISK","RPC_Region":"3","Year_Built":"2000","Building":"8 Classroom","AS_IS_A_Retrofit_R":"R","Generator_Type":" ","PreMitigation_Capacity_Spaces":0,"PreMitigation_Square_Footage":0,"EHPA_Capacity_Gained_Spaces":0,"EHPA_Square_Footage_Gained":0,"Retrofit_Capacity_Gained_Spaces":434,"Retrofit_Square_Footage_Gained":8679,"Risk_Capacity_Spaces":434,"Risk_Square_Footage":8679,"Planned_Usage_Spaces":796,"FundingSource_F_Federal_State_S":"S-1435A-2003","Evacuation_Zone":"No","SURGE_ZONE":"No","FLOOD_ZONE":"No","EHPA":"No","General_Pop":"Yes","SPECIAL_NEEDS":" ","Pet_Friendly":"Yes","Does_not_meet_ARC_4496":" ","Survey_Needed":" "}},{"type":"Feature","id":89,"geometry":{"type":"Point","coordinates":[-83.445549990705999,30.478530004387625]},"properties":{"OBJECTID":89,"Name":"Madison Central School","Address":"2093 US Hwy 90","City":"Madison","Zip":"32340","COUNTY":"MADISON","X":-83.445549990000004,"Y":30.47853001,"LONGLAT":"-83.44554999, 30.47853001","USNG":"17R KP 65237 74354","FACILITY_TYPE":"SHELTER","SHELTER_TYPE":"RISK","RPC_Region":"3","Year_Built":"2000","Building":"12 Gym","AS_IS_A_Retrofit_R":"R","Generator_Type":" ","PreMitigation_Capacity_Spaces":0,"PreMitigation_Square_Footage":0,"EHPA_Capacity_Gained_Spaces":0,"EHPA_Square_Footage_Gained":0,"Retrofit_Capacity_Gained_Spaces":559,"Retrofit_Square_Footage_Gained":11179,"Risk_Capacity_Spaces":559,"Risk_Square_Footage":11179,"Planned_Usage_Spaces":0,"FundingSource_F_Federal_State_S":" ","Evacuation_Zone":"No","SURGE_ZONE":"No","FLOOD_ZONE":"No","EHPA":"No","General_Pop":"Yes","SPECIAL_NEEDS":" ","Pet_Friendly":"Yes","Does_not_meet_ARC_4496":" ","Survey_Needed":" "}},{"type":"Feature","id":90,"geometry":{"type":"Point","coordinates":[-83.445549990705999,30.478530004387625]},"properties":{"OBJECTID":90,"Name":"Madison Central School","Address":"2093 US Hwy 90","City":"Madison","Zip":"32340","COUNTY":"MADISON","X":-83.445549990000004,"Y":30.47853001,"LONGLAT":"-83.44554999, 30.47853001","USNG":"17R KP 65237 74354","FACILITY_TYPE":"SHELTER","SHELTER_TYPE":"RISK","RPC_Region":"3","Year_Built":"2000","Building":"5 Classroom","AS_IS_A_Retrofit_R":"R","Generator_Type":" ","PreMitigation_Capacity_Spaces":0,"PreMitigation_Square_Footage":0,"EHPA_Capacity_Gained_Spaces":0,"EHPA_Square_Footage_Gained":0,"Retrofit_Capacity_Gained_Spaces":390,"Retrofit_Square_Footage_Gained":7807,"Risk_Capacity_Spaces":390,"Risk_Square_Footage":7807,"Planned_Usage_Spaces":833,"FundingSource_F_Federal_State_S":"S-1435A-2003","Evacuation_Zone":"No","SURGE_ZONE":"No","FLOOD_ZONE":"No","EHPA":"No","General_Pop":"Yes","SPECIAL_NEEDS":" ","Pet_Friendly":"Yes","Does_not_meet_ARC_4496":" ","Survey_Needed":" "}},{"type":"Feature","id":91,"geometry":{"type":"Point","coordinates":[-83.445549990705999,30.478530004387625]},"properties":{"OBJECTID":91,"Name":"Madison Central School","Address":"2093 US Hwy 90","City":"Madison","Zip":"32340","COUNTY":"MADISON","X":-83.445549990000004,"Y":30.47853001,"LONGLAT":"-83.44554999, 30.47853001","USNG":"17R KP 65237 74354","FACILITY_TYPE":"SHELTER","SHELTER_TYPE":"RISK","RPC_Region":"3","Year_Built":"2000","Building":"3 Classroom / Lab","AS_IS_A_Retrofit_R":"R","Generator_Type":" ","PreMitigation_Capacity_Spaces":0,"PreMitigation_Square_Footage":0,"EHPA_Capacity_Gained_Spaces":0,"EHPA_Square_Footage_Gained":0,"Retrofit_Capacity_Gained_Spaces":98,"Retrofit_Square_Footage_Gained":1966,"Risk_Capacity_Spaces":98,"Risk_Square_Footage":1966,"Planned_Usage_Spaces":490,"FundingSource_F_Federal_State_S":"S-1435A-2003","Evacuation_Zone":"No","SURGE_ZONE":"No","FLOOD_ZONE":"No","EHPA":"No","General_Pop":"Yes","SPECIAL_NEEDS":" ","Pet_Friendly":"Yes","Does_not_meet_ARC_4496":" ","Survey_Needed":" "}},{"type":"Feature","id":92,"geometry":{"type":"Point","coordinates":[-83.445549990705999,30.478530004387625]},"properties":{"OBJECTID":92,"Name":"Madison Central School","Address":"2093 US Hwy 90","City":"Madison","Zip":"32340","COUNTY":"MADISON","X":-83.445549990000004,"Y":30.47853001,"LONGLAT":"-83.44554999, 30.47853001","USNG":"17R KP 65237 74354","FACILITY_TYPE":"SHELTER","SHELTER_TYPE":"RISK","RPC_Region":"3","Year_Built":"2000","Building":"6 Classroom","AS_IS_A_Retrofit_R":"R","Generator_Type":" ","PreMitigation_Capacity_Spaces":0,"PreMitigation_Square_Footage":0,"EHPA_Capacity_Gained_Spaces":0,"EHPA_Square_Footage_Gained":0,"Retrofit_Capacity_Gained_Spaces":324,"Retrofit_Square_Footage_Gained":6481,"Risk_Capacity_Spaces":324,"Risk_Square_Footage":6481,"Planned_Usage_Spaces":768,"FundingSource_F_Federal_State_S":"S-1435A-2003","Evacuation_Zone":"No","SURGE_ZONE":"No","FLOOD_ZONE":"No","EHPA":"No","General_Pop":"Yes","SPECIAL_NEEDS":" ","Pet_Friendly":"Yes","Does_not_meet_ARC_4496":" ","Survey_Needed":" "}},{"type":"Feature","id":93,"geometry":{"type":"Point","coordinates":[-83.445549990705999,30.478530004387625]},"properties":{"OBJECTID":93,"Name":"Madison Central School","Address":"2093 US Hwy 90","City":"Madison","Zip":"32340","COUNTY":"MADISON","X":-83.445549990000004,"Y":30.47853001,"LONGLAT":"-83.44554999, 30.47853001","USNG":"17R KP 65237 74354","FACILITY_TYPE":"SHELTER","SHELTER_TYPE":"RISK","RPC_Region":"3","Year_Built":"2000","Building":"4 Classroom","AS_IS_A_Retrofit_R":"R","Generator_Type":" ","PreMitigation_Capacity_Spaces":0,"PreMitigation_Square_Footage":0,"EHPA_Capacity_Gained_Spaces":0,"EHPA_Square_Footage_Gained":0,"Retrofit_Capacity_Gained_Spaces":101,"Retrofit_Square_Footage_Gained":2025,"Risk_Capacity_Spaces":101,"Risk_Square_Footage":2025,"Planned_Usage_Spaces":265,"FundingSource_F_Federal_State_S":"S-1435A-2003","Evacuation_Zone":"No","SURGE_ZONE":"No","FLOOD_ZONE":"No","EHPA":"No","General_Pop":"Yes","SPECIAL_NEEDS":" ","Pet_Friendly":"Yes","Does_not_meet_ARC_4496":" ","Survey_Needed":" "}},{"type":"Feature","id":94,"geometry":{"type":"Point","coordinates":[-82.490366996155245,27.575225996270397]},"properties":{"OBJECTID":94,"Name":"Virgil Mills ES","Address":"7200 69th St E","City":"Palmetto","Zip":"34221","COUNTY":"MANATEE","X":-82.490367000000006,"Y":27.575226000000001,"LONGLAT":"-82.49036700, 27.57522600","USNG":"17R LL 52883 51035","FACILITY_TYPE":"SHELTER","SHELTER_TYPE":"RISK","RPC_Region":"7","Year_Built":"2004","Building":"1 Main","AS_IS_A_Retrofit_R":"R","Generator_Type":" ","PreMitigation_Capacity_Spaces":0,"PreMitigation_Square_Footage":0,"EHPA_Capacity_Gained_Spaces":0,"EHPA_Square_Footage_Gained":0,"Retrofit_Capacity_Gained_Spaces":1985,"Retrofit_Square_Footage_Gained":39695,"Risk_Capacity_Spaces":1985,"Risk_Square_Footage":39695,"Planned_Usage_Spaces":1484,"FundingSource_F_Federal_State_S":"L","Evacuation_Zone":"No","SURGE_ZONE":"No","FLOOD_ZONE":"No","EHPA":"No","General_Pop":"Yes","SPECIAL_NEEDS":" ","Pet_Friendly":"Yes","Does_not_meet_ARC_4496":" ","Survey_Needed":"Yes"}},{"type":"Feature","id":95,"geometry":{"type":"Point","coordinates":[-80.231194919645489,27.143050322395695]},"properties":{"OBJECTID":95,"Name":"Willoughby Learning Center","Address":"5151 SE Willoughby Blvd","City":"Stuart","Zip":"34997","COUNTY":"MARTIN","X":-80.231194919999993,"Y":27.14305032,"LONGLAT":"-80.23119492, 27.14305032","USNG":"17R NL 76181 02512","FACILITY_TYPE":"SHELTER","SHELTER_TYPE":"RISK","RPC_Region":"9","Year_Built":"1998","Building":"Main","AS_IS_A_Retrofit_R":"R","Generator_Type":" ","PreMitigation_Capacity_Spaces":0,"PreMitigation_Square_Footage":0,"EHPA_Capacity_Gained_Spaces":0,"EHPA_Square_Footage_Gained":0,"Retrofit_Capacity_Gained_Spaces":591,"Retrofit_Square_Footage_Gained":11813,"Risk_Capacity_Spaces":591,"Risk_Square_Footage":11813,"Planned_Usage_Spaces":0,"FundingSource_F_Federal_State_S":" ","Evacuation_Zone":"No","SURGE_ZONE":"No","FLOOD_ZONE":"No","EHPA":"No","General_Pop":"Yes","SPECIAL_NEEDS":" ","Pet_Friendly":"Yes","Does_not_meet_ARC_4496":" ","Survey_Needed":" "}},{"type":"Feature","id":96,"geometry":{"type":"Point","coordinates":[-80.371726974763362,25.747971983251997]},"properties":{"OBJECTID":96,"Name":"E. Darwin Fuchs Pavillion","Address":"10901 SW 24th St","City":"Miami","Zip":"33165","COUNTY":"MIAMI-DADE","X":-80.371726969999997,"Y":25.747971979999999,"LONGLAT":"-80.37172697, 25.74797198","USNG":"17R NJ 63010 47923","FACILITY_TYPE":"SHELTER","SHELTER_TYPE":"RISK","RPC_Region":"10","Year_Built":"1998","Building":"16","AS_IS_A_Retrofit_R":"A","Generator_Type":" ","PreMitigation_Capacity_Spaces":0,"PreMitigation_Square_Footage":0,"EHPA_Capacity_Gained_Spaces":0,"EHPA_Square_Footage_Gained":0,"Retrofit_Capacity_Gained_Spaces":0,"Retrofit_Square_Footage_Gained":0,"Risk_Capacity_Spaces":2109,"Risk_Square_Footage":42189,"Planned_Usage_Spaces":0,"FundingSource_F_Federal_State_S":" ","Evacuation_Zone":"E","SURGE_ZONE":"No","FLOOD_ZONE":"AH","EHPA":"No","General_Pop":"Yes","SPECIAL_NEEDS":" ","Pet_Friendly":"Yes","Does_not_meet_ARC_4496":" ","Survey_Needed":" "}},{"type":"Feature","id":97,"geometry":{"type":"Point","coordinates":[-80.173338977994547,25.971483017428014]},"properties":{"OBJECTID":97,"Name":"Dr Michael M Krop HS","Address":"1410 NE 215th St","City":"Miami","Zip":"33179","COUNTY":"MIAMI-DADE","X":-80.173338979999997,"Y":25.971483020000001,"LONGLAT":"-80.17333898, 25.97148302","USNG":"17R NJ 82752 72787","FACILITY_TYPE":"SHELTER","SHELTER_TYPE":"RISK","RPC_Region":"10","Year_Built":"1996","Building":"3 (area F3A) Classroom","AS_IS_A_Retrofit_R":"A","Generator_Type":"235 kW","PreMitigation_Capacity_Spaces":0,"PreMitigation_Square_Footage":0,"EHPA_Capacity_Gained_Spaces":0,"EHPA_Square_Footage_Gained":0,"Retrofit_Capacity_Gained_Spaces":0,"Retrofit_Square_Footage_Gained":0,"Risk_Capacity_Spaces":183,"Risk_Square_Footage":3668,"Planned_Usage_Spaces":183,"FundingSource_F_Federal_State_S":" ","Evacuation_Zone":"C","SURGE_ZONE":"No","FLOOD_ZONE":"No","EHPA":"No","General_Pop":"Yes","SPECIAL_NEEDS":" ","Pet_Friendly":"Yes","Does_not_meet_ARC_4496":" ","Survey_Needed":" "}},{"type":"Feature","id":98,"geometry":{"type":"Point","coordinates":[-81.640632032277864,30.632627983165147]},"properties":{"OBJECTID":98,"Name":"Wildlight ES","Address":"550 Curiosity Ave","City":"Yulee","Zip":"32097","COUNTY":"NASSAU","X":-81.640632030000006,"Y":30.632627979999999,"LONGLAT":"-81.64063203, 30.63262798","USNG":"17R MP 38607 89063","FACILITY_TYPE":"SHELTER","SHELTER_TYPE":"RISK","RPC_Region":"4","Year_Built":"2017","Building":"1 Admin / Art","AS_IS_A_Retrofit_R":"A","Generator_Type":" ","PreMitigation_Capacity_Spaces":0,"PreMitigation_Square_Footage":0,"EHPA_Capacity_Gained_Spaces":52,"EHPA_Square_Footage_Gained":3143,"Retrofit_Capacity_Gained_Spaces":0,"Retrofit_Square_Footage_Gained":0,"Risk_Capacity_Spaces":52,"Risk_Square_Footage":3143,"Planned_Usage_Spaces":0,"FundingSource_F_Federal_State_S":" ","Evacuation_Zone":"No","SURGE_ZONE":"No","FLOOD_ZONE":"No","EHPA":"Yes","General_Pop":" ","SPECIAL_NEEDS":"Yes","Pet_Friendly":"Yes","Does_not_meet_ARC_4496":" ","Survey_Needed":"Yes"}},{"type":"Feature","id":99,"geometry":{"type":"Point","coordinates":[-81.839453039148992,30.570143996012426]},"properties":{"OBJECTID":99,"Name":"Callahan MS","Address":"450121 Old Dixie Hwy","City":"Callahan","Zip":"32011","COUNTY":"NASSAU","X":-81.839453039999995,"Y":30.570143999999999,"LONGLAT":"-81.83945304, 30.57014400","USNG":"17R MP 19502 82264","FACILITY_TYPE":"SHELTER","SHELTER_TYPE":"RISK","RPC_Region":"4","Year_Built":"1982","Building":"15 Cafeteria","AS_IS_A_Retrofit_R":"A","Generator_Type":"Yes, unknown kW","PreMitigation_Capacity_Spaces":0,"PreMitigation_Square_Footage":0,"EHPA_Capacity_Gained_Spaces":398,"EHPA_Square_Footage_Gained":7952,"Retrofit_Capacity_Gained_Spaces":0,"Retrofit_Square_Footage_Gained":0,"Risk_Capacity_Spaces":398,"Risk_Square_Footage":7952,"Planned_Usage_Spaces":311,"FundingSource_F_Federal_State_S":" ","Evacuation_Zone":"No","SURGE_ZONE":"No","FLOOD_ZONE":"No","EHPA":"Yes","General_Pop":"Yes","SPECIAL_NEEDS":" ","Pet_Friendly":"Yes","Does_not_meet_ARC_4496":" ","Survey_Needed":" "}},{"type":"Feature","id":100,"geometry":{"type":"Point","coordinates":[-81.640632032277864,30.632627983165147]},"properties":{"OBJECTID":100,"Name":"Wildlight ES","Address":"550 Curiosity Ave","City":"Yulee","Zip":"32097","COUNTY":"NASSAU","X":-81.640632030000006,"Y":30.632627979999999,"LONGLAT":"-81.64063203, 30.63262798","USNG":"17R MP 38607 89063","FACILITY_TYPE":"SHELTER","SHELTER_TYPE":"RISK","RPC_Region":"4","Year_Built":"2017","Building":"2 Cafeteria","AS_IS_A_Retrofit_R":"A","Generator_Type":" ","PreMitigation_Capacity_Spaces":0,"PreMitigation_Square_Footage":0,"EHPA_Capacity_Gained_Spaces":100,"EHPA_Square_Footage_Gained":6027,"Retrofit_Capacity_Gained_Spaces":0,"Retrofit_Square_Footage_Gained":0,"Risk_Capacity_Spaces":100,"Risk_Square_Footage":6027,"Planned_Usage_Spaces":0,"FundingSource_F_Federal_State_S":" ","Evacuation_Zone":"No","SURGE_ZONE":"No","FLOOD_ZONE":"No","EHPA":"Yes","General_Pop":" ","SPECIAL_NEEDS":"Yes","Pet_Friendly":"Yes","Does_not_meet_ARC_4496":" ","Survey_Needed":" "}},{"type":"Feature","id":101,"geometry":{"type":"Point","coordinates":[-86.562030020153742,30.794098013474915]},"properties":{"OBJECTID":101,"Name":"Davidson MS","Address":"6261 Old Bethel Rd","City":"Crestview","Zip":"32536","COUNTY":"OKALOOSA","X":-86.562030019999995,"Y":30.794098009999999,"LONGLAT":"-86.56203002, 30.79409801","USNG":"16R EV 41901 06865","FACILITY_TYPE":"SHELTER","SHELTER_TYPE":"RISK","RPC_Region":"1","Year_Built":"1997","Building":"1A Main","AS_IS_A_Retrofit_R":"R","Generator_Type":"Yes, unknown kW","PreMitigation_Capacity_Spaces":0,"PreMitigation_Square_Footage":0,"EHPA_Capacity_Gained_Spaces":0,"EHPA_Square_Footage_Gained":0,"Retrofit_Capacity_Gained_Spaces":82,"Retrofit_Square_Footage_Gained":4920,"Risk_Capacity_Spaces":82,"Risk_Square_Footage":4920,"Planned_Usage_Spaces":82,"FundingSource_F_Federal_State_S":"S","Evacuation_Zone":"No","SURGE_ZONE":"No","FLOOD_ZONE":"No","EHPA":"No","General_Pop":" ","SPECIAL_NEEDS":"Yes","Pet_Friendly":"Yes","Does_not_meet_ARC_4496":" ","Survey_Needed":" "}},{"type":"Feature","id":102,"geometry":{"type":"Point","coordinates":[-86.611562038670456,30.714988983453143]},"properties":{"OBJECTID":102,"Name":"Antioch ES","Address":"4700 Whitehurst Ln","City":"Crestview","Zip":"32536","COUNTY":"OKALOOSA","X":-86.611562039999995,"Y":30.714988980000001,"LONGLAT":"-86.61156204, 30.71498898","USNG":"16R EU 37192 98080","FACILITY_TYPE":"SHELTER","SHELTER_TYPE":"RISK","RPC_Region":"1","Year_Built":"1997","Building":"1 Main","AS_IS_A_Retrofit_R":"R","Generator_Type":" ","PreMitigation_Capacity_Spaces":0,"PreMitigation_Square_Footage":0,"EHPA_Capacity_Gained_Spaces":0,"EHPA_Square_Footage_Gained":0,"Retrofit_Capacity_Gained_Spaces":1303,"Retrofit_Square_Footage_Gained":26058,"Risk_Capacity_Spaces":1303,"Risk_Square_Footage":26058,"Planned_Usage_Spaces":1737,"FundingSource_F_Federal_State_S":"S-1467-2004","Evacuation_Zone":"No","SURGE_ZONE":"No","FLOOD_ZONE":"No","EHPA":"No","General_Pop":"Yes","SPECIAL_NEEDS":" ","Pet_Friendly":"Yes","Does_not_meet_ARC_4496":" ","Survey_Needed":" "}},{"type":"Feature","id":103,"geometry":{"type":"Point","coordinates":[-86.562030020153742,30.794098013474915]},"properties":{"OBJECTID":103,"Name":"Davidson MS","Address":"6261 Old Bethel Rd","City":"Crestview","Zip":"32536","COUNTY":"OKALOOSA","X":-86.562030019999995,"Y":30.794098009999999,"LONGLAT":"-86.56203002, 30.79409801","USNG":"16R EV 41901 06865","FACILITY_TYPE":"SHELTER","SHELTER_TYPE":"RISK","RPC_Region":"1","Year_Built":"1997","Building":"1 Main","AS_IS_A_Retrofit_R":"R","Generator_Type":" ","PreMitigation_Capacity_Spaces":0,"PreMitigation_Square_Footage":0,"EHPA_Capacity_Gained_Spaces":0,"EHPA_Square_Footage_Gained":0,"Retrofit_Capacity_Gained_Spaces":2305,"Retrofit_Square_Footage_Gained":46100,"Risk_Capacity_Spaces":2305,"Risk_Square_Footage":46100,"Planned_Usage_Spaces":3267,"FundingSource_F_Federal_State_S":"S","Evacuation_Zone":"No","SURGE_ZONE":"No","FLOOD_ZONE":"No","EHPA":"No","General_Pop":"Yes","SPECIAL_NEEDS":" ","Pet_Friendly":"Yes","Does_not_meet_ARC_4496":" ","Survey_Needed":" "}},{"type":"Feature","id":104,"geometry":{"type":"Point","coordinates":[-81.449071010932784,28.581167993412617]},"properties":{"OBJECTID":104,"Name":"Evans HS","Address":"4949 Silver Star Rd","City":"Orlando","Zip":"32808","COUNTY":"ORANGE","X":-81.449071009999997,"Y":28.581167990000001,"LONGLAT":"-81.44907101, 28.58116799","USNG":"17R MM 56085 61666","FACILITY_TYPE":"SHELTER","SHELTER_TYPE":"RISK","RPC_Region":"5","Year_Built":"2011","Building":"400 Gym","AS_IS_A_Retrofit_R":"A","Generator_Type":"400 kW","PreMitigation_Capacity_Spaces":0,"PreMitigation_Square_Footage":0,"EHPA_Capacity_Gained_Spaces":756,"EHPA_Square_Footage_Gained":15126,"Retrofit_Capacity_Gained_Spaces":0,"Retrofit_Square_Footage_Gained":0,"Risk_Capacity_Spaces":756,"Risk_Square_Footage":15126,"Planned_Usage_Spaces":0,"FundingSource_F_Federal_State_S":" ","Evacuation_Zone":"No","SURGE_ZONE":"No","FLOOD_ZONE":"No","EHPA":"Yes","General_Pop":"Yes","SPECIAL_NEEDS":" ","Pet_Friendly":"Yes","Does_not_meet_ARC_4496":" ","Survey_Needed":" "}},{"type":"Feature","id":105,"geometry":{"type":"Point","coordinates":[-81.567908964086101,28.540560019165355]},"properties":{"OBJECTID":105,"Name":"West Orange HS","Address":"1625 Beaulah Rd","City":"Winter Garden","Zip":"32787","COUNTY":"ORANGE","X":-81.567908959999997,"Y":28.540560020000001,"LONGLAT":"-81.56790896, 28.54056002","USNG":"17R MM 44442 57216","FACILITY_TYPE":"SHELTER","SHELTER_TYPE":"RISK","RPC_Region":"5","Year_Built":"2008","Building":"3 Gym","AS_IS_A_Retrofit_R":"A","Generator_Type":"335 kW","PreMitigation_Capacity_Spaces":0,"PreMitigation_Square_Footage":0,"EHPA_Capacity_Gained_Spaces":906,"EHPA_Square_Footage_Gained":18122,"Retrofit_Capacity_Gained_Spaces":0,"Retrofit_Square_Footage_Gained":0,"Risk_Capacity_Spaces":906,"Risk_Square_Footage":18122,"Planned_Usage_Spaces":0,"FundingSource_F_Federal_State_S":"L","Evacuation_Zone":"No","SURGE_ZONE":"No","FLOOD_ZONE":"No","EHPA":"Yes","General_Pop":"Yes","SPECIAL_NEEDS":" ","Pet_Friendly":"Yes","Does_not_meet_ARC_4496":" ","Survey_Needed":" "}},{"type":"Feature","id":106,"geometry":{"type":"Point","coordinates":[-81.385994005110788,28.47005199544439]},"properties":{"OBJECTID":106,"Name":"Oak Ridge HS","Address":"700 W Oak Ridge Rd","City":"Orlando","Zip":"32809","COUNTY":"ORANGE","X":-81.385994010000005,"Y":28.470051999999999,"LONGLAT":"-81.38599401, 28.47005200","USNG":"17R MM 62213 49334","FACILITY_TYPE":"SHELTER","SHELTER_TYPE":"RISK","RPC_Region":"5","Year_Built":"2011","Building":"7 Gym","AS_IS_A_Retrofit_R":"A","Generator_Type":" ","PreMitigation_Capacity_Spaces":0,"PreMitigation_Square_Footage":0,"EHPA_Capacity_Gained_Spaces":759,"EHPA_Square_Footage_Gained":15170,"Retrofit_Capacity_Gained_Spaces":0,"Retrofit_Square_Footage_Gained":0,"Risk_Capacity_Spaces":759,"Risk_Square_Footage":15170,"Planned_Usage_Spaces":468,"FundingSource_F_Federal_State_S":" ","Evacuation_Zone":"No","SURGE_ZONE":"No","FLOOD_ZONE":"No","EHPA":"Yes","General_Pop":"Yes","SPECIAL_NEEDS":" ","Pet_Friendly":"Yes","Does_not_meet_ARC_4496":" ","Survey_Needed":"Yes"}},{"type":"Feature","id":107,"geometry":{"type":"Point","coordinates":[-81.391370995714027,28.580194016220325]},"properties":{"OBJECTID":107,"Name":"Edgewater HS","Address":"3100 Edgewater Dr","City":"Orlando","Zip":"32804","COUNTY":"ORANGE","X":-81.391371000000007,"Y":28.58019402,"LONGLAT":"-81.39137100, 28.58019402","USNG":"17R MM 61727 61538","FACILITY_TYPE":"SHELTER","SHELTER_TYPE":"RISK","RPC_Region":"5","Year_Built":"2010","Building":"6 Gym","AS_IS_A_Retrofit_R":"A","Generator_Type":" ","PreMitigation_Capacity_Spaces":0,"PreMitigation_Square_Footage":0,"EHPA_Capacity_Gained_Spaces":737,"EHPA_Square_Footage_Gained":14731,"Retrofit_Capacity_Gained_Spaces":0,"Retrofit_Square_Footage_Gained":0,"Risk_Capacity_Spaces":737,"Risk_Square_Footage":14731,"Planned_Usage_Spaces":566,"FundingSource_F_Federal_State_S":" ","Evacuation_Zone":"No","SURGE_ZONE":"No","FLOOD_ZONE":"No","EHPA":"Yes","General_Pop":"Yes","SPECIAL_NEEDS":" ","Pet_Friendly":"Yes","Does_not_meet_ARC_4496":" ","Survey_Needed":" "}},{"type":"Feature","id":108,"geometry":{"type":"Point","coordinates":[-81.149898201714095,28.531662125105708]},"properties":{"OBJECTID":108,"Name":"Timber Creek HS","Address":"1001 Avalon Park S Blvd","City":"Orlando","Zip":"32828","COUNTY":"ORANGE","X":-81.149898199999996,"Y":28.531662130000001,"LONGLAT":"-81.14989820, 28.53166213","USNG":"17R MM 85334 56108","FACILITY_TYPE":"SHELTER","SHELTER_TYPE":"RISK","RPC_Region":"5","Year_Built":"1999","Building":"3 Gym","AS_IS_A_Retrofit_R":"A","Generator_Type":"300 kW","PreMitigation_Capacity_Spaces":0,"PreMitigation_Square_Footage":0,"EHPA_Capacity_Gained_Spaces":959,"EHPA_Square_Footage_Gained":19185,"Retrofit_Capacity_Gained_Spaces":0,"Retrofit_Square_Footage_Gained":0,"Risk_Capacity_Spaces":959,"Risk_Square_Footage":19185,"Planned_Usage_Spaces":752,"FundingSource_F_Federal_State_S":" ","Evacuation_Zone":"No","SURGE_ZONE":"No","FLOOD_ZONE":"No","EHPA":"Yes","General_Pop":"Yes","SPECIAL_NEEDS":" ","Pet_Friendly":"Yes","Does_not_meet_ARC_4496":" ","Survey_Needed":" "}},{"type":"Feature","id":109,"geometry":{"type":"Point","coordinates":[-81.245472990960621,28.38071000106477]},"properties":{"OBJECTID":109,"Name":"Lake Nona HS","Address":"12500 Narcoossee Rd","City":"Orlando","Zip":"32832","COUNTY":"ORANGE","X":-81.245472989999996,"Y":28.380710000000001,"LONGLAT":"-81.24547299, 28.38071000","USNG":"17R MM 75949 39401","FACILITY_TYPE":"SHELTER","SHELTER_TYPE":"RISK","RPC_Region":"5","Year_Built":"2009","Building":"3 Gym","AS_IS_A_Retrofit_R":"A","Generator_Type":" ","PreMitigation_Capacity_Spaces":0,"PreMitigation_Square_Footage":0,"EHPA_Capacity_Gained_Spaces":950,"EHPA_Square_Footage_Gained":18999,"Retrofit_Capacity_Gained_Spaces":0,"Retrofit_Square_Footage_Gained":0,"Risk_Capacity_Spaces":950,"Risk_Square_Footage":18999,"Planned_Usage_Spaces":950,"FundingSource_F_Federal_State_S":" ","Evacuation_Zone":"No","SURGE_ZONE":"No","FLOOD_ZONE":"No","EHPA":"Yes","General_Pop":"Yes","SPECIAL_NEEDS":" ","Pet_Friendly":"Yes","Does_not_meet_ARC_4496":" ","Survey_Needed":"Yes"}},{"type":"Feature","id":110,"geometry":{"type":"Point","coordinates":[-81.478290995770038,28.472768989275696]},"properties":{"OBJECTID":110,"Name":"Dr. Phillips HS","Address":"6500 Turkey Lake Rd","City":"Orlando","Zip":"32819","COUNTY":"ORANGE","X":-81.478290999999999,"Y":28.472768989999999,"LONGLAT":"-81.47829100, 28.47276899","USNG":"17R MM 53179 49668","FACILITY_TYPE":"SHELTER","SHELTER_TYPE":"RISK","RPC_Region":"5","Year_Built":"1986","Building":"600 Gym","AS_IS_A_Retrofit_R":"R","Generator_Type":" ","PreMitigation_Capacity_Spaces":0,"PreMitigation_Square_Footage":0,"EHPA_Capacity_Gained_Spaces":710,"EHPA_Square_Footage_Gained":14190,"Retrofit_Capacity_Gained_Spaces":0,"Retrofit_Square_Footage_Gained":0,"Risk_Capacity_Spaces":710,"Risk_Square_Footage":14190,"Planned_Usage_Spaces":710,"FundingSource_F_Federal_State_S":" ","Evacuation_Zone":"No","SURGE_ZONE":"No","FLOOD_ZONE":"No","EHPA":"Yes","General_Pop":"Yes","SPECIAL_NEEDS":" ","Pet_Friendly":"Yes","Does_not_meet_ARC_4496":" ","Survey_Needed":"Yes"}},{"type":"Feature","id":111,"geometry":{"type":"Point","coordinates":[-81.522044027938477,28.692271000412156]},"properties":{"OBJECTID":111,"Name":"Apopka HS","Address":"555 Martin St","City":"Apopka","Zip":"32712","COUNTY":"ORANGE","X":-81.522044030000004,"Y":28.692271000000002,"LONGLAT":"-81.52204403, 28.69227100","USNG":"17R MM 49002 74004","FACILITY_TYPE":"SHELTER","SHELTER_TYPE":"RISK","RPC_Region":"5","Year_Built":"2010","Building":"300 Gym","AS_IS_A_Retrofit_R":"A","Generator_Type":"300 kW","PreMitigation_Capacity_Spaces":0,"PreMitigation_Square_Footage":0,"EHPA_Capacity_Gained_Spaces":645,"EHPA_Square_Footage_Gained":12895,"Retrofit_Capacity_Gained_Spaces":0,"Retrofit_Square_Footage_Gained":0,"Risk_Capacity_Spaces":645,"Risk_Square_Footage":12895,"Planned_Usage_Spaces":759,"FundingSource_F_Federal_State_S":" ","Evacuation_Zone":"No","SURGE_ZONE":"No","FLOOD_ZONE":"No","EHPA":"Yes","General_Pop":"Yes","SPECIAL_NEEDS":" ","Pet_Friendly":"Yes","Does_not_meet_ARC_4496":" ","Survey_Needed":"Yes"}},{"type":"Feature","id":112,"geometry":{"type":"Point","coordinates":[-81.50840011292027,28.49799597649524]},"properties":{"OBJECTID":112,"Name":"Olympia HS","Address":"4300 S Apopka Vineland Rd","City":"Orlando","Zip":"32837","COUNTY":"ORANGE","X":-81.508400109999997,"Y":28.497995979999999,"LONGLAT":"-81.50840011, 28.49799598","USNG":"17R MM 50244 52475","FACILITY_TYPE":"SHELTER","SHELTER_TYPE":"RISK","RPC_Region":"5","Year_Built":"1999","Building":"3 Gym","AS_IS_A_Retrofit_R":"A","Generator_Type":" ","PreMitigation_Capacity_Spaces":0,"PreMitigation_Square_Footage":0,"EHPA_Capacity_Gained_Spaces":293,"EHPA_Square_Footage_Gained":17562,"Retrofit_Capacity_Gained_Spaces":0,"Retrofit_Square_Footage_Gained":0,"Risk_Capacity_Spaces":293,"Risk_Square_Footage":17562,"Planned_Usage_Spaces":293,"FundingSource_F_Federal_State_S":" ","Evacuation_Zone":"No","SURGE_ZONE":"No","FLOOD_ZONE":"No","EHPA":"Yes","General_Pop":" ","SPECIAL_NEEDS":"Yes","Pet_Friendly":"Yes","Does_not_meet_ARC_4496":" ","Survey_Needed":" "}},{"type":"Feature","id":113,"geometry":{"type":"Point","coordinates":[-81.55753501766884,28.600225005408699]},"properties":{"OBJECTID":113,"Name":"Ocoee HS","Address":"1925 Ocoee Crown Point Pkwy","City":"Ocoee","Zip":"34761","COUNTY":"ORANGE","X":-81.557535020000003,"Y":28.600225009999999,"LONGLAT":"-81.55753502, 28.60022501","USNG":"17R MM 45488 63822","FACILITY_TYPE":"SHELTER","SHELTER_TYPE":"RISK","RPC_Region":"5","Year_Built":"2005","Building":"3 Gym","AS_IS_A_Retrofit_R":"A","Generator_Type":" ","PreMitigation_Capacity_Spaces":0,"PreMitigation_Square_Footage":0,"EHPA_Capacity_Gained_Spaces":943,"EHPA_Square_Footage_Gained":18855,"Retrofit_Capacity_Gained_Spaces":0,"Retrofit_Square_Footage_Gained":0,"Risk_Capacity_Spaces":943,"Risk_Square_Footage":18855,"Planned_Usage_Spaces":943,"FundingSource_F_Federal_State_S":" ","Evacuation_Zone":"No","SURGE_ZONE":"No","FLOOD_ZONE":"No","EHPA":"Yes","General_Pop":"Yes","SPECIAL_NEEDS":" ","Pet_Friendly":"Yes","Does_not_meet_ARC_4496":" ","Survey_Needed":" "}},{"type":"Feature","id":114,"geometry":{"type":"Point","coordinates":[-81.213557698812224,28.579872044441554]},"properties":{"OBJECTID":114,"Name":"University HS","Address":"2451 Cougar Way","City":"Orlando","Zip":"32817","COUNTY":"ORANGE","X":-81.213557699999996,"Y":28.579872049999999,"LONGLAT":"-81.21355770, 28.57987205","USNG":"17R MM 79115 61459","FACILITY_TYPE":"SHELTER","SHELTER_TYPE":"RISK","RPC_Region":"5","Year_Built":"1991","Building":"3 Gym","AS_IS_A_Retrofit_R":"R","Generator_Type":"600 kW","PreMitigation_Capacity_Spaces":0,"PreMitigation_Square_Footage":0,"EHPA_Capacity_Gained_Spaces":0,"EHPA_Square_Footage_Gained":0,"Retrofit_Capacity_Gained_Spaces":1178,"Retrofit_Square_Footage_Gained":23560,"Risk_Capacity_Spaces":1178,"Risk_Square_Footage":23560,"Planned_Usage_Spaces":0,"FundingSource_F_Federal_State_S":" ","Evacuation_Zone":"No","SURGE_ZONE":"No","FLOOD_ZONE":"No","EHPA":"No","General_Pop":"Yes","SPECIAL_NEEDS":" ","Pet_Friendly":"Yes","Does_not_meet_ARC_4496":" ","Survey_Needed":" "}},{"type":"Feature","id":115,"geometry":{"type":"Point","coordinates":[-81.443013996807707,28.163531998104517]},"properties":{"OBJECTID":115,"Name":"Liberty HS","Address":"4250 Pleasant Hill Rd","City":"Kissimmee","Zip":"34746","COUNTY":"OSCEOLA","X":-81.443014000000005,"Y":28.163532,"LONGLAT":"-81.44301400, 28.16353200","USNG":"17R MM 56507 15397","FACILITY_TYPE":"SHELTER","SHELTER_TYPE":"RISK","RPC_Region":"5","Year_Built":"2007","Building":"4 Gym","AS_IS_A_Retrofit_R":"A","Generator_Type":" ","PreMitigation_Capacity_Spaces":0,"PreMitigation_Square_Footage":0,"EHPA_Capacity_Gained_Spaces":0,"EHPA_Square_Footage_Gained":0,"Retrofit_Capacity_Gained_Spaces":1080,"Retrofit_Square_Footage_Gained":21604,"Risk_Capacity_Spaces":1080,"Risk_Square_Footage":21604,"Planned_Usage_Spaces":892,"FundingSource_F_Federal_State_S":"L","Evacuation_Zone":"No","SURGE_ZONE":"No","FLOOD_ZONE":"No","EHPA":"No","General_Pop":"Yes","SPECIAL_NEEDS":" ","Pet_Friendly":"Yes","Does_not_meet_ARC_4496":" ","Survey_Needed":" "}},{"type":"Feature","id":116,"geometry":{"type":"Point","coordinates":[-81.152856983950215,28.188221020189363]},"properties":{"OBJECTID":116,"Name":"Harmony HS","Address":"3601 Arthur J Gallagher Blvd","City":"St. Cloud","Zip":"34771","COUNTY":"OSCEOLA","X":-81.152856979999996,"Y":28.18822102,"LONGLAT":"-81.15285698, 28.18822102","USNG":"17R MM 84996 18062","FACILITY_TYPE":"SHELTER","SHELTER_TYPE":"RISK","RPC_Region":"5","Year_Built":"2002","Building":"2 Gym","AS_IS_A_Retrofit_R":"R","Generator_Type":" ","PreMitigation_Capacity_Spaces":0,"PreMitigation_Square_Footage":0,"EHPA_Capacity_Gained_Spaces":1076,"EHPA_Square_Footage_Gained":21517,"Retrofit_Capacity_Gained_Spaces":0,"Retrofit_Square_Footage_Gained":0,"Risk_Capacity_Spaces":1076,"Risk_Square_Footage":21517,"Planned_Usage_Spaces":1076,"FundingSource_F_Federal_State_S":"S-1508-2005","Evacuation_Zone":"No","SURGE_ZONE":"No","FLOOD_ZONE":"No","EHPA":"Yes","General_Pop":"Yes","SPECIAL_NEEDS":" ","Pet_Friendly":"Yes","Does_not_meet_ARC_4496":" ","Survey_Needed":" "}},{"type":"Feature","id":117,"geometry":{"type":"Point","coordinates":[-80.141136040787458,26.560004980340874]},"properties":{"OBJECTID":117,"Name":"West Boynton Rec Center","Address":"6000 Northtree Blvd","City":"Lake Worth","Zip":"33463","COUNTY":"PALM BEACH","X":-80.141136040000006,"Y":26.560004979999999,"LONGLAT":"-80.14113604, 26.56000498","USNG":"17R NK 85543 37989","FACILITY_TYPE":"SHELTER","SHELTER_TYPE":"RISK","RPC_Region":"9","Year_Built":"0","Building":" ","AS_IS_A_Retrofit_R":"A","Generator_Type":" ","PreMitigation_Capacity_Spaces":0,"PreMitigation_Square_Footage":0,"EHPA_Capacity_Gained_Spaces":4800,"EHPA_Square_Footage_Gained":4800,"Retrofit_Capacity_Gained_Spaces":0,"Retrofit_Square_Footage_Gained":0,"Risk_Capacity_Spaces":240,"Risk_Square_Footage":4800,"Planned_Usage_Spaces":240,"FundingSource_F_Federal_State_S":" ","Evacuation_Zone":"No","SURGE_ZONE":"No","FLOOD_ZONE":"No","EHPA":"Yes","General_Pop":"Yes","SPECIAL_NEEDS":" ","Pet_Friendly":"Yes","Does_not_meet_ARC_4496":" ","Survey_Needed":" "}},{"type":"Feature","id":118,"geometry":{"type":"Point","coordinates":[-82.785480982699809,27.919865002361174]},"properties":{"OBJECTID":118,"Name":"Largo HS","Address":"410 Missouri Ave N","City":"Largo","Zip":"33770","COUNTY":"PINELLAS","X":-82.785480980000003,"Y":27.919865000000001,"LONGLAT":"-82.78548098, 27.91986500","USNG":"17R LL 24301 89607","FACILITY_TYPE":"SHELTER","SHELTER_TYPE":"RISK","RPC_Region":"7","Year_Built":"2015","Building":"3 Gym / Cafeteria","AS_IS_A_Retrofit_R":"A","Generator_Type":" ","PreMitigation_Capacity_Spaces":0,"PreMitigation_Square_Footage":0,"EHPA_Capacity_Gained_Spaces":0,"EHPA_Square_Footage_Gained":0,"Retrofit_Capacity_Gained_Spaces":1124,"Retrofit_Square_Footage_Gained":22477,"Risk_Capacity_Spaces":1124,"Risk_Square_Footage":22477,"Planned_Usage_Spaces":1834,"FundingSource_F_Federal_State_S":"L","Evacuation_Zone":"No","SURGE_ZONE":"No","FLOOD_ZONE":"No","EHPA":"No","General_Pop":"Yes","SPECIAL_NEEDS":" ","Pet_Friendly":"Yes","Does_not_meet_ARC_4496":" ","Survey_Needed":" "}},{"type":"Feature","id":119,"geometry":{"type":"Point","coordinates":[-82.762611965790001,28.085655986915178]},"properties":{"OBJECTID":119,"Name":"Palm Harbor University HS","Address":"1900 Omaha St","City":"Palm Harbor","Zip":"34683","COUNTY":"PINELLAS","X":-82.762611969999995,"Y":28.085655989999999,"LONGLAT":"-82.76261197, 28.08565599","USNG":"17R LM 26817 07945","FACILITY_TYPE":"SHELTER","SHELTER_TYPE":"RISK","RPC_Region":"7","Year_Built":"1995","Building":"5 Classroom","AS_IS_A_Retrofit_R":"R","Generator_Type":" ","PreMitigation_Capacity_Spaces":0,"PreMitigation_Square_Footage":0,"EHPA_Capacity_Gained_Spaces":0,"EHPA_Square_Footage_Gained":0,"Retrofit_Capacity_Gained_Spaces":502,"Retrofit_Square_Footage_Gained":10037,"Risk_Capacity_Spaces":502,"Risk_Square_Footage":10037,"Planned_Usage_Spaces":0,"FundingSource_F_Federal_State_S":"HMGP","Evacuation_Zone":"No","SURGE_ZONE":"No","FLOOD_ZONE":"No","EHPA":"No","General_Pop":"Yes","SPECIAL_NEEDS":" ","Pet_Friendly":"Yes","Does_not_meet_ARC_4496":" ","Survey_Needed":" "}},{"type":"Feature","id":120,"geometry":{"type":"Point","coordinates":[-82.678339976102833,27.761560019914562]},"properties":{"OBJECTID":120,"Name":"Gibbs Senior HS","Address":"850 34th St S","City":"St. Petersburg","Zip":"33711","COUNTY":"PINELLAS","X":-82.678339980000004,"Y":27.761560020000001,"LONGLAT":"-82.67833998, 27.76156002","USNG":"17R LL 34606 71918","FACILITY_TYPE":"SHELTER","SHELTER_TYPE":"RISK","RPC_Region":"7","Year_Built":"2003","Building":"2 Classroom","AS_IS_A_Retrofit_R":"R","Generator_Type":" ","PreMitigation_Capacity_Spaces":0,"PreMitigation_Square_Footage":0,"EHPA_Capacity_Gained_Spaces":0,"EHPA_Square_Footage_Gained":0,"Retrofit_Capacity_Gained_Spaces":0,"Retrofit_Square_Footage_Gained":0,"Risk_Capacity_Spaces":2060,"Risk_Square_Footage":41192,"Planned_Usage_Spaces":237,"FundingSource_F_Federal_State_S":"L","Evacuation_Zone":"No","SURGE_ZONE":"No","FLOOD_ZONE":"No","EHPA":"No","General_Pop":"Yes","SPECIAL_NEEDS":" ","Pet_Friendly":"Yes","Does_not_meet_ARC_4496":" ","Survey_Needed":" "}},{"type":"Feature","id":121,"geometry":{"type":"Point","coordinates":[-82.678339976102833,27.761560019914562]},"properties":{"OBJECTID":121,"Name":"Gibbs Senior HS","Address":"850 34th St S","City":"St. Petersburg","Zip":"33711","COUNTY":"PINELLAS","X":-82.678339980000004,"Y":27.761560020000001,"LONGLAT":"-82.67833998, 27.76156002","USNG":"17R LL 34606 71918","FACILITY_TYPE":"SHELTER","SHELTER_TYPE":"RISK","RPC_Region":"7","Year_Built":"2003","Building":"3 Gym","AS_IS_A_Retrofit_R":"R","Generator_Type":" ","PreMitigation_Capacity_Spaces":0,"PreMitigation_Square_Footage":0,"EHPA_Capacity_Gained_Spaces":0,"EHPA_Square_Footage_Gained":0,"Retrofit_Capacity_Gained_Spaces":0,"Retrofit_Square_Footage_Gained":0,"Risk_Capacity_Spaces":977,"Risk_Square_Footage":19544,"Planned_Usage_Spaces":238,"FundingSource_F_Federal_State_S":"L","Evacuation_Zone":"No","SURGE_ZONE":"No","FLOOD_ZONE":"No","EHPA":"No","General_Pop":"Yes","SPECIAL_NEEDS":" ","Pet_Friendly":"Yes","Does_not_meet_ARC_4496":" ","Survey_Needed":" "}},{"type":"Feature","id":122,"geometry":{"type":"Point","coordinates":[-82.679545010876126,27.761630985471928]},"properties":{"OBJECTID":122,"Name":"Gibbs Senior HS","Address":"853 34th St S","City":"St. Petersburg","Zip":"33711","COUNTY":"PINELLAS","X":-82.679545009999998,"Y":27.76163099,"LONGLAT":"-82.67954501, 27.76163099","USNG":"17R LL 34487 71927","FACILITY_TYPE":"SHELTER","SHELTER_TYPE":"RISK","RPC_Region":"7","Year_Built":"2003","Building":"4 Auditorium / Classroom","AS_IS_A_Retrofit_R":"R","Generator_Type":" ","PreMitigation_Capacity_Spaces":0,"PreMitigation_Square_Footage":0,"EHPA_Capacity_Gained_Spaces":0,"EHPA_Square_Footage_Gained":0,"Retrofit_Capacity_Gained_Spaces":0,"Retrofit_Square_Footage_Gained":0,"Risk_Capacity_Spaces":1373,"Risk_Square_Footage":27464,"Planned_Usage_Spaces":237,"FundingSource_F_Federal_State_S":"L","Evacuation_Zone":"No","SURGE_ZONE":"No","FLOOD_ZONE":"No","EHPA":"No","General_Pop":"Yes","SPECIAL_NEEDS":" ","Pet_Friendly":"Yes","Does_not_meet_ARC_4496":" ","Survey_Needed":" "}},{"type":"Feature","id":123,"geometry":{"type":"Point","coordinates":[-82.679545279278344,27.761612423394755]},"properties":{"OBJECTID":123,"Name":"Gibbs Senior HS","Address":"855 34th St S","City":"St. Petersburg","Zip":"33711","COUNTY":"PINELLAS","X":-82.679545279999999,"Y":27.761612419999999,"LONGLAT":"-82.67954528, 27.76161242","USNG":"17R LL 34487 71925","FACILITY_TYPE":"SHELTER","SHELTER_TYPE":"RISK","RPC_Region":"7","Year_Built":"2003","Building":"6 Cafeteria","AS_IS_A_Retrofit_R":"R","Generator_Type":" ","PreMitigation_Capacity_Spaces":0,"PreMitigation_Square_Footage":0,"EHPA_Capacity_Gained_Spaces":0,"EHPA_Square_Footage_Gained":0,"Retrofit_Capacity_Gained_Spaces":0,"Retrofit_Square_Footage_Gained":0,"Risk_Capacity_Spaces":394,"Risk_Square_Footage":7881,"Planned_Usage_Spaces":238,"FundingSource_F_Federal_State_S":"L","Evacuation_Zone":"No","SURGE_ZONE":"No","FLOOD_ZONE":"No","EHPA":"No","General_Pop":"Yes","SPECIAL_NEEDS":" ","Pet_Friendly":"Yes","Does_not_meet_ARC_4496":" ","Survey_Needed":" "}},{"type":"Feature","id":124,"geometry":{"type":"Point","coordinates":[-82.762611965790001,28.085655986915178]},"properties":{"OBJECTID":124,"Name":"Palm Harbor University HS","Address":"1900 Omaha St","City":"Palm Harbor","Zip":"34683","COUNTY":"PINELLAS","X":-82.762611969999995,"Y":28.085655989999999,"LONGLAT":"-82.76261197, 28.08565599","USNG":"17R LM 26817 07945","FACILITY_TYPE":"SHELTER","SHELTER_TYPE":"RISK","RPC_Region":"7","Year_Built":"1995","Building":"11 Classroom","AS_IS_A_Retrofit_R":"R","Generator_Type":" ","PreMitigation_Capacity_Spaces":0,"PreMitigation_Square_Footage":0,"EHPA_Capacity_Gained_Spaces":0,"EHPA_Square_Footage_Gained":0,"Retrofit_Capacity_Gained_Spaces":297,"Retrofit_Square_Footage_Gained":5936,"Risk_Capacity_Spaces":297,"Risk_Square_Footage":5936,"Planned_Usage_Spaces":0,"FundingSource_F_Federal_State_S":"HMGP","Evacuation_Zone":"No","SURGE_ZONE":"No","FLOOD_ZONE":"No","EHPA":"No","General_Pop":"Yes","SPECIAL_NEEDS":" ","Pet_Friendly":"Yes","Does_not_meet_ARC_4496":" ","Survey_Needed":" "}},{"type":"Feature","id":125,"geometry":{"type":"Point","coordinates":[-82.679292616142405,27.761335673527213]},"properties":{"OBJECTID":125,"Name":"Gibbs Senior HS","Address":"854 34th St S","City":"St. Petersburg","Zip":"33711","COUNTY":"PINELLAS","X":-82.679292619999998,"Y":27.761335670000001,"LONGLAT":"-82.67929262, 27.76133567","USNG":"17R LL 34511 71894","FACILITY_TYPE":"SHELTER","SHELTER_TYPE":"RISK","RPC_Region":"7","Year_Built":"2003","Building":"5 Classroom","AS_IS_A_Retrofit_R":"R","Generator_Type":" ","PreMitigation_Capacity_Spaces":0,"PreMitigation_Square_Footage":0,"EHPA_Capacity_Gained_Spaces":0,"EHPA_Square_Footage_Gained":0,"Retrofit_Capacity_Gained_Spaces":0,"Retrofit_Square_Footage_Gained":0,"Risk_Capacity_Spaces":799,"Risk_Square_Footage":15974,"Planned_Usage_Spaces":237,"FundingSource_F_Federal_State_S":"L","Evacuation_Zone":"No","SURGE_ZONE":"No","FLOOD_ZONE":"No","EHPA":"No","General_Pop":"Yes","SPECIAL_NEEDS":" ","Pet_Friendly":"Yes","Does_not_meet_ARC_4496":" ","Survey_Needed":" "}},{"type":"Feature","id":126,"geometry":{"type":"Point","coordinates":[-81.940196976927822,28.039633009992041]},"properties":{"OBJECTID":126,"Name":"Phillip O'Brien ES","Address":"1225 E Lime St","City":"Lakeland","Zip":"33801","COUNTY":"POLK","X":-81.940196979999996,"Y":28.039633009999999,"LONGLAT":"-81.94019698, 28.03963301","USNG":"17R MM 07588 01949","FACILITY_TYPE":"SHELTER","SHELTER_TYPE":"RISK","RPC_Region":"6","Year_Built":"2005","Building":"9 Classrooms","AS_IS_A_Retrofit_R":"A","Generator_Type":" ","PreMitigation_Capacity_Spaces":0,"PreMitigation_Square_Footage":0,"EHPA_Capacity_Gained_Spaces":298,"EHPA_Square_Footage_Gained":5960,"Retrofit_Capacity_Gained_Spaces":0,"Retrofit_Square_Footage_Gained":0,"Risk_Capacity_Spaces":298,"Risk_Square_Footage":5960,"Planned_Usage_Spaces":0,"FundingSource_F_Federal_State_S":"L","Evacuation_Zone":"No","SURGE_ZONE":"No","FLOOD_ZONE":"No","EHPA":"Yes","General_Pop":"Yes","SPECIAL_NEEDS":" ","Pet_Friendly":"Yes","Does_not_meet_ARC_4496":" ","Survey_Needed":" "}},{"type":"Feature","id":127,"geometry":{"type":"Point","coordinates":[-81.749414970098314,27.98022300351812]},"properties":{"OBJECTID":127,"Name":"Lake Region HS","Address":"1995 Thunder Rd","City":"Eagle Lake","Zip":"33839","COUNTY":"POLK","X":-81.749414970000004,"Y":27.980222999999999,"LONGLAT":"-81.74941497, 27.98022300","USNG":"17R ML 26300 95237","FACILITY_TYPE":"SHELTER","SHELTER_TYPE":"RISK","RPC_Region":"6","Year_Built":"1994","Building":"3 Library/Classroom","AS_IS_A_Retrofit_R":"R","Generator_Type":" ","PreMitigation_Capacity_Spaces":0,"PreMitigation_Square_Footage":0,"EHPA_Capacity_Gained_Spaces":159,"EHPA_Square_Footage_Gained":3172,"Retrofit_Capacity_Gained_Spaces":567,"Retrofit_Square_Footage_Gained":11336,"Risk_Capacity_Spaces":567,"Risk_Square_Footage":11336,"Planned_Usage_Spaces":0,"FundingSource_F_Federal_State_S":"S, F","Evacuation_Zone":"No","SURGE_ZONE":"No","FLOOD_ZONE":"No","EHPA":"Yes","General_Pop":"Yes","SPECIAL_NEEDS":" ","Pet_Friendly":"Yes","Does_not_meet_ARC_4496":" ","Survey_Needed":" "}},{"type":"Feature","id":128,"geometry":{"type":"Point","coordinates":[-81.623892031310234,28.085922992992938]},"properties":{"OBJECTID":128,"Name":"Alta Vista ES","Address":"801 Scenic Hwy","City":"Haines City","Zip":"33844","COUNTY":"POLK","X":-81.623892029999993,"Y":28.08592299,"LONGLAT":"-81.62389203, 28.08592299","USNG":"17R MM 38705 06877","FACILITY_TYPE":"SHELTER","SHELTER_TYPE":"RISK","RPC_Region":"6","Year_Built":"2005","Building":"9 Classroom","AS_IS_A_Retrofit_R":"A","Generator_Type":" ","PreMitigation_Capacity_Spaces":0,"PreMitigation_Square_Footage":0,"EHPA_Capacity_Gained_Spaces":259,"EHPA_Square_Footage_Gained":5182,"Retrofit_Capacity_Gained_Spaces":0,"Retrofit_Square_Footage_Gained":0,"Risk_Capacity_Spaces":257,"Risk_Square_Footage":5132,"Planned_Usage_Spaces":432,"FundingSource_F_Federal_State_S":"L","Evacuation_Zone":"No","SURGE_ZONE":"No","FLOOD_ZONE":"No","EHPA":"Yes","General_Pop":"Yes","SPECIAL_NEEDS":" ","Pet_Friendly":"Yes","Does_not_meet_ARC_4496":" ","Survey_Needed":"Yes"}},{"type":"Feature","id":129,"geometry":{"type":"Point","coordinates":[-82.030009992231854,29.630380015885027]},"properties":{"OBJECTID":129,"Name":"Ochwilla ES","Address":"299 N SR 21","City":"Melrose","Zip":"32640","COUNTY":"PUTNAM","X":-82.030009989999996,"Y":29.63038002,"LONGLAT":"-82.03000999, 29.63038002","USNG":"17R MN 00289 78272","FACILITY_TYPE":"SHELTER","SHELTER_TYPE":"RISK","RPC_Region":"4","Year_Built":"1992","Building":"4 Dining","AS_IS_A_Retrofit_R":"A","Generator_Type":"500 kW","PreMitigation_Capacity_Spaces":0,"PreMitigation_Square_Footage":0,"EHPA_Capacity_Gained_Spaces":0,"EHPA_Square_Footage_Gained":0,"Retrofit_Capacity_Gained_Spaces":163,"Retrofit_Square_Footage_Gained":3267,"Risk_Capacity_Spaces":163,"Risk_Square_Footage":3267,"Planned_Usage_Spaces":325,"FundingSource_F_Federal_State_S":"S, L","Evacuation_Zone":"No","SURGE_ZONE":"No","FLOOD_ZONE":"No","EHPA":"No","General_Pop":"Yes","SPECIAL_NEEDS":" ","Pet_Friendly":"Yes","Does_not_meet_ARC_4496":" ","Survey_Needed":" "}},{"type":"Feature","id":130,"geometry":{"type":"Point","coordinates":[-81.565193981774414,30.043300981329647]},"properties":{"OBJECTID":130,"Name":"Timberlin Creek ES","Address":"555 Pine Tree Ln","City":"St. Augustine","Zip":"32092","COUNTY":"ST. JOHNS","X":-81.565193980000004,"Y":30.043300980000001,"LONGLAT":"-81.56519398, 30.04330098","USNG":"17R MP 45511 23718","FACILITY_TYPE":"SHELTER","SHELTER_TYPE":"RISK","RPC_Region":"4","Year_Built":"2004","Building":"2 Classroom","AS_IS_A_Retrofit_R":"A","Generator_Type":"200 kW","PreMitigation_Capacity_Spaces":0,"PreMitigation_Square_Footage":0,"EHPA_Capacity_Gained_Spaces":276,"EHPA_Square_Footage_Gained":5511,"Retrofit_Capacity_Gained_Spaces":0,"Retrofit_Square_Footage_Gained":0,"Risk_Capacity_Spaces":276,"Risk_Square_Footage":5511,"Planned_Usage_Spaces":500,"FundingSource_F_Federal_State_S":"L","Evacuation_Zone":"No","SURGE_ZONE":"No","FLOOD_ZONE":"No","EHPA":"Yes","General_Pop":"Yes","SPECIAL_NEEDS":" ","Pet_Friendly":"Yes","Does_not_meet_ARC_4496":" ","Survey_Needed":" "}},{"type":"Feature","id":131,"geometry":{"type":"Point","coordinates":[-81.464857990960965,29.726726010897931]},"properties":{"OBJECTID":131,"Name":"South Woods ES","Address":"4750 SR 206 W","City":"Elkton","Zip":"32033","COUNTY":"ST. JOHNS","X":-81.464857989999999,"Y":29.72672601,"LONGLAT":"-81.46485799, 29.72672601","USNG":"17R MN 55042 88595","FACILITY_TYPE":"SHELTER","SHELTER_TYPE":"RISK","RPC_Region":"4","Year_Built":"2004","Building":"1 E & F Cafeteria / Auditorium","AS_IS_A_Retrofit_R":"A","Generator_Type":"200 kW for Campus","PreMitigation_Capacity_Spaces":0,"PreMitigation_Square_Footage":0,"EHPA_Capacity_Gained_Spaces":226,"EHPA_Square_Footage_Gained":4527,"Retrofit_Capacity_Gained_Spaces":0,"Retrofit_Square_Footage_Gained":0,"Risk_Capacity_Spaces":226,"Risk_Square_Footage":4527,"Planned_Usage_Spaces":500,"FundingSource_F_Federal_State_S":"L","Evacuation_Zone":"No","SURGE_ZONE":"No","FLOOD_ZONE":"No","EHPA":"Yes","General_Pop":"Yes","SPECIAL_NEEDS":" ","Pet_Friendly":"Yes","Does_not_meet_ARC_4496":" ","Survey_Needed":" "}},{"type":"Feature","id":132,"geometry":{"type":"Point","coordinates":[-81.565193981774414,30.043300981329647]},"properties":{"OBJECTID":132,"Name":"Timberlin Creek ES","Address":"555 Pine Tree Ln","City":"St. Augustine","Zip":"32092","COUNTY":"ST. JOHNS","X":-81.565193980000004,"Y":30.043300980000001,"LONGLAT":"-81.56519398, 30.04330098","USNG":"17R MP 45511 23718","FACILITY_TYPE":"SHELTER","SHELTER_TYPE":"RISK","RPC_Region":"4","Year_Built":"2004","Building":"1 E & F Cafeteria / Auditorium","AS_IS_A_Retrofit_R":"A","Generator_Type":"200 kW","PreMitigation_Capacity_Spaces":0,"PreMitigation_Square_Footage":0,"EHPA_Capacity_Gained_Spaces":226,"EHPA_Square_Footage_Gained":4527,"Retrofit_Capacity_Gained_Spaces":0,"Retrofit_Square_Footage_Gained":0,"Risk_Capacity_Spaces":226,"Risk_Square_Footage":4527,"Planned_Usage_Spaces":500,"FundingSource_F_Federal_State_S":"L","Evacuation_Zone":"No","SURGE_ZONE":"No","FLOOD_ZONE":"No","EHPA":"Yes","General_Pop":"Yes","SPECIAL_NEEDS":" ","Pet_Friendly":"Yes","Does_not_meet_ARC_4496":" ","Survey_Needed":" "}},{"type":"Feature","id":133,"geometry":{"type":"Point","coordinates":[-80.376171981644646,27.458749015536437]},"properties":{"OBJECTID":133,"Name":"Ft Pierce Westwood HS","Address":"1801 Panther Ln","City":"Ft Pierce","Zip":"34947","COUNTY":"ST. LUCIE","X":-80.376171979999995,"Y":27.458749019999999,"LONGLAT":"-80.37617198, 27.45874902","USNG":"17R NL 61640 37402","FACILITY_TYPE":"SHELTER","SHELTER_TYPE":"RISK","RPC_Region":"9","Year_Built":"1976","Building":"1 Main","AS_IS_A_Retrofit_R":"R","Generator_Type":"Yes, unknown kW","PreMitigation_Capacity_Spaces":0,"PreMitigation_Square_Footage":0,"EHPA_Capacity_Gained_Spaces":0,"EHPA_Square_Footage_Gained":0,"Retrofit_Capacity_Gained_Spaces":2578,"Retrofit_Square_Footage_Gained":51560,"Risk_Capacity_Spaces":2578,"Risk_Square_Footage":51560,"Planned_Usage_Spaces":632,"FundingSource_F_Federal_State_S":"S","Evacuation_Zone":"No","SURGE_ZONE":"No","FLOOD_ZONE":"No","EHPA":"No","General_Pop":"Yes","SPECIAL_NEEDS":" ","Pet_Friendly":"Yes","Does_not_meet_ARC_4496":" ","Survey_Needed":" "}},{"type":"Feature","id":134,"geometry":{"type":"Point","coordinates":[-87.097639246319744,30.571623279173746]},"properties":{"OBJECTID":134,"Name":"Avalon MS","Address":"5445 King Arthur's Way","City":"Milton","Zip":"32583","COUNTY":"SANTA ROSA","X":-87.09763925,"Y":30.571623280000001,"LONGLAT":"-87.09763925, 30.57162328","USNG":"16R DU 90637 82132","FACILITY_TYPE":"SHELTER","SHELTER_TYPE":"RISK","RPC_Region":"1","Year_Built":"1998","Building":"1 Main EHPA","AS_IS_A_Retrofit_R":"A","Generator_Type":"80 kW","PreMitigation_Capacity_Spaces":0,"PreMitigation_Square_Footage":0,"EHPA_Capacity_Gained_Spaces":1559,"EHPA_Square_Footage_Gained":31176,"Retrofit_Capacity_Gained_Spaces":0,"Retrofit_Square_Footage_Gained":0,"Risk_Capacity_Spaces":1559,"Risk_Square_Footage":31176,"Planned_Usage_Spaces":1559,"FundingSource_F_Federal_State_S":"HMGP","Evacuation_Zone":"No","SURGE_ZONE":"No","FLOOD_ZONE":"No","EHPA":"Yes","General_Pop":"Yes","SPECIAL_NEEDS":" ","Pet_Friendly":"Yes","Does_not_meet_ARC_4496":" ","Survey_Needed":" "}},{"type":"Feature","id":135,"geometry":{"type":"Point","coordinates":[-81.344105025042055,28.687238002426728]},"properties":{"OBJECTID":135,"Name":"Lyman Sr HS","Address":"865 S Ronald Reagan Blvd","City":"Longwood","Zip":"32750","COUNTY":"SEMINOLE","X":-81.344105029999994,"Y":28.687238000000001,"LONGLAT":"-81.34410503, 28.68723800","USNG":"17R MM 66383 73383","FACILITY_TYPE":"SHELTER","SHELTER_TYPE":"RISK","RPC_Region":"5","Year_Built":"2000","Building":"8B Classroom","AS_IS_A_Retrofit_R":"R","Generator_Type":"205 kW","PreMitigation_Capacity_Spaces":261,"PreMitigation_Square_Footage":5210,"EHPA_Capacity_Gained_Spaces":0,"EHPA_Square_Footage_Gained":0,"Retrofit_Capacity_Gained_Spaces":342,"Retrofit_Square_Footage_Gained":1628,"Risk_Capacity_Spaces":342,"Risk_Square_Footage":6838,"Planned_Usage_Spaces":0,"FundingSource_F_Federal_State_S":" ","Evacuation_Zone":"No","SURGE_ZONE":"No","FLOOD_ZONE":"No","EHPA":"No","General_Pop":"Yes","SPECIAL_NEEDS":" ","Pet_Friendly":"Yes","Does_not_meet_ARC_4496":" ","Survey_Needed":" "}},{"type":"Feature","id":136,"geometry":{"type":"Point","coordinates":[-81.344105025042055,28.687238002426728]},"properties":{"OBJECTID":136,"Name":"Lyman Sr HS","Address":"865 S Ronald Reagan Blvd","City":"Longwood","Zip":"32750","COUNTY":"SEMINOLE","X":-81.344105029999994,"Y":28.687238000000001,"LONGLAT":"-81.34410503, 28.68723800","USNG":"17R MM 66383 73383","FACILITY_TYPE":"SHELTER","SHELTER_TYPE":"RISK","RPC_Region":"5","Year_Built":"2000","Building":"8A Auditorium","AS_IS_A_Retrofit_R":"R","Generator_Type":"205 kW","PreMitigation_Capacity_Spaces":286,"PreMitigation_Square_Footage":5728,"EHPA_Capacity_Gained_Spaces":0,"EHPA_Square_Footage_Gained":0,"Retrofit_Capacity_Gained_Spaces":441,"Retrofit_Square_Footage_Gained":8820,"Risk_Capacity_Spaces":441,"Risk_Square_Footage":8820,"Planned_Usage_Spaces":0,"FundingSource_F_Federal_State_S":" ","Evacuation_Zone":"No","SURGE_ZONE":"No","FLOOD_ZONE":"No","EHPA":"No","General_Pop":"Yes","SPECIAL_NEEDS":" ","Pet_Friendly":"Yes","Does_not_meet_ARC_4496":" ","Survey_Needed":" "}},{"type":"Feature","id":137,"geometry":{"type":"Point","coordinates":[-81.330955997754856,28.794776018384351]},"properties":{"OBJECTID":137,"Name":"Bentley ES","Address":"2190 Oregon Ave","City":"Sanford","Zip":"32771","COUNTY":"SEMINOLE","X":-81.330956,"Y":28.79477602,"LONGLAT":"-81.33095600, 28.79477602","USNG":"17R MM 67701 85293","FACILITY_TYPE":"SHELTER","SHELTER_TYPE":"RISK","RPC_Region":"5","Year_Built":"2001","Building":"1 Main 1st Floor","AS_IS_A_Retrofit_R":"R","Generator_Type":"500 kW capacity","PreMitigation_Capacity_Spaces":0,"PreMitigation_Square_Footage":0,"EHPA_Capacity_Gained_Spaces":0,"EHPA_Square_Footage_Gained":0,"Retrofit_Capacity_Gained_Spaces":371,"Retrofit_Square_Footage_Gained":22270,"Risk_Capacity_Spaces":371,"Risk_Square_Footage":22270,"Planned_Usage_Spaces":100,"FundingSource_F_Federal_State_S":"S-1435A-2003","Evacuation_Zone":"No","SURGE_ZONE":"No","FLOOD_ZONE":"No","EHPA":"No","General_Pop":" ","SPECIAL_NEEDS":"Yes","Pet_Friendly":"Yes","Does_not_meet_ARC_4496":" ","Survey_Needed":" "}},{"type":"Feature","id":138,"geometry":{"type":"Point","coordinates":[-81.344105025042055,28.687238002426728]},"properties":{"OBJECTID":138,"Name":"Lyman Sr HS","Address":"865 S Ronald Reagan Blvd","City":"Longwood","Zip":"32750","COUNTY":"SEMINOLE","X":-81.344105029999994,"Y":28.687238000000001,"LONGLAT":"-81.34410503, 28.68723800","USNG":"17R MM 66383 73383","FACILITY_TYPE":"SHELTER","SHELTER_TYPE":"RISK","RPC_Region":"5","Year_Built":"1989","Building":"7 Cafeteria / Classroom","AS_IS_A_Retrofit_R":"R","Generator_Type":"205 kW","PreMitigation_Capacity_Spaces":0,"PreMitigation_Square_Footage":0,"EHPA_Capacity_Gained_Spaces":0,"EHPA_Square_Footage_Gained":0,"Retrofit_Capacity_Gained_Spaces":729,"Retrofit_Square_Footage_Gained":14584,"Risk_Capacity_Spaces":729,"Risk_Square_Footage":14584,"Planned_Usage_Spaces":729,"FundingSource_F_Federal_State_S":"HMGP / S 15-SR-94-06-69-01-464","Evacuation_Zone":"No","SURGE_ZONE":"No","FLOOD_ZONE":"No","EHPA":"No","General_Pop":"Yes","SPECIAL_NEEDS":" ","Pet_Friendly":"Yes","Does_not_meet_ARC_4496":" ","Survey_Needed":" "}},{"type":"Feature","id":139,"geometry":{"type":"Point","coordinates":[-82.054847210289324,28.644445196937152]},"properties":{"OBJECTID":139,"Name":"Agriculture Center","Address":"7620 SR 471","City":"Bushnell","Zip":"33513","COUNTY":"SUMTER","X":-82.054847210000005,"Y":28.6444452,"LONGLAT":"-82.05484721, 28.64444520","USNG":"17R LM 96905 69049","FACILITY_TYPE":"SHELTER","SHELTER_TYPE":"RISK","RPC_Region":"5","Year_Built":"2014","Building":"Cow Palace","AS_IS_A_Retrofit_R":"R","Generator_Type":"350 kW","PreMitigation_Capacity_Spaces":0,"PreMitigation_Square_Footage":0,"EHPA_Capacity_Gained_Spaces":0,"EHPA_Square_Footage_Gained":0,"Retrofit_Capacity_Gained_Spaces":389,"Retrofit_Square_Footage_Gained":7784,"Risk_Capacity_Spaces":389,"Risk_Square_Footage":7784,"Planned_Usage_Spaces":0,"FundingSource_F_Federal_State_S":" ","Evacuation_Zone":"No","SURGE_ZONE":"No","FLOOD_ZONE":"No","EHPA":"No","General_Pop":"Yes","SPECIAL_NEEDS":" ","Pet_Friendly":"Yes","Does_not_meet_ARC_4496":" ","Survey_Needed":"Yes"}},{"type":"Feature","id":140,"geometry":{"type":"Point","coordinates":[-82.117347372132912,28.65325817442319]},"properties":{"OBJECTID":140,"Name":"South Sumter Sr HS","Address":"7060 N Main St / SR 475","City":"Bushnell","Zip":"33513","COUNTY":"SUMTER","X":-82.117347370000005,"Y":28.653258180000002,"LONGLAT":"-82.11734737, 28.65325818","USNG":"17R LM 90805 70081","FACILITY_TYPE":"SHELTER","SHELTER_TYPE":"RISK","RPC_Region":"5","Year_Built":"2007","Building":"44 Cafeteria","AS_IS_A_Retrofit_R":"A","Generator_Type":"505 kW","PreMitigation_Capacity_Spaces":336,"PreMitigation_Square_Footage":6717,"EHPA_Capacity_Gained_Spaces":0,"EHPA_Square_Footage_Gained":0,"Retrofit_Capacity_Gained_Spaces":0,"Retrofit_Square_Footage_Gained":0,"Risk_Capacity_Spaces":336,"Risk_Square_Footage":6717,"Planned_Usage_Spaces":0,"FundingSource_F_Federal_State_S":" ","Evacuation_Zone":"No","SURGE_ZONE":"No","FLOOD_ZONE":"No","EHPA":"No","General_Pop":"Yes","SPECIAL_NEEDS":" ","Pet_Friendly":"Yes","Does_not_meet_ARC_4496":" ","Survey_Needed":" "}},{"type":"Feature","id":141,"geometry":{"type":"Point","coordinates":[-81.309006978312269,28.938780006412586]},"properties":{"OBJECTID":141,"Name":"Manatee Cove ES","Address":"734 W Ohio Ave","City":"Orange City","Zip":"32763","COUNTY":"VOLUSIA","X":-81.309006980000007,"Y":28.938780009999999,"LONGLAT":"-81.30900698, 28.93878001","USNG":"17R MN 69884 01242","FACILITY_TYPE":"SHELTER","SHELTER_TYPE":"RISK","RPC_Region":"5","Year_Built":"2004","Building":"2 Dining","AS_IS_A_Retrofit_R":"R","Generator_Type":" ","PreMitigation_Capacity_Spaces":0,"PreMitigation_Square_Footage":0,"EHPA_Capacity_Gained_Spaces":0,"EHPA_Square_Footage_Gained":0,"Retrofit_Capacity_Gained_Spaces":185,"Retrofit_Square_Footage_Gained":3694,"Risk_Capacity_Spaces":185,"Risk_Square_Footage":3694,"Planned_Usage_Spaces":0,"FundingSource_F_Federal_State_S":" ","Evacuation_Zone":"No","SURGE_ZONE":"No","FLOOD_ZONE":"No","EHPA":"No","General_Pop":"Yes","SPECIAL_NEEDS":" ","Pet_Friendly":"Yes","Does_not_meet_ARC_4496":" ","Survey_Needed":"Yes"}},{"type":"Feature","id":142,"geometry":{"type":"Point","coordinates":[-81.114117000979206,29.275202987017675]},"properties":{"OBJECTID":142,"Name":"Pine Trail ES","Address":"300 Airport Rd","City":"Ormond Beach","Zip":"32714","COUNTY":"VOLUSIA","X":-81.114116999999993,"Y":29.27520299,"LONGLAT":"-81.11411700, 29.27520299","USNG":"17R MN 88914 38481","FACILITY_TYPE":"SHELTER","SHELTER_TYPE":"RISK","RPC_Region":"5","Year_Built":"1982","Building":"6 Dining / Art","AS_IS_A_Retrofit_R":"R","Generator_Type":" ","PreMitigation_Capacity_Spaces":0,"PreMitigation_Square_Footage":0,"EHPA_Capacity_Gained_Spaces":0,"EHPA_Square_Footage_Gained":0,"Retrofit_Capacity_Gained_Spaces":251,"Retrofit_Square_Footage_Gained":5025,"Risk_Capacity_Spaces":251,"Risk_Square_Footage":5025,"Planned_Usage_Spaces":150,"FundingSource_F_Federal_State_S":" ","Evacuation_Zone":"No","SURGE_ZONE":"No","FLOOD_ZONE":"No","EHPA":"No","General_Pop":"Yes","SPECIAL_NEEDS":" ","Pet_Friendly":"Yes","Does_not_meet_ARC_4496":" ","Survey_Needed":" "}},{"type":"Feature","id":143,"geometry":{"type":"Point","coordinates":[-81.335840971038877,29.040121993132686]},"properties":{"OBJECTID":143,"Name":"Citrus Grove ES (K-5)","Address":"729 Hazen Rd","City":"DeLand","Zip":"32720","COUNTY":"VOLUSIA","X":-81.335840970000007,"Y":29.040121989999999,"LONGLAT":"-81.33584097, 29.04012199","USNG":"17R MN 67301 12477","FACILITY_TYPE":"SHELTER","SHELTER_TYPE":"RISK","RPC_Region":"5","Year_Built":"2009","Building":"3 Dining / Music","AS_IS_A_Retrofit_R":"R","Generator_Type":" ","PreMitigation_Capacity_Spaces":0,"PreMitigation_Square_Footage":0,"EHPA_Capacity_Gained_Spaces":202,"EHPA_Square_Footage_Gained":4032,"Retrofit_Capacity_Gained_Spaces":0,"Retrofit_Square_Footage_Gained":0,"Risk_Capacity_Spaces":202,"Risk_Square_Footage":4032,"Planned_Usage_Spaces":150,"FundingSource_F_Federal_State_S":"L","Evacuation_Zone":"No","SURGE_ZONE":"No","FLOOD_ZONE":"No","EHPA":"Yes","General_Pop":"Yes","SPECIAL_NEEDS":" ","Pet_Friendly":"Yes","Does_not_meet_ARC_4496":" ","Survey_Needed":"Yes"}},{"type":"Feature","id":144,"geometry":{"type":"Point","coordinates":[-81.222542030912905,29.01376597907992]},"properties":{"OBJECTID":144,"Name":"Volusia County Fairground","Address":"3150 E New York Ave","City":"Deland","Zip":"32724","COUNTY":"VOLUSIA","X":-81.22254203,"Y":29.013765979999999,"LONGLAT":"-81.22254203, 29.01376598","USNG":"17R MN 78327 09531","FACILITY_TYPE":"SHELTER","SHELTER_TYPE":"RISK","RPC_Region":"5","Year_Built":"0","Building":"Tommy Lawrence Arena","AS_IS_A_Retrofit_R":"R","Generator_Type":" ","PreMitigation_Capacity_Spaces":0,"PreMitigation_Square_Footage":0,"EHPA_Capacity_Gained_Spaces":0,"EHPA_Square_Footage_Gained":0,"Retrofit_Capacity_Gained_Spaces":425,"Retrofit_Square_Footage_Gained":8500,"Risk_Capacity_Spaces":425,"Risk_Square_Footage":8500,"Planned_Usage_Spaces":500,"FundingSource_F_Federal_State_S":"L","Evacuation_Zone":"No","SURGE_ZONE":"No","FLOOD_ZONE":"No","EHPA":"No","General_Pop":"Yes","SPECIAL_NEEDS":" ","Pet_Friendly":"Yes","Does_not_meet_ARC_4496":" ","Survey_Needed":"Yes"}}]}