{"type":"FeatureCollection","features":[{"type":"Feature","id":1,"geometry":{"type":"Point","coordinates":[-82.401911012077122,29.678515985940265]},"properties":{"OBJECTID":1,"Name":"FW Buchholz Senior HS","Address":"5510 NW 27th Ave","City":"Gainesville","Zip":"32606","COUNTY":"ALACHUA","X":-82.401911010000006,"Y":29.678515990000001,"LONGLAT":"-82.40191101, 29.67851599","USNG":"17R LN 64348 83984","FACILITY_TYPE":"SHELTER","SHELTER_TYPE":"RISK","RPC_Region":"3","Year_Built":"1999","Building":"8 Classroom 1st Floor","AS_IS_A_Retrofit_R":"R","Generator_Type":"Yes, unknown kW","PreMitigation_Capacity_Spaces":0,"PreMitigation_Square_Footage":0,"EHPA_Capacity_Gained_Spaces":0,"EHPA_Square_Footage_Gained":0,"Retrofit_Capacity_Gained_Spaces":259,"Retrofit_Square_Footage_Gained":15569,"Risk_Capacity_Spaces":259,"Risk_Square_Footage":15569,"Planned_Usage_Spaces":231,"FundingSource_F_Federal_State_S":"S-1508-2005","Evacuation_Zone":"No","SURGE_ZONE":"No","FLOOD_ZONE":"No","EHPA":"No","General_Pop":" ","SPECIAL_NEEDS":"Yes","Pet_Friendly":" ","Does_not_meet_ARC_4496":" ","Survey_Needed":" "}},{"type":"Feature","id":2,"geometry":{"type":"Point","coordinates":[-82.353017024347125,29.707700013472447]},"properties":{"OBJECTID":2,"Name":"Gainesville Senior Center","Address":"5701 NW 34th Blvd","City":"Gainesville","Zip":"32653","COUNTY":"ALACHUA","X":-82.353017019999996,"Y":29.70770001,"LONGLAT":"-82.35301702, 29.70770001","USNG":"17R LN 69117 87162","FACILITY_TYPE":"SHELTER","SHELTER_TYPE":"RISK","RPC_Region":"3","Year_Built":"2011","Building":"Main","AS_IS_A_Retrofit_R":"R","Generator_Type":" ","PreMitigation_Capacity_Spaces":47,"PreMitigation_Square_Footage":2808,"EHPA_Capacity_Gained_Spaces":0,"EHPA_Square_Footage_Gained":0,"Retrofit_Capacity_Gained_Spaces":74,"Retrofit_Square_Footage_Gained":4431,"Risk_Capacity_Spaces":47,"Risk_Square_Footage":2808,"Planned_Usage_Spaces":0,"FundingSource_F_Federal_State_S":"S 14-SR-94-03-11-02-492","Evacuation_Zone":"No","SURGE_ZONE":"No","FLOOD_ZONE":"No","EHPA":"No","General_Pop":" ","SPECIAL_NEEDS":"Yes","Pet_Friendly":" ","Does_not_meet_ARC_4496":" ","Survey_Needed":" "}},{"type":"Feature","id":3,"geometry":{"type":"Point","coordinates":[-82.370545008280459,29.665038012271491]},"properties":{"OBJECTID":3,"Name":"Westwood MS","Address":"3215 NW 15th Ave","City":"Gainesville","Zip":"32605","COUNTY":"ALACHUA","X":-82.370545010000001,"Y":29.66503801,"LONGLAT":"-82.37054501, 29.66503801","USNG":"17R LN 67365 82455","FACILITY_TYPE":"SHELTER","SHELTER_TYPE":"RISK","RPC_Region":"3","Year_Built":"2004","Building":"18 Cafeteria","AS_IS_A_Retrofit_R":"A","Generator_Type":"Yes, unknown kW","PreMitigation_Capacity_Spaces":0,"PreMitigation_Square_Footage":0,"EHPA_Capacity_Gained_Spaces":57,"EHPA_Square_Footage_Gained":3403,"Retrofit_Capacity_Gained_Spaces":0,"Retrofit_Square_Footage_Gained":0,"Risk_Capacity_Spaces":57,"Risk_Square_Footage":3403,"Planned_Usage_Spaces":120,"FundingSource_F_Federal_State_S":" ","Evacuation_Zone":"No","SURGE_ZONE":"No","FLOOD_ZONE":"No","EHPA":"Yes","General_Pop":" ","SPECIAL_NEEDS":"Yes","Pet_Friendly":" ","Does_not_meet_ARC_4496":" ","Survey_Needed":" "}},{"type":"Feature","id":4,"geometry":{"type":"Point","coordinates":[-82.492398015181266,29.794563017063453]},"properties":{"OBJECTID":4,"Name":"Alachua ES","Address":"13800 NW 152 Pl","City":"Alachua","Zip":"32615","COUNTY":"ALACHUA","X":-82.492398019999996,"Y":29.794563019999998,"LONGLAT":"-82.49239802, 29.79456302","USNG":"17R LN 55757 96955","FACILITY_TYPE":"SHELTER","SHELTER_TYPE":"RISK","RPC_Region":"3","Year_Built":"2008","Building":"6 Classroom","AS_IS_A_Retrofit_R":"A","Generator_Type":" ","PreMitigation_Capacity_Spaces":0,"PreMitigation_Square_Footage":0,"EHPA_Capacity_Gained_Spaces":0,"EHPA_Square_Footage_Gained":0,"Retrofit_Capacity_Gained_Spaces":115,"Retrofit_Square_Footage_Gained":6920,"Risk_Capacity_Spaces":115,"Risk_Square_Footage":6920,"Planned_Usage_Spaces":0,"FundingSource_F_Federal_State_S":" ","Evacuation_Zone":"No","SURGE_ZONE":"No","FLOOD_ZONE":"No","EHPA":"No","General_Pop":" ","SPECIAL_NEEDS":"Yes","Pet_Friendly":" ","Does_not_meet_ARC_4496":" ","Survey_Needed":" "}},{"type":"Feature","id":5,"geometry":{"type":"Point","coordinates":[-82.306914041958407,29.684261990472272]},"properties":{"OBJECTID":5,"Name":"Marjorie K Rawlings ES","Address":"3500 NE 15th St","City":"Gainesville","Zip":"32609","COUNTY":"ALACHUA","X":-82.306914039999995,"Y":29.68426199,"LONGLAT":"-82.30691404, 29.68426199","USNG":"17R LN 73548 84514","FACILITY_TYPE":"SHELTER","SHELTER_TYPE":"RISK","RPC_Region":"3","Year_Built":"2006","Building":"4 Cafeteria","AS_IS_A_Retrofit_R":"A","Generator_Type":" ","PreMitigation_Capacity_Spaces":0,"PreMitigation_Square_Footage":0,"EHPA_Capacity_Gained_Spaces":69,"EHPA_Square_Footage_Gained":4145,"Retrofit_Capacity_Gained_Spaces":0,"Retrofit_Square_Footage_Gained":0,"Risk_Capacity_Spaces":69,"Risk_Square_Footage":4145,"Planned_Usage_Spaces":120,"FundingSource_F_Federal_State_S":" ","Evacuation_Zone":"No","SURGE_ZONE":"No","FLOOD_ZONE":"No","EHPA":"Yes","General_Pop":" ","SPECIAL_NEEDS":"Yes","Pet_Friendly":" ","Does_not_meet_ARC_4496":" ","Survey_Needed":" "}},{"type":"Feature","id":6,"geometry":{"type":"Point","coordinates":[-82.11875003869568,30.285129992882482]},"properties":{"OBJECTID":6,"Name":"Ed Frasier Memorial Hospital","Address":"159 N 3rd St","City":"Macclenny","Zip":"32063","COUNTY":"BAKER","X":-82.118750039999995,"Y":30.285129990000001,"LONGLAT":"-82.11875004, 30.28512999","USNG":"17R LP 92405 50910","FACILITY_TYPE":"SHELTER","SHELTER_TYPE":"RISK","RPC_Region":"4","Year_Built":"1997","Building":"Main","AS_IS_A_Retrofit_R":"A","Generator_Type":" ","PreMitigation_Capacity_Spaces":0,"PreMitigation_Square_Footage":0,"EHPA_Capacity_Gained_Spaces":0,"EHPA_Square_Footage_Gained":0,"Retrofit_Capacity_Gained_Spaces":0,"Retrofit_Square_Footage_Gained":0,"Risk_Capacity_Spaces":79,"Risk_Square_Footage":4740,"Planned_Usage_Spaces":79,"FundingSource_F_Federal_State_S":" ","Evacuation_Zone":"No","SURGE_ZONE":"No","FLOOD_ZONE":"No","EHPA":"No","General_Pop":" ","SPECIAL_NEEDS":"Yes","Pet_Friendly":" ","Does_not_meet_ARC_4496":" ","Survey_Needed":" "}},{"type":"Feature","id":7,"geometry":{"type":"Point","coordinates":[-85.688954706322818,30.394178731450708]},"properties":{"OBJECTID":7,"Name":"Bozeman Learning Center","Address":"13410 SR 77","City":"Panama City","Zip":"32409","COUNTY":"BAY","X":-85.688954710000004,"Y":30.39417873,"LONGLAT":"-85.68895471, 30.39417873","USNG":"16R FU 25949 63194","FACILITY_TYPE":"SHELTER","SHELTER_TYPE":"RISK","RPC_Region":"1","Year_Built":"2000","Building":"9 Cafeteria","AS_IS_A_Retrofit_R":"A","Generator_Type":"HW 600KW","PreMitigation_Capacity_Spaces":0,"PreMitigation_Square_Footage":0,"EHPA_Capacity_Gained_Spaces":110,"EHPA_Square_Footage_Gained":8277,"Retrofit_Capacity_Gained_Spaces":0,"Retrofit_Square_Footage_Gained":0,"Risk_Capacity_Spaces":138,"Risk_Square_Footage":8277,"Planned_Usage_Spaces":108,"FundingSource_F_Federal_State_S":"EHPA","Evacuation_Zone":"No","SURGE_ZONE":"No","FLOOD_ZONE":"No","EHPA":"Yes","General_Pop":" ","SPECIAL_NEEDS":"Yes","Pet_Friendly":"Yes","Does_not_meet_ARC_4496":" ","Survey_Needed":" "}},{"type":"Feature","id":8,"geometry":{"type":"Point","coordinates":[-85.688954706322818,30.394178731450708]},"properties":{"OBJECTID":8,"Name":"Bozeman Learning Center","Address":"13410 SR 77","City":"Panama City","Zip":"32409","COUNTY":"BAY","X":-85.688954710000004,"Y":30.39417873,"LONGLAT":"-85.68895471, 30.39417873","USNG":"16R FU 25949 63194","FACILITY_TYPE":"SHELTER","SHELTER_TYPE":"RISK","RPC_Region":"1","Year_Built":"2000","Building":"8 Gym","AS_IS_A_Retrofit_R":"A","Generator_Type":"HW 600KW","PreMitigation_Capacity_Spaces":0,"PreMitigation_Square_Footage":0,"EHPA_Capacity_Gained_Spaces":191,"EHPA_Square_Footage_Gained":11466,"Retrofit_Capacity_Gained_Spaces":0,"Retrofit_Square_Footage_Gained":0,"Risk_Capacity_Spaces":191,"Risk_Square_Footage":11466,"Planned_Usage_Spaces":0,"FundingSource_F_Federal_State_S":"HMGP / EHPA","Evacuation_Zone":"No","SURGE_ZONE":"No","FLOOD_ZONE":"No","EHPA":"Yes","General_Pop":" ","SPECIAL_NEEDS":"Yes","Pet_Friendly":"Yes","Does_not_meet_ARC_4496":" ","Survey_Needed":" "}},{"type":"Feature","id":9,"geometry":{"type":"Point","coordinates":[-82.122579982176262,29.95120000020523]},"properties":{"OBJECTID":9,"Name":"Starke ES","Address":"1000 W Weldon St","City":"Starke","Zip":"32091","COUNTY":"BRADFORD","X":-82.122579979999998,"Y":29.9512,"LONGLAT":"-82.12257998, 29.95120000","USNG":"17R LP 91673 13907","FACILITY_TYPE":"SHELTER","SHELTER_TYPE":"RISK","RPC_Region":"3","Year_Built":"1996","Building":"4 Cafeteria","AS_IS_A_Retrofit_R":"A","Generator_Type":"Yes, unknown kW","PreMitigation_Capacity_Spaces":0,"PreMitigation_Square_Footage":0,"EHPA_Capacity_Gained_Spaces":0,"EHPA_Square_Footage_Gained":0,"Retrofit_Capacity_Gained_Spaces":66,"Retrofit_Square_Footage_Gained":3973,"Risk_Capacity_Spaces":66,"Risk_Square_Footage":3973,"Planned_Usage_Spaces":66,"FundingSource_F_Federal_State_S":"L, S, HMGP","Evacuation_Zone":"No","SURGE_ZONE":"No","FLOOD_ZONE":"No","EHPA":"No","General_Pop":" ","SPECIAL_NEEDS":"Yes","Pet_Friendly":" ","Does_not_meet_ARC_4496":" ","Survey_Needed":" "}},{"type":"Feature","id":10,"geometry":{"type":"Point","coordinates":[-82.122579982176262,29.95120000020523]},"properties":{"OBJECTID":10,"Name":"Starke ES","Address":"1000 W Weldon St","City":"Starke","Zip":"32091","COUNTY":"BRADFORD","X":-82.122579979999998,"Y":29.9512,"LONGLAT":"-82.12257998, 29.95120000","USNG":"17R LP 91673 13907","FACILITY_TYPE":"SHELTER","SHELTER_TYPE":"RISK","RPC_Region":"3","Year_Built":"1996","Building":"3 Classroom","AS_IS_A_Retrofit_R":"A","Generator_Type":"Yes, unknown kW","PreMitigation_Capacity_Spaces":0,"PreMitigation_Square_Footage":0,"EHPA_Capacity_Gained_Spaces":0,"EHPA_Square_Footage_Gained":0,"Retrofit_Capacity_Gained_Spaces":96,"Retrofit_Square_Footage_Gained":5749,"Risk_Capacity_Spaces":96,"Risk_Square_Footage":5749,"Planned_Usage_Spaces":96,"FundingSource_F_Federal_State_S":"L, S, HMGP","Evacuation_Zone":"No","SURGE_ZONE":"No","FLOOD_ZONE":"No","EHPA":"No","General_Pop":" ","SPECIAL_NEEDS":"Yes","Pet_Friendly":" ","Does_not_meet_ARC_4496":" ","Survey_Needed":" "}},{"type":"Feature","id":11,"geometry":{"type":"Point","coordinates":[-80.675894376098881,28.057236471170661]},"properties":{"OBJECTID":11,"Name":"Max K. Rodes Community Center","Address":"34410 Flanagan Ave W","City":"Melbourne","Zip":"32904","COUNTY":"BREVARD","X":-80.675894380000003,"Y":28.057236469999999,"LONGLAT":"-80.67589438, 28.05723647","USNG":"17R NM 31850 03585","FACILITY_TYPE":"SHELTER","SHELTER_TYPE":"RISK","RPC_Region":"5","Year_Built":"2011","Building":"Main","AS_IS_A_Retrofit_R":"A","Generator_Type":"400kw","PreMitigation_Capacity_Spaces":161,"PreMitigation_Square_Footage":9675,"EHPA_Capacity_Gained_Spaces":0,"EHPA_Square_Footage_Gained":0,"Retrofit_Capacity_Gained_Spaces":0,"Retrofit_Square_Footage_Gained":0,"Risk_Capacity_Spaces":161,"Risk_Square_Footage":9675,"Planned_Usage_Spaces":161,"FundingSource_F_Federal_State_S":" ","Evacuation_Zone":"No","SURGE_ZONE":"No","FLOOD_ZONE":"No","EHPA":"No","General_Pop":" ","SPECIAL_NEEDS":"Yes","Pet_Friendly":" ","Does_not_meet_ARC_4496":" ","Survey_Needed":"Yes"}},{"type":"Feature","id":12,"geometry":{"type":"Point","coordinates":[-80.851319022778739,28.63631701897345]},"properties":{"OBJECTID":12,"Name":"Oak Park ES","Address":"3395 Dairy Road","City":"Titusville","Zip":"32796","COUNTY":"BREVARD","X":-80.851319020000005,"Y":28.63631702,"LONGLAT":"-80.85131902, 28.63631702","USNG":"17R NM 14531 67702","FACILITY_TYPE":"SHELTER","SHELTER_TYPE":"RISK","RPC_Region":"5","Year_Built":"1967","Building":"6 Music","AS_IS_A_Retrofit_R":"R","Generator_Type":"230kw, HW","PreMitigation_Capacity_Spaces":0,"PreMitigation_Square_Footage":0,"EHPA_Capacity_Gained_Spaces":0,"EHPA_Square_Footage_Gained":0,"Retrofit_Capacity_Gained_Spaces":11,"Retrofit_Square_Footage_Gained":630,"Risk_Capacity_Spaces":11,"Risk_Square_Footage":630,"Planned_Usage_Spaces":11,"FundingSource_F_Federal_State_S":" ","Evacuation_Zone":"No","SURGE_ZONE":"No","FLOOD_ZONE":"No","EHPA":"No","General_Pop":" ","SPECIAL_NEEDS":"Yes","Pet_Friendly":" ","Does_not_meet_ARC_4496":" ","Survey_Needed":" "}},{"type":"Feature","id":13,"geometry":{"type":"Point","coordinates":[-80.722395013699256,28.341794949177029]},"properties":{"OBJECTID":13,"Name":"Rockledge HS","Address":"220 Raider Rd","City":"Rockledge","Zip":"32955","COUNTY":"BREVARD","X":-80.72239501,"Y":28.341794950000001,"LONGLAT":"-80.72239501, 28.34179495","USNG":"17R NM 27208 35096","FACILITY_TYPE":"SHELTER","SHELTER_TYPE":"RISK","RPC_Region":"5","Year_Built":"1992","Building":"1 Admin","AS_IS_A_Retrofit_R":"R","Generator_Type":"650 kW","PreMitigation_Capacity_Spaces":0,"PreMitigation_Square_Footage":0,"EHPA_Capacity_Gained_Spaces":0,"EHPA_Square_Footage_Gained":0,"Retrofit_Capacity_Gained_Spaces":190,"Retrofit_Square_Footage_Gained":11939,"Risk_Capacity_Spaces":190,"Risk_Square_Footage":11939,"Planned_Usage_Spaces":597,"FundingSource_F_Federal_State_S":"HMGP","Evacuation_Zone":"No","SURGE_ZONE":"No","FLOOD_ZONE":"No","EHPA":"No","General_Pop":" ","SPECIAL_NEEDS":"Yes","Pet_Friendly":" ","Does_not_meet_ARC_4496":" ","Survey_Needed":" "}},{"type":"Feature","id":14,"geometry":{"type":"Point","coordinates":[-80.851319022778739,28.63631701897345]},"properties":{"OBJECTID":14,"Name":"Oak Park ES","Address":"3395 Dairy Rd","City":"Titusville","Zip":"32796","COUNTY":"BREVARD","X":-80.851319020000005,"Y":28.63631702,"LONGLAT":"-80.85131902, 28.63631702","USNG":"17R NM 14531 67702","FACILITY_TYPE":"SHELTER","SHELTER_TYPE":"RISK","RPC_Region":"5","Year_Built":"1967","Building":"2 Classroom","AS_IS_A_Retrofit_R":"R","Generator_Type":"230 kW","PreMitigation_Capacity_Spaces":0,"PreMitigation_Square_Footage":0,"EHPA_Capacity_Gained_Spaces":0,"EHPA_Square_Footage_Gained":0,"Retrofit_Capacity_Gained_Spaces":35,"Retrofit_Square_Footage_Gained":2102,"Risk_Capacity_Spaces":35,"Risk_Square_Footage":2102,"Planned_Usage_Spaces":35,"FundingSource_F_Federal_State_S":" ","Evacuation_Zone":"No","SURGE_ZONE":"No","FLOOD_ZONE":"No","EHPA":"No","General_Pop":" ","SPECIAL_NEEDS":"Yes","Pet_Friendly":" ","Does_not_meet_ARC_4496":" ","Survey_Needed":" "}},{"type":"Feature","id":15,"geometry":{"type":"Point","coordinates":[-80.723848966700643,28.221339009333722]},"properties":{"OBJECTID":15,"Name":"Quest ES","Address":"8751 Trafford Dr","City":"Melbourne","Zip":"32940","COUNTY":"BREVARD","X":-80.723848970000006,"Y":28.221339010000001,"LONGLAT":"-80.72384897, 28.22133901","USNG":"17R NM 27096 21752","FACILITY_TYPE":"SHELTER","SHELTER_TYPE":"RISK","RPC_Region":"5","Year_Built":"2004","Building":"1 Main","AS_IS_A_Retrofit_R":"A","Generator_Type":"750 KW and 90 KW","PreMitigation_Capacity_Spaces":0,"PreMitigation_Square_Footage":0,"EHPA_Capacity_Gained_Spaces":697,"EHPA_Square_Footage_Gained":41813,"Retrofit_Capacity_Gained_Spaces":0,"Retrofit_Square_Footage_Gained":0,"Risk_Capacity_Spaces":697,"Risk_Square_Footage":41813,"Planned_Usage_Spaces":375,"FundingSource_F_Federal_State_S":" ","Evacuation_Zone":"No","SURGE_ZONE":"No","FLOOD_ZONE":"No","EHPA":"Yes","General_Pop":" ","SPECIAL_NEEDS":"Yes","Pet_Friendly":" ","Does_not_meet_ARC_4496":" ","Survey_Needed":" "}},{"type":"Feature","id":16,"geometry":{"type":"Point","coordinates":[-80.722395013699256,28.341794949177029]},"properties":{"OBJECTID":16,"Name":"Rockledge HS","Address":"220 Raider Rd","City":"Rockledge","Zip":"32955","COUNTY":"BREVARD","X":-80.72239501,"Y":28.341794950000001,"LONGLAT":"-80.72239501, 28.34179495","USNG":"17R NM 27208 35096","FACILITY_TYPE":"SHELTER","SHELTER_TYPE":"RISK","RPC_Region":"5","Year_Built":"1992","Building":"8 Voc Classroom","AS_IS_A_Retrofit_R":"R","Generator_Type":"650 kW","PreMitigation_Capacity_Spaces":0,"PreMitigation_Square_Footage":0,"EHPA_Capacity_Gained_Spaces":0,"EHPA_Square_Footage_Gained":0,"Retrofit_Capacity_Gained_Spaces":79,"Retrofit_Square_Footage_Gained":4716,"Risk_Capacity_Spaces":79,"Risk_Square_Footage":4716,"Planned_Usage_Spaces":236,"FundingSource_F_Federal_State_S":"HMGP","Evacuation_Zone":"No","SURGE_ZONE":"No","FLOOD_ZONE":"No","EHPA":"No","General_Pop":" ","SPECIAL_NEEDS":"Yes","Pet_Friendly":" ","Does_not_meet_ARC_4496":" ","Survey_Needed":" "}},{"type":"Feature","id":17,"geometry":{"type":"Point","coordinates":[-80.501158480889742,27.858478279296587]},"properties":{"OBJECTID":17,"Name":"South Mainland Community Center","Address":"3700 Allen Ave","City":"Micco","Zip":"32976","COUNTY":"BREVARD","X":-80.501158480000001,"Y":27.85847828,"LONGLAT":"-80.50115848, 27.85847828","USNG":"17R NL 49111 81625","FACILITY_TYPE":"SHELTER","SHELTER_TYPE":"RISK","RPC_Region":"5","Year_Built":"2001","Building":"Gym","AS_IS_A_Retrofit_R":"R","Generator_Type":"220kw","PreMitigation_Capacity_Spaces":0,"PreMitigation_Square_Footage":0,"EHPA_Capacity_Gained_Spaces":0,"EHPA_Square_Footage_Gained":0,"Retrofit_Capacity_Gained_Spaces":128,"Retrofit_Square_Footage_Gained":7689,"Risk_Capacity_Spaces":128,"Risk_Square_Footage":7689,"Planned_Usage_Spaces":128,"FundingSource_F_Federal_State_S":" ","Evacuation_Zone":"D","SURGE_ZONE":"No","FLOOD_ZONE":"No","EHPA":"No","General_Pop":" ","SPECIAL_NEEDS":"Yes","Pet_Friendly":" ","Does_not_meet_ARC_4496":" ","Survey_Needed":" "}},{"type":"Feature","id":18,"geometry":{"type":"Point","coordinates":[-80.625579031101026,27.908959014133302]},"properties":{"OBJECTID":18,"Name":"Sunrise ES","Address":"1651 Mara Loma Blvd SE","City":"Palm Bay","Zip":"32909","COUNTY":"BREVARD","X":-80.625579029999997,"Y":27.90895901,"LONGLAT":"-80.62557903, 27.90895901","USNG":"17R NL 36845 87173","FACILITY_TYPE":"SHELTER","SHELTER_TYPE":"RISK","RPC_Region":"5","Year_Built":"2006","Building":"Main","AS_IS_A_Retrofit_R":"A","Generator_Type":"900kW","PreMitigation_Capacity_Spaces":0,"PreMitigation_Square_Footage":0,"EHPA_Capacity_Gained_Spaces":697,"EHPA_Square_Footage_Gained":41813,"Retrofit_Capacity_Gained_Spaces":0,"Retrofit_Square_Footage_Gained":0,"Risk_Capacity_Spaces":697,"Risk_Square_Footage":41813,"Planned_Usage_Spaces":697,"FundingSource_F_Federal_State_S":" ","Evacuation_Zone":"No","SURGE_ZONE":"No","FLOOD_ZONE":"No","EHPA":"Yes","General_Pop":" ","SPECIAL_NEEDS":"Yes","Pet_Friendly":" ","Does_not_meet_ARC_4496":" ","Survey_Needed":" "}},{"type":"Feature","id":19,"geometry":{"type":"Point","coordinates":[-80.851319022778739,28.63631701897345]},"properties":{"OBJECTID":19,"Name":"Oak Park ES","Address":"3395 Dairy Rd","City":"Titusville","Zip":"32796","COUNTY":"BREVARD","X":-80.851319020000005,"Y":28.63631702,"LONGLAT":"-80.85131902, 28.63631702","USNG":"17R NM 14531 67702","FACILITY_TYPE":"SHELTER","SHELTER_TYPE":"RISK","RPC_Region":"5","Year_Built":"1967","Building":"5 Classroom","AS_IS_A_Retrofit_R":"R","Generator_Type":"230kw,HW","PreMitigation_Capacity_Spaces":0,"PreMitigation_Square_Footage":0,"EHPA_Capacity_Gained_Spaces":0,"EHPA_Square_Footage_Gained":0,"Retrofit_Capacity_Gained_Spaces":49,"Retrofit_Square_Footage_Gained":2936,"Risk_Capacity_Spaces":49,"Risk_Square_Footage":2936,"Planned_Usage_Spaces":49,"FundingSource_F_Federal_State_S":" ","Evacuation_Zone":"No","SURGE_ZONE":"No","FLOOD_ZONE":"No","EHPA":"No","General_Pop":" ","SPECIAL_NEEDS":"Yes","Pet_Friendly":" ","Does_not_meet_ARC_4496":" ","Survey_Needed":" "}},{"type":"Feature","id":20,"geometry":{"type":"Point","coordinates":[-80.722395013699256,28.341794949177029]},"properties":{"OBJECTID":20,"Name":"Rockledge HS","Address":"220 Raider Rd","City":"Rockledge","Zip":"32955","COUNTY":"BREVARD","X":-80.72239501,"Y":28.341794950000001,"LONGLAT":"-80.72239501, 28.34179495","USNG":"17R NM 27208 35096","FACILITY_TYPE":"SHELTER","SHELTER_TYPE":"RISK","RPC_Region":"5","Year_Built":"1992","Building":"2 Music","AS_IS_A_Retrofit_R":"R","Generator_Type":"650 kW","PreMitigation_Capacity_Spaces":0,"PreMitigation_Square_Footage":0,"EHPA_Capacity_Gained_Spaces":0,"EHPA_Square_Footage_Gained":0,"Retrofit_Capacity_Gained_Spaces":49,"Retrofit_Square_Footage_Gained":2929,"Risk_Capacity_Spaces":49,"Risk_Square_Footage":2929,"Planned_Usage_Spaces":146,"FundingSource_F_Federal_State_S":"HMGP","Evacuation_Zone":"No","SURGE_ZONE":"No","FLOOD_ZONE":"No","EHPA":"No","General_Pop":" ","SPECIAL_NEEDS":"Yes","Pet_Friendly":" ","Does_not_meet_ARC_4496":" ","Survey_Needed":" "}},{"type":"Feature","id":21,"geometry":{"type":"Point","coordinates":[-80.851319022778739,28.63631701897345]},"properties":{"OBJECTID":21,"Name":"Oak Park ES","Address":"3395 Dairy Rd","City":"Titusville","Zip":"32796","COUNTY":"BREVARD","X":-80.851319020000005,"Y":28.63631702,"LONGLAT":"-80.85131902, 28.63631702","USNG":"17R NM 14531 67702","FACILITY_TYPE":"SHELTER","SHELTER_TYPE":"RISK","RPC_Region":"5","Year_Built":"1967","Building":"7 Classroom","AS_IS_A_Retrofit_R":"R","Generator_Type":"230kw, HW","PreMitigation_Capacity_Spaces":0,"PreMitigation_Square_Footage":0,"EHPA_Capacity_Gained_Spaces":0,"EHPA_Square_Footage_Gained":0,"Retrofit_Capacity_Gained_Spaces":36,"Retrofit_Square_Footage_Gained":2145,"Risk_Capacity_Spaces":36,"Risk_Square_Footage":2145,"Planned_Usage_Spaces":36,"FundingSource_F_Federal_State_S":" ","Evacuation_Zone":"No","SURGE_ZONE":"No","FLOOD_ZONE":"No","EHPA":"No","General_Pop":" ","SPECIAL_NEEDS":"Yes","Pet_Friendly":" ","Does_not_meet_ARC_4496":" ","Survey_Needed":" "}},{"type":"Feature","id":22,"geometry":{"type":"Point","coordinates":[-80.717068007700945,28.280305991070513]},"properties":{"OBJECTID":22,"Name":"Ralph Williams ES","Address":"1700 Clubhouse Dr","City":"Rockledge","Zip":"32955","COUNTY":"BREVARD","X":-80.717068010000006,"Y":28.280305989999999,"LONGLAT":"-80.71706801, 28.28030599","USNG":"17R NM 27746 28286","FACILITY_TYPE":"SHELTER","SHELTER_TYPE":"RISK","RPC_Region":"5","Year_Built":"1998","Building":"Main","AS_IS_A_Retrofit_R":"A","Generator_Type":"650kw","PreMitigation_Capacity_Spaces":0,"PreMitigation_Square_Footage":0,"EHPA_Capacity_Gained_Spaces":617,"EHPA_Square_Footage_Gained":37049,"Retrofit_Capacity_Gained_Spaces":0,"Retrofit_Square_Footage_Gained":0,"Risk_Capacity_Spaces":617,"Risk_Square_Footage":37049,"Planned_Usage_Spaces":375,"FundingSource_F_Federal_State_S":" ","Evacuation_Zone":"No","SURGE_ZONE":"No","FLOOD_ZONE":"No","EHPA":"Yes","General_Pop":" ","SPECIAL_NEEDS":"Yes","Pet_Friendly":" ","Does_not_meet_ARC_4496":" ","Survey_Needed":" "}},{"type":"Feature","id":23,"geometry":{"type":"Point","coordinates":[-80.851319022778739,28.63631701897345]},"properties":{"OBJECTID":23,"Name":"Oak Park ES","Address":"3395 Dairy Rd","City":"Titusville","Zip":"32796","COUNTY":"BREVARD","X":-80.851319020000005,"Y":28.63631702,"LONGLAT":"-80.85131902, 28.63631702","USNG":"17R NM 14531 67702","FACILITY_TYPE":"SHELTER","SHELTER_TYPE":"RISK","RPC_Region":"5","Year_Built":"1967","Building":"8 Classroom","AS_IS_A_Retrofit_R":"R","Generator_Type":"230kw, HW","PreMitigation_Capacity_Spaces":0,"PreMitigation_Square_Footage":0,"EHPA_Capacity_Gained_Spaces":0,"EHPA_Square_Footage_Gained":0,"Retrofit_Capacity_Gained_Spaces":62,"Retrofit_Square_Footage_Gained":3747,"Risk_Capacity_Spaces":62,"Risk_Square_Footage":3747,"Planned_Usage_Spaces":62,"FundingSource_F_Federal_State_S":" ","Evacuation_Zone":"No","SURGE_ZONE":"No","FLOOD_ZONE":"No","EHPA":"No","General_Pop":" ","SPECIAL_NEEDS":"Yes","Pet_Friendly":" ","Does_not_meet_ARC_4496":" ","Survey_Needed":" "}},{"type":"Feature","id":24,"geometry":{"type":"Point","coordinates":[-80.273319995270995,26.304600008456763]},"properties":{"OBJECTID":24,"Name":"WestGlades MS","Address":"11000 Holmberg Rd","City":"Parkland","Zip":"33026","COUNTY":"BROWARD","X":-80.273319999999998,"Y":26.304600010000001,"LONGLAT":"-80.27332000, 26.30460001","USNG":"17R NK 72537 09620","FACILITY_TYPE":"SHELTER","SHELTER_TYPE":"RISK","RPC_Region":"10","Year_Built":"2001","Building":"3 Gym / Music / Cafeteria","AS_IS_A_Retrofit_R":"A","Generator_Type":"Yes, unknown kW","PreMitigation_Capacity_Spaces":0,"PreMitigation_Square_Footage":0,"EHPA_Capacity_Gained_Spaces":394,"EHPA_Square_Footage_Gained":23623,"Retrofit_Capacity_Gained_Spaces":0,"Retrofit_Square_Footage_Gained":0,"Risk_Capacity_Spaces":394,"Risk_Square_Footage":23623,"Planned_Usage_Spaces":250,"FundingSource_F_Federal_State_S":" ","Evacuation_Zone":"No","SURGE_ZONE":"No","FLOOD_ZONE":"0.20%","EHPA":"Yes","General_Pop":" ","SPECIAL_NEEDS":"Yes","Pet_Friendly":" ","Does_not_meet_ARC_4496":" ","Survey_Needed":"Yes"}},{"type":"Feature","id":25,"geometry":{"type":"Point","coordinates":[-80.197921033969507,26.100592397361012]},"properties":{"OBJECTID":25,"Name":"Sheridan Technical HS (Sunset School)","Address":"3775 SW 16th St","City":"Ft. Lauderdale","Zip":"33312","COUNTY":"BROWARD","X":-80.197921030000003,"Y":26.1005924,"LONGLAT":"-80.19792103, 26.10059240","USNG":"17R NJ 80203 87070","FACILITY_TYPE":"SHELTER","SHELTER_TYPE":"RISK","RPC_Region":"10","Year_Built":"1996","Building":"21 Main","AS_IS_A_Retrofit_R":"A","Generator_Type":"Yes, unknown kW","PreMitigation_Capacity_Spaces":0,"PreMitigation_Square_Footage":0,"EHPA_Capacity_Gained_Spaces":471,"EHPA_Square_Footage_Gained":28232,"Retrofit_Capacity_Gained_Spaces":0,"Retrofit_Square_Footage_Gained":0,"Risk_Capacity_Spaces":471,"Risk_Square_Footage":28232,"Planned_Usage_Spaces":55,"FundingSource_F_Federal_State_S":" ","Evacuation_Zone":"No","SURGE_ZONE":"No","FLOOD_ZONE":"No","EHPA":"Yes","General_Pop":" ","SPECIAL_NEEDS":"Yes","Pet_Friendly":" ","Does_not_meet_ARC_4496":" ","Survey_Needed":"Yes"}},{"type":"Feature","id":26,"geometry":{"type":"Point","coordinates":[-80.161810004705629,25.997629987174175]},"properties":{"OBJECTID":26,"Name":"McNicol MS","Address":"1602 S 27th Ave","City":"Hollywood","Zip":"33020","COUNTY":"BROWARD","X":-80.161810000000003,"Y":25.99762999,"LONGLAT":"-80.16181000, 25.99762999","USNG":"17R NJ 83887 75690","FACILITY_TYPE":"SHELTER","SHELTER_TYPE":"RISK","RPC_Region":"10","Year_Built":"1997","Building":"3 Gym / Music / Cafeteria","AS_IS_A_Retrofit_R":"A","Generator_Type":"Yes, unknown kW","PreMitigation_Capacity_Spaces":0,"PreMitigation_Square_Footage":0,"EHPA_Capacity_Gained_Spaces":398,"EHPA_Square_Footage_Gained":23896,"Retrofit_Capacity_Gained_Spaces":0,"Retrofit_Square_Footage_Gained":0,"Risk_Capacity_Spaces":398,"Risk_Square_Footage":23896,"Planned_Usage_Spaces":325,"FundingSource_F_Federal_State_S":" ","Evacuation_Zone":"No","SURGE_ZONE":"No","FLOOD_ZONE":"0.20%","EHPA":"Yes","General_Pop":" ","SPECIAL_NEEDS":"Yes","Pet_Friendly":" ","Does_not_meet_ARC_4496":" ","Survey_Needed":"Yes"}},{"type":"Feature","id":27,"geometry":{"type":"Point","coordinates":[-80.283797961308309,26.10354300305746]},"properties":{"OBJECTID":27,"Name":"Indian Ridge MS","Address":"1355 S Nob Hill Rd","City":"Davie","Zip":"33324","COUNTY":"BROWARD","X":-80.283797960000001,"Y":26.103542999999998,"LONGLAT":"-80.28379796, 26.10354300","USNG":"17R NJ 71614 87347","FACILITY_TYPE":"SHELTER","SHELTER_TYPE":"RISK","RPC_Region":"10","Year_Built":"1995","Building":"2 Gym / Music / Cafeteria","AS_IS_A_Retrofit_R":"A","Generator_Type":"Yes, unknown kW","PreMitigation_Capacity_Spaces":0,"PreMitigation_Square_Footage":0,"EHPA_Capacity_Gained_Spaces":414,"EHPA_Square_Footage_Gained":24827,"Retrofit_Capacity_Gained_Spaces":0,"Retrofit_Square_Footage_Gained":0,"Risk_Capacity_Spaces":414,"Risk_Square_Footage":24827,"Planned_Usage_Spaces":250,"FundingSource_F_Federal_State_S":" ","Evacuation_Zone":"No","SURGE_ZONE":"No","FLOOD_ZONE":"0.20%","EHPA":"Yes","General_Pop":" ","SPECIAL_NEEDS":"Yes","Pet_Friendly":" ","Does_not_meet_ARC_4496":" ","Survey_Needed":"Yes"}},{"type":"Feature","id":28,"geometry":{"type":"Point","coordinates":[-80.186327298274861,26.092050570186707]},"properties":{"OBJECTID":28,"Name":"New River MS","Address":"3100 Riverland Rd","City":"Ft. Lauderdale","Zip":"33312","COUNTY":"BROWARD","X":-80.186327300000002,"Y":26.092050570000001,"LONGLAT":"-80.18632730, 26.09205057","USNG":"17R NJ 81368 86132","FACILITY_TYPE":"SHELTER","SHELTER_TYPE":"RISK","RPC_Region":"10","Year_Built":"1995","Building":"3 Gym / Music / Cafeteria","AS_IS_A_Retrofit_R":"A","Generator_Type":" ","PreMitigation_Capacity_Spaces":0,"PreMitigation_Square_Footage":0,"EHPA_Capacity_Gained_Spaces":391,"EHPA_Square_Footage_Gained":23456,"Retrofit_Capacity_Gained_Spaces":0,"Retrofit_Square_Footage_Gained":0,"Risk_Capacity_Spaces":391,"Risk_Square_Footage":23456,"Planned_Usage_Spaces":250,"FundingSource_F_Federal_State_S":" ","Evacuation_Zone":"No","SURGE_ZONE":"No","FLOOD_ZONE":"No","EHPA":"Yes","General_Pop":" ","SPECIAL_NEEDS":"Yes","Pet_Friendly":" ","Does_not_meet_ARC_4496":" ","Survey_Needed":"Yes"}},{"type":"Feature","id":29,"geometry":{"type":"Point","coordinates":[-82.497192966821828,28.818304984168371]},"properties":{"OBJECTID":29,"Name":"Renaissance Center School","Address":"3630 W Educational Path","City":"Lecanto","Zip":"34461","COUNTY":"CITRUS","X":-82.49719297,"Y":28.818304980000001,"LONGLAT":"-82.49719297, 28.81830498","USNG":"17R LM 53910 88775","FACILITY_TYPE":"SHELTER","SHELTER_TYPE":"RISK","RPC_Region":"7","Year_Built":"2005","Building":"1 Main","AS_IS_A_Retrofit_R":"A","Generator_Type":"Yes, unknown kW","PreMitigation_Capacity_Spaces":0,"PreMitigation_Square_Footage":0,"EHPA_Capacity_Gained_Spaces":79,"EHPA_Square_Footage_Gained":4752,"Retrofit_Capacity_Gained_Spaces":0,"Retrofit_Square_Footage_Gained":0,"Risk_Capacity_Spaces":79,"Risk_Square_Footage":4752,"Planned_Usage_Spaces":91,"FundingSource_F_Federal_State_S":" ","Evacuation_Zone":"No","SURGE_ZONE":"No","FLOOD_ZONE":"No","EHPA":"Yes","General_Pop":" ","SPECIAL_NEEDS":"Yes","Pet_Friendly":" ","Does_not_meet_ARC_4496":" ","Survey_Needed":" "}},{"type":"Feature","id":30,"geometry":{"type":"Point","coordinates":[-82.337769000959156,28.834812011238828]},"properties":{"OBJECTID":30,"Name":"Citrus HS","Address":"600 W Highland Blvd","City":"Inverness","Zip":"34452","COUNTY":"CITRUS","X":-82.337768999999994,"Y":28.83481201,"LONGLAT":"-82.33776900, 28.83481201","USNG":"17R LM 69488 90419","FACILITY_TYPE":"SHELTER","SHELTER_TYPE":"RISK","RPC_Region":"7","Year_Built":"2002","Building":"21 Cafeteria","AS_IS_A_Retrofit_R":"A","Generator_Type":"750 kW","PreMitigation_Capacity_Spaces":0,"PreMitigation_Square_Footage":0,"EHPA_Capacity_Gained_Spaces":0,"EHPA_Square_Footage_Gained":0,"Retrofit_Capacity_Gained_Spaces":0,"Retrofit_Square_Footage_Gained":0,"Risk_Capacity_Spaces":132,"Risk_Square_Footage":7930,"Planned_Usage_Spaces":157,"FundingSource_F_Federal_State_S":"L","Evacuation_Zone":"No","SURGE_ZONE":"No","FLOOD_ZONE":"No","EHPA":"No","General_Pop":" ","SPECIAL_NEEDS":"Yes","Pet_Friendly":" ","Does_not_meet_ARC_4496":" ","Survey_Needed":" "}},{"type":"Feature","id":31,"geometry":{"type":"Point","coordinates":[-81.776551358702619,30.116943994323663]},"properties":{"OBJECTID":31,"Name":"St. Johns River Community College","Address":"285 College Dr","City":"Orange Park","Zip":"32065","COUNTY":"CLAY","X":-81.776551359999999,"Y":30.116944,"LONGLAT":"-81.77655136, 30.11694400","USNG":"17R MP 25190 31998","FACILITY_TYPE":"SHELTER","SHELTER_TYPE":"RISK","RPC_Region":"4","Year_Built":"0","Building":"Thrasher / P,V,D","AS_IS_A_Retrofit_R":"R","Generator_Type":"90 kW, 80 kW","PreMitigation_Capacity_Spaces":0,"PreMitigation_Square_Footage":0,"EHPA_Capacity_Gained_Spaces":0,"EHPA_Square_Footage_Gained":0,"Retrofit_Capacity_Gained_Spaces":276,"Retrofit_Square_Footage_Gained":16578,"Risk_Capacity_Spaces":276,"Risk_Square_Footage":16578,"Planned_Usage_Spaces":111,"FundingSource_F_Federal_State_S":" ","Evacuation_Zone":"No","SURGE_ZONE":"No","FLOOD_ZONE":"No","EHPA":"No","General_Pop":" ","SPECIAL_NEEDS":"Yes","Pet_Friendly":" ","Does_not_meet_ARC_4496":" ","Survey_Needed":" "}},{"type":"Feature","id":32,"geometry":{"type":"Point","coordinates":[-81.803762978751735,30.044746985424453]},"properties":{"OBJECTID":32,"Name":"Lake Asbury Junior HS","Address":"2851 Sandridge Rd","City":"Green Cove Springs","Zip":"32043","COUNTY":"CLAY","X":-81.803762980000002,"Y":30.04474699,"LONGLAT":"-81.80376298, 30.04474699","USNG":"17R MP 22512 24015","FACILITY_TYPE":"SHELTER","SHELTER_TYPE":"RISK","RPC_Region":"4","Year_Built":"2004","Building":"1 Cafeteria","AS_IS_A_Retrofit_R":"A","Generator_Type":" ","PreMitigation_Capacity_Spaces":0,"PreMitigation_Square_Footage":0,"EHPA_Capacity_Gained_Spaces":93,"EHPA_Square_Footage_Gained":5576,"Retrofit_Capacity_Gained_Spaces":0,"Retrofit_Square_Footage_Gained":0,"Risk_Capacity_Spaces":93,"Risk_Square_Footage":5576,"Planned_Usage_Spaces":298,"FundingSource_F_Federal_State_S":"L EHPA","Evacuation_Zone":"No","SURGE_ZONE":"No","FLOOD_ZONE":"No","EHPA":"Yes","General_Pop":" ","SPECIAL_NEEDS":"Yes","Pet_Friendly":" ","Does_not_meet_ARC_4496":" ","Survey_Needed":" "}},{"type":"Feature","id":33,"geometry":{"type":"Point","coordinates":[-82.699539988908668,30.153020009445637]},"properties":{"OBJECTID":33,"Name":"Westside ES","Address":"1956 SW County Rd 252B","City":"Lake City","Zip":"32024","COUNTY":"COLUMBIA","X":-82.699539990000005,"Y":30.153020009999999,"LONGLAT":"-82.69953999, 30.15302001","USNG":"17R LP 36323 36961","FACILITY_TYPE":"SHELTER","SHELTER_TYPE":"RISK","RPC_Region":"3","Year_Built":"1999","Building":"4 Cafeteria","AS_IS_A_Retrofit_R":"A","Generator_Type":" ","PreMitigation_Capacity_Spaces":0,"PreMitigation_Square_Footage":0,"EHPA_Capacity_Gained_Spaces":69,"EHPA_Square_Footage_Gained":4166,"Retrofit_Capacity_Gained_Spaces":0,"Retrofit_Square_Footage_Gained":0,"Risk_Capacity_Spaces":69,"Risk_Square_Footage":4166,"Planned_Usage_Spaces":0,"FundingSource_F_Federal_State_S":" ","Evacuation_Zone":"No","SURGE_ZONE":"No","FLOOD_ZONE":"No","EHPA":"Yes","General_Pop":" ","SPECIAL_NEEDS":"Yes","Pet_Friendly":" ","Does_not_meet_ARC_4496":" ","Survey_Needed":" "}},{"type":"Feature","id":34,"geometry":{"type":"Point","coordinates":[-82.699539988908668,30.153020009445637]},"properties":{"OBJECTID":34,"Name":"Westside ES","Address":"1956 SW County Rd 252B","City":"Lake City","Zip":"32024","COUNTY":"COLUMBIA","X":-82.699539990000005,"Y":30.153020009999999,"LONGLAT":"-82.69953999, 30.15302001","USNG":"17R LP 36323 36961","FACILITY_TYPE":"SHELTER","SHELTER_TYPE":"RISK","RPC_Region":"3","Year_Built":"1999","Building":"2 Classroom","AS_IS_A_Retrofit_R":"A","Generator_Type":" ","PreMitigation_Capacity_Spaces":0,"PreMitigation_Square_Footage":0,"EHPA_Capacity_Gained_Spaces":94,"EHPA_Square_Footage_Gained":5622,"Retrofit_Capacity_Gained_Spaces":0,"Retrofit_Square_Footage_Gained":0,"Risk_Capacity_Spaces":94,"Risk_Square_Footage":5622,"Planned_Usage_Spaces":0,"FundingSource_F_Federal_State_S":" ","Evacuation_Zone":"No","SURGE_ZONE":"No","FLOOD_ZONE":"No","EHPA":"Yes","General_Pop":" ","SPECIAL_NEEDS":"Yes","Pet_Friendly":" ","Does_not_meet_ARC_4496":" ","Survey_Needed":" "}},{"type":"Feature","id":35,"geometry":{"type":"Point","coordinates":[-82.699539988908668,30.153020009445637]},"properties":{"OBJECTID":35,"Name":"Westside ES","Address":"1956 SW County Rd 252B","City":"Lake City","Zip":"32024","COUNTY":"COLUMBIA","X":-82.699539990000005,"Y":30.153020009999999,"LONGLAT":"-82.69953999, 30.15302001","USNG":"17R LP 36323 36961","FACILITY_TYPE":"SHELTER","SHELTER_TYPE":"RISK","RPC_Region":"3","Year_Built":"1999","Building":"5 Classroom / Art","AS_IS_A_Retrofit_R":"A","Generator_Type":" ","PreMitigation_Capacity_Spaces":0,"PreMitigation_Square_Footage":0,"EHPA_Capacity_Gained_Spaces":61,"EHPA_Square_Footage_Gained":3666,"Retrofit_Capacity_Gained_Spaces":0,"Retrofit_Square_Footage_Gained":0,"Risk_Capacity_Spaces":61,"Risk_Square_Footage":3666,"Planned_Usage_Spaces":0,"FundingSource_F_Federal_State_S":" ","Evacuation_Zone":"No","SURGE_ZONE":"No","FLOOD_ZONE":"No","EHPA":"Yes","General_Pop":" ","SPECIAL_NEEDS":"Yes","Pet_Friendly":" ","Does_not_meet_ARC_4496":" ","Survey_Needed":" "}},{"type":"Feature","id":36,"geometry":{"type":"Point","coordinates":[-81.842449987917178,27.229579988123405]},"properties":{"OBJECTID":36,"Name":"South Florida State College","Address":"2251 NE Turner Ave","City":"Arcadia","Zip":"34266","COUNTY":"DESOTO","X":-81.842449990000006,"Y":27.229579990000001,"LONGLAT":"-81.84244999, 27.22957999","USNG":"17R ML 16584 12144","FACILITY_TYPE":"SHELTER","SHELTER_TYPE":"RISK","RPC_Region":"6","Year_Built":"2003","Building":"100A Main","AS_IS_A_Retrofit_R":"A","Generator_Type":"400 kW","PreMitigation_Capacity_Spaces":0,"PreMitigation_Square_Footage":0,"EHPA_Capacity_Gained_Spaces":0,"EHPA_Square_Footage_Gained":0,"Retrofit_Capacity_Gained_Spaces":117,"Retrofit_Square_Footage_Gained":7041,"Risk_Capacity_Spaces":117,"Risk_Square_Footage":7041,"Planned_Usage_Spaces":352,"FundingSource_F_Federal_State_S":" ","Evacuation_Zone":"No","SURGE_ZONE":"No","FLOOD_ZONE":"No","EHPA":"No","General_Pop":" ","SPECIAL_NEEDS":"Yes","Pet_Friendly":" ","Does_not_meet_ARC_4496":" ","Survey_Needed":" "}},{"type":"Feature","id":37,"geometry":{"type":"Point","coordinates":[-81.83639050812512,27.223803323547916]},"properties":{"OBJECTID":37,"Name":"Turner Center Exhibit Hall","Address":"2260 NE Roan St","City":"Arcadia","Zip":"34266","COUNTY":"DESOTO","X":-81.836390510000001,"Y":27.223803319999998,"LONGLAT":"-81.83639051, 27.22380332","USNG":"17R ML 17180 11500","FACILITY_TYPE":"SHELTER","SHELTER_TYPE":"RISK","RPC_Region":"6","Year_Built":"0","Building":"Main","AS_IS_A_Retrofit_R":"R","Generator_Type":"Unknown kW; located West of Bldg","PreMitigation_Capacity_Spaces":227,"PreMitigation_Square_Footage":13624,"EHPA_Capacity_Gained_Spaces":0,"EHPA_Square_Footage_Gained":0,"Retrofit_Capacity_Gained_Spaces":0,"Retrofit_Square_Footage_Gained":0,"Risk_Capacity_Spaces":227,"Risk_Square_Footage":13624,"Planned_Usage_Spaces":140,"FundingSource_F_Federal_State_S":" ","Evacuation_Zone":"No","SURGE_ZONE":"No","FLOOD_ZONE":"No","EHPA":"No","General_Pop":" ","SPECIAL_NEEDS":"Yes","Pet_Friendly":" ","Does_not_meet_ARC_4496":" ","Survey_Needed":" "}},{"type":"Feature","id":38,"geometry":{"type":"Point","coordinates":[-83.107216857031574,29.623719970176158]},"properties":{"OBJECTID":38,"Name":"Dixie County HS","Address":"17924 SE Hwy 19","City":"Cross City","Zip":"32628","COUNTY":"DIXIE","X":-83.107216859999994,"Y":29.62371997,"LONGLAT":"-83.10721686, 29.62371997","USNG":"17R KN 95977 78946","FACILITY_TYPE":"SHELTER","SHELTER_TYPE":"RISK","RPC_Region":"3","Year_Built":"2017","Building":"4 Cafeteria / Band","AS_IS_A_Retrofit_R":"A","Generator_Type":" ","PreMitigation_Capacity_Spaces":0,"PreMitigation_Square_Footage":0,"EHPA_Capacity_Gained_Spaces":0,"EHPA_Square_Footage_Gained":0,"Retrofit_Capacity_Gained_Spaces":0,"Retrofit_Square_Footage_Gained":0,"Risk_Capacity_Spaces":137,"Risk_Square_Footage":8207,"Planned_Usage_Spaces":0,"FundingSource_F_Federal_State_S":" ","Evacuation_Zone":"No","SURGE_ZONE":"No","FLOOD_ZONE":"No","EHPA":"No","General_Pop":" ","SPECIAL_NEEDS":"Yes","Pet_Friendly":" ","Does_not_meet_ARC_4496":" ","Survey_Needed":" "}},{"type":"Feature","id":39,"geometry":{"type":"Point","coordinates":[-81.506345980773588,30.202800006994302]},"properties":{"OBJECTID":39,"Name":"Atlantic Coast HS","Address":"9735 R G Skinner Pkwy","City":"Jacksonville","Zip":"32256","COUNTY":"DUVAL","X":-81.506345980000006,"Y":30.202800010000001,"LONGLAT":"-81.50634598, 30.20280001","USNG":"17R MP 51263 41365","FACILITY_TYPE":"SHELTER","SHELTER_TYPE":"RISK","RPC_Region":"4","Year_Built":"2010","Building":"2 Cafeteria / Gym","AS_IS_A_Retrofit_R":"A","Generator_Type":"Yes, unknown kW","PreMitigation_Capacity_Spaces":0,"PreMitigation_Square_Footage":0,"EHPA_Capacity_Gained_Spaces":626,"EHPA_Square_Footage_Gained":37536,"Retrofit_Capacity_Gained_Spaces":0,"Retrofit_Square_Footage_Gained":0,"Risk_Capacity_Spaces":626,"Risk_Square_Footage":37536,"Planned_Usage_Spaces":250,"FundingSource_F_Federal_State_S":"L","Evacuation_Zone":"No","SURGE_ZONE":"No","FLOOD_ZONE":"No","EHPA":"Yes","General_Pop":" ","SPECIAL_NEEDS":"Yes","Pet_Friendly":" ","Does_not_meet_ARC_4496":" ","Survey_Needed":" "}},{"type":"Feature","id":40,"geometry":{"type":"Point","coordinates":[-81.518193967626587,30.223123984152785]},"properties":{"OBJECTID":40,"Name":"Twin Lakes Academy ES (priority 5)","Address":"8000 Point Meadows Dr","City":"Jacksonville","Zip":"32256","COUNTY":"DUVAL","X":-81.518193969999999,"Y":30.22312398,"LONGLAT":"-81.51819397, 30.22312398","USNG":"17R MP 50133 43623","FACILITY_TYPE":"SHELTER","SHELTER_TYPE":"RISK","RPC_Region":"4","Year_Built":"1997","Building":"1 (1st floor) Main","AS_IS_A_Retrofit_R":"R","Generator_Type":"500 kW","PreMitigation_Capacity_Spaces":0,"PreMitigation_Square_Footage":0,"EHPA_Capacity_Gained_Spaces":0,"EHPA_Square_Footage_Gained":0,"Retrofit_Capacity_Gained_Spaces":455,"Retrofit_Square_Footage_Gained":27276,"Risk_Capacity_Spaces":455,"Risk_Square_Footage":27276,"Planned_Usage_Spaces":857,"FundingSource_F_Federal_State_S":" ","Evacuation_Zone":"No","SURGE_ZONE":"No","FLOOD_ZONE":"No","EHPA":"No","General_Pop":" ","SPECIAL_NEEDS":"Yes","Pet_Friendly":" ","Does_not_meet_ARC_4496":" ","Survey_Needed":" "}},{"type":"Feature","id":41,"geometry":{"type":"Point","coordinates":[-81.490979017689597,30.332788992244719]},"properties":{"OBJECTID":41,"Name":"Waterleaf ES","Address":"450 Kernan Blvd N","City":"Jacksonville","Zip":"32225","COUNTY":"DUVAL","X":-81.490979019999997,"Y":30.332788990000001,"LONGLAT":"-81.49097902, 30.33278899","USNG":"17R MP 52804 55764","FACILITY_TYPE":"SHELTER","SHELTER_TYPE":"RISK","RPC_Region":"4","Year_Built":"2011","Building":"1C Classroom","AS_IS_A_Retrofit_R":"A","Generator_Type":"475 kW for campus","PreMitigation_Capacity_Spaces":0,"PreMitigation_Square_Footage":0,"EHPA_Capacity_Gained_Spaces":157,"EHPA_Square_Footage_Gained":9416,"Retrofit_Capacity_Gained_Spaces":0,"Retrofit_Square_Footage_Gained":0,"Risk_Capacity_Spaces":157,"Risk_Square_Footage":9416,"Planned_Usage_Spaces":180,"FundingSource_F_Federal_State_S":" ","Evacuation_Zone":"No","SURGE_ZONE":"No","FLOOD_ZONE":"No","EHPA":"Yes","General_Pop":" ","SPECIAL_NEEDS":"Yes","Pet_Friendly":" ","Does_not_meet_ARC_4496":" ","Survey_Needed":" "}},{"type":"Feature","id":42,"geometry":{"type":"Point","coordinates":[-81.587470984754532,30.18900599194852]},"properties":{"OBJECTID":42,"Name":"Mandarin MS (Priority 3)","Address":"5100 Hood Rd","City":"Jacksonville","Zip":"32257","COUNTY":"DUVAL","X":-81.587470980000006,"Y":30.189005989999998,"LONGLAT":"-81.58747098, 30.18900599","USNG":"17R MP 43446 39874","FACILITY_TYPE":"SHELTER","SHELTER_TYPE":"RISK","RPC_Region":"4","Year_Built":"1989","Building":"1F Classroom","AS_IS_A_Retrofit_R":"R","Generator_Type":"100 kW for campus","PreMitigation_Capacity_Spaces":0,"PreMitigation_Square_Footage":0,"EHPA_Capacity_Gained_Spaces":0,"EHPA_Square_Footage_Gained":0,"Retrofit_Capacity_Gained_Spaces":0,"Retrofit_Square_Footage_Gained":0,"Risk_Capacity_Spaces":307,"Risk_Square_Footage":18399,"Planned_Usage_Spaces":496,"FundingSource_F_Federal_State_S":"S HB7121","Evacuation_Zone":"No","SURGE_ZONE":"No","FLOOD_ZONE":"No","EHPA":"No","General_Pop":" ","SPECIAL_NEEDS":"Yes","Pet_Friendly":" ","Does_not_meet_ARC_4496":" ","Survey_Needed":" "}},{"type":"Feature","id":43,"geometry":{"type":"Point","coordinates":[-81.490979017689597,30.332788992244719]},"properties":{"OBJECTID":43,"Name":"Waterleaf ES","Address":"450 Kernan Blvd N","City":"Jacksonville","Zip":"32225","COUNTY":"DUVAL","X":-81.490979019999997,"Y":30.332788990000001,"LONGLAT":"-81.49097902, 30.33278899","USNG":"17R MP 52804 55764","FACILITY_TYPE":"SHELTER","SHELTER_TYPE":"RISK","RPC_Region":"4","Year_Built":"2011","Building":"1D Dining","AS_IS_A_Retrofit_R":"A","Generator_Type":"475 kW for campus","PreMitigation_Capacity_Spaces":0,"PreMitigation_Square_Footage":0,"EHPA_Capacity_Gained_Spaces":72,"EHPA_Square_Footage_Gained":4306,"Retrofit_Capacity_Gained_Spaces":0,"Retrofit_Square_Footage_Gained":0,"Risk_Capacity_Spaces":72,"Risk_Square_Footage":4306,"Planned_Usage_Spaces":219,"FundingSource_F_Federal_State_S":"L","Evacuation_Zone":"No","SURGE_ZONE":"No","FLOOD_ZONE":"No","EHPA":"Yes","General_Pop":" ","SPECIAL_NEEDS":"Yes","Pet_Friendly":" ","Does_not_meet_ARC_4496":" ","Survey_Needed":" "}},{"type":"Feature","id":44,"geometry":{"type":"Point","coordinates":[-81.727217008070426,30.393925001229299]},"properties":{"OBJECTID":44,"Name":"The Legends Center of \nCity of Jacksonville","Address":"5130 Soutel Dr","City":"Jacksonville","Zip":"32208","COUNTY":"DUVAL","X":-81.727217010000004,"Y":30.393924999999999,"LONGLAT":"-81.72721701, 30.39392500","USNG":"17R MP 30139 62661","FACILITY_TYPE":"SHELTER","SHELTER_TYPE":"RISK","RPC_Region":"4","Year_Built":"2010","Building":"1B Auditorium","AS_IS_A_Retrofit_R":"A","Generator_Type":"475 kW","PreMitigation_Capacity_Spaces":0,"PreMitigation_Square_Footage":0,"EHPA_Capacity_Gained_Spaces":162,"EHPA_Square_Footage_Gained":9718,"Retrofit_Capacity_Gained_Spaces":0,"Retrofit_Square_Footage_Gained":0,"Risk_Capacity_Spaces":162,"Risk_Square_Footage":9718,"Planned_Usage_Spaces":62,"FundingSource_F_Federal_State_S":"L, S, F","Evacuation_Zone":"C","SURGE_ZONE":"No","FLOOD_ZONE":"No","EHPA":"Yes","General_Pop":" ","SPECIAL_NEEDS":"Yes","Pet_Friendly":" ","Does_not_meet_ARC_4496":" ","Survey_Needed":" "}},{"type":"Feature","id":45,"geometry":{"type":"Point","coordinates":[-81.495283964052632,30.108924996500114]},"properties":{"OBJECTID":45,"Name":"Bartram Springs ES","Address":"14799 Bartram Springs Pkwy","City":"Jacksonville","Zip":"32258","COUNTY":"DUVAL","X":-81.495283959999995,"Y":30.108924999999999,"LONGLAT":"-81.49528396, 30.10892500","USNG":"17R MP 52282 30958","FACILITY_TYPE":"SHELTER","SHELTER_TYPE":"RISK","RPC_Region":"4","Year_Built":"2009","Building":"1C Classroom","AS_IS_A_Retrofit_R":"A","Generator_Type":"475 kW for campus","PreMitigation_Capacity_Spaces":0,"PreMitigation_Square_Footage":0,"EHPA_Capacity_Gained_Spaces":124,"EHPA_Square_Footage_Gained":7448,"Retrofit_Capacity_Gained_Spaces":0,"Retrofit_Square_Footage_Gained":0,"Risk_Capacity_Spaces":124,"Risk_Square_Footage":7448,"Planned_Usage_Spaces":0,"FundingSource_F_Federal_State_S":" ","Evacuation_Zone":"No","SURGE_ZONE":"No","FLOOD_ZONE":"No","EHPA":"Yes","General_Pop":" ","SPECIAL_NEEDS":"Yes","Pet_Friendly":" ","Does_not_meet_ARC_4496":" ","Survey_Needed":" "}},{"type":"Feature","id":46,"geometry":{"type":"Point","coordinates":[-81.629369016873611,30.46661001638191]},"properties":{"OBJECTID":46,"Name":"Oceanway MS (1st Priority)","Address":"143 Oceanway Ave","City":"Jacksonville","Zip":"32218","COUNTY":"DUVAL","X":-81.629369019999999,"Y":30.466610020000001,"LONGLAT":"-81.62936902, 30.46661002","USNG":"17R MP 39584 70659","FACILITY_TYPE":"SHELTER","SHELTER_TYPE":"RISK","RPC_Region":"4","Year_Built":"2003","Building":"2 Cafeteria","AS_IS_A_Retrofit_R":"R","Generator_Type":"Yes, unknown kW","PreMitigation_Capacity_Spaces":0,"PreMitigation_Square_Footage":0,"EHPA_Capacity_Gained_Spaces":115,"EHPA_Square_Footage_Gained":6884,"Retrofit_Capacity_Gained_Spaces":0,"Retrofit_Square_Footage_Gained":0,"Risk_Capacity_Spaces":115,"Risk_Square_Footage":6884,"Planned_Usage_Spaces":200,"FundingSource_F_Federal_State_S":" ","Evacuation_Zone":"E","SURGE_ZONE":"No","FLOOD_ZONE":"No","EHPA":"Yes","General_Pop":" ","SPECIAL_NEEDS":"Yes","Pet_Friendly":" ","Does_not_meet_ARC_4496":" ","Survey_Needed":" "}},{"type":"Feature","id":47,"geometry":{"type":"Point","coordinates":[-81.495283964052632,30.108924996500114]},"properties":{"OBJECTID":47,"Name":"Bartram Springs ES","Address":"14799 Bartram Springs Pkwy","City":"Jacksonville","Zip":"32258","COUNTY":"DUVAL","X":-81.495283959999995,"Y":30.108924999999999,"LONGLAT":"-81.49528396, 30.10892500","USNG":"17R MP 52282 30958","FACILITY_TYPE":"SHELTER","SHELTER_TYPE":"RISK","RPC_Region":"4","Year_Built":"2009","Building":"1D Cafeteria","AS_IS_A_Retrofit_R":"A","Generator_Type":"475 kW for campus","PreMitigation_Capacity_Spaces":0,"PreMitigation_Square_Footage":0,"EHPA_Capacity_Gained_Spaces":75,"EHPA_Square_Footage_Gained":4529,"Retrofit_Capacity_Gained_Spaces":0,"Retrofit_Square_Footage_Gained":0,"Risk_Capacity_Spaces":75,"Risk_Square_Footage":4529,"Planned_Usage_Spaces":436,"FundingSource_F_Federal_State_S":"L","Evacuation_Zone":"No","SURGE_ZONE":"No","FLOOD_ZONE":"No","EHPA":"Yes","General_Pop":" ","SPECIAL_NEEDS":"Yes","Pet_Friendly":" ","Does_not_meet_ARC_4496":" ","Survey_Needed":" "}},{"type":"Feature","id":48,"geometry":{"type":"Point","coordinates":[-81.487247981871093,30.323351011169091]},"properties":{"OBJECTID":48,"Name":"Landmark MS (Priority 4)","Address":"101 Kernan Blvd N","City":"Jacksonville","Zip":"32225","COUNTY":"DUVAL","X":-81.487247980000006,"Y":30.32335101,"LONGLAT":"-81.48724798, 30.32335101","USNG":"17R MP 53158 54716","FACILITY_TYPE":"SHELTER","SHELTER_TYPE":"RISK","RPC_Region":"4","Year_Built":"1989","Building":"1E Cafeteria / Classroom","AS_IS_A_Retrofit_R":"R","Generator_Type":"100 kW for campus","PreMitigation_Capacity_Spaces":0,"PreMitigation_Square_Footage":0,"EHPA_Capacity_Gained_Spaces":0,"EHPA_Square_Footage_Gained":0,"Retrofit_Capacity_Gained_Spaces":0,"Retrofit_Square_Footage_Gained":0,"Risk_Capacity_Spaces":301,"Risk_Square_Footage":18054,"Planned_Usage_Spaces":496,"FundingSource_F_Federal_State_S":" ","Evacuation_Zone":"No","SURGE_ZONE":"No","FLOOD_ZONE":"No","EHPA":"No","General_Pop":" ","SPECIAL_NEEDS":"Yes","Pet_Friendly":" ","Does_not_meet_ARC_4496":" ","Survey_Needed":" "}},{"type":"Feature","id":49,"geometry":{"type":"Point","coordinates":[-81.820856025848244,30.199847983935491]},"properties":{"OBJECTID":49,"Name":"Enterprise Learning Academy (2nd Priority)","Address":"8085 Old Middleburg Rd","City":"Jacksonville","Zip":"32222","COUNTY":"DUVAL","X":-81.820856030000002,"Y":30.199847980000001,"LONGLAT":"-81.82085603, 30.19984798","USNG":"17R MP 20988 41215","FACILITY_TYPE":"SHELTER","SHELTER_TYPE":"RISK","RPC_Region":"4","Year_Built":"1997","Building":"Main 1st Floor","AS_IS_A_Retrofit_R":"R","Generator_Type":"400 kW and 150 kW","PreMitigation_Capacity_Spaces":0,"PreMitigation_Square_Footage":0,"EHPA_Capacity_Gained_Spaces":0,"EHPA_Square_Footage_Gained":0,"Retrofit_Capacity_Gained_Spaces":360,"Retrofit_Square_Footage_Gained":21600,"Risk_Capacity_Spaces":360,"Risk_Square_Footage":21600,"Planned_Usage_Spaces":671,"FundingSource_F_Federal_State_S":" ","Evacuation_Zone":"No","SURGE_ZONE":"No","FLOOD_ZONE":"No","EHPA":"No","General_Pop":" ","SPECIAL_NEEDS":"Yes","Pet_Friendly":" ","Does_not_meet_ARC_4496":" ","Survey_Needed":" "}},{"type":"Feature","id":50,"geometry":{"type":"Point","coordinates":[-81.822293019729869,30.252472002995386]},"properties":{"OBJECTID":50,"Name":"Westview K-8","Address":"5270 Connie Jean Rd","City":"Jacksonville","Zip":"32210","COUNTY":"DUVAL","X":-81.822293020000004,"Y":30.252472000000001,"LONGLAT":"-81.82229302, 30.25247200","USNG":"17R MP 20891 47047","FACILITY_TYPE":"SHELTER","SHELTER_TYPE":"RISK","RPC_Region":"4","Year_Built":"2009","Building":"1 Classroom / Music","AS_IS_A_Retrofit_R":"A","Generator_Type":" ","PreMitigation_Capacity_Spaces":0,"PreMitigation_Square_Footage":0,"EHPA_Capacity_Gained_Spaces":167,"EHPA_Square_Footage_Gained":10020,"Retrofit_Capacity_Gained_Spaces":0,"Retrofit_Square_Footage_Gained":0,"Risk_Capacity_Spaces":167,"Risk_Square_Footage":10020,"Planned_Usage_Spaces":167,"FundingSource_F_Federal_State_S":"L","Evacuation_Zone":"No","SURGE_ZONE":"No","FLOOD_ZONE":"No","EHPA":"Yes","General_Pop":" ","SPECIAL_NEEDS":"Yes","Pet_Friendly":" ","Does_not_meet_ARC_4496":" ","Survey_Needed":" "}},{"type":"Feature","id":51,"geometry":{"type":"Point","coordinates":[-87.200570026174887,30.480829998135597]},"properties":{"OBJECTID":51,"Name":"Pensacola State College","Address":"1000 College Ave","City":"Pensacola","Zip":"32504","COUNTY":"ESCAMBIA","X":-87.200570029999994,"Y":30.480830000000001,"LONGLAT":"-87.20057003, 30.48083000","USNG":"16R DU 80749 72084","FACILITY_TYPE":"SHELTER","SHELTER_TYPE":"RISK","RPC_Region":"1","Year_Built":"0","Building":"Lou Ross Athletics","AS_IS_A_Retrofit_R":"R","Generator_Type":" ","PreMitigation_Capacity_Spaces":0,"PreMitigation_Square_Footage":0,"EHPA_Capacity_Gained_Spaces":0,"EHPA_Square_Footage_Gained":0,"Retrofit_Capacity_Gained_Spaces":0,"Retrofit_Square_Footage_Gained":0,"Risk_Capacity_Spaces":558,"Risk_Square_Footage":33480,"Planned_Usage_Spaces":0,"FundingSource_F_Federal_State_S":" ","Evacuation_Zone":"No","SURGE_ZONE":"No","FLOOD_ZONE":"No","EHPA":"No","General_Pop":" ","SPECIAL_NEEDS":"Yes","Pet_Friendly":" ","Does_not_meet_ARC_4496":" ","Survey_Needed":"Yes"}},{"type":"Feature","id":52,"geometry":{"type":"Point","coordinates":[-87.29375841185616,30.486475571129446]},"properties":{"OBJECTID":52,"Name":"West Florida HS","Address":"2404 Longleaf Dr","City":"Pensacola","Zip":"32506","COUNTY":"ESCAMBIA","X":-87.293758409999995,"Y":30.48647557,"LONGLAT":"-87.29375841, 30.48647557","USNG":"16R DU 71806 72729","FACILITY_TYPE":"SHELTER","SHELTER_TYPE":"RISK","RPC_Region":"1","Year_Built":"2002","Building":"9 Gym / Cafeteria","AS_IS_A_Retrofit_R":"A","Generator_Type":" ","PreMitigation_Capacity_Spaces":0,"PreMitigation_Square_Footage":0,"EHPA_Capacity_Gained_Spaces":0,"EHPA_Square_Footage_Gained":0,"Retrofit_Capacity_Gained_Spaces":0,"Retrofit_Square_Footage_Gained":0,"Risk_Capacity_Spaces":291,"Risk_Square_Footage":14174,"Planned_Usage_Spaces":291,"FundingSource_F_Federal_State_S":"L","Evacuation_Zone":"No","SURGE_ZONE":"No","FLOOD_ZONE":"No","EHPA":"No","General_Pop":" ","SPECIAL_NEEDS":"Yes","Pet_Friendly":" ","Does_not_meet_ARC_4496":" ","Survey_Needed":" "}},{"type":"Feature","id":53,"geometry":{"type":"Point","coordinates":[-87.29375841185616,30.486475571129446]},"properties":{"OBJECTID":53,"Name":"West Florida HS","Address":"2404 Longleaf Dr","City":"Pensacola","Zip":"32506","COUNTY":"ESCAMBIA","X":-87.293758409999995,"Y":30.48647557,"LONGLAT":"-87.29375841, 30.48647557","USNG":"16R DU 71806 72729","FACILITY_TYPE":"SHELTER","SHELTER_TYPE":"RISK","RPC_Region":"1","Year_Built":"1992","Building":" 26 Classroom","AS_IS_A_Retrofit_R":"R","Generator_Type":"HW 800 KW","PreMitigation_Capacity_Spaces":0,"PreMitigation_Square_Footage":0,"EHPA_Capacity_Gained_Spaces":0,"EHPA_Square_Footage_Gained":0,"Retrofit_Capacity_Gained_Spaces":89,"Retrofit_Square_Footage_Gained":6096,"Risk_Capacity_Spaces":89,"Risk_Square_Footage":6096,"Planned_Usage_Spaces":103,"FundingSource_F_Federal_State_S":"S","Evacuation_Zone":"No","SURGE_ZONE":"No","FLOOD_ZONE":"No","EHPA":"No","General_Pop":" ","SPECIAL_NEEDS":"Yes","Pet_Friendly":" ","Does_not_meet_ARC_4496":" ","Survey_Needed":" "}},{"type":"Feature","id":54,"geometry":{"type":"Point","coordinates":[-87.29375841185616,30.486475571129446]},"properties":{"OBJECTID":54,"Name":"West Florida HS","Address":"2404 Longleaf Dr","City":"Pensacola","Zip":"32506","COUNTY":"ESCAMBIA","X":-87.293758409999995,"Y":30.48647557,"LONGLAT":"-87.29375841, 30.48647557","USNG":"16R DU 71806 72729","FACILITY_TYPE":"SHELTER","SHELTER_TYPE":"RISK","RPC_Region":"1","Year_Built":"1991","Building":"25 Cafeteria","AS_IS_A_Retrofit_R":"R","Generator_Type":"HW 800 KW","PreMitigation_Capacity_Spaces":0,"PreMitigation_Square_Footage":0,"EHPA_Capacity_Gained_Spaces":0,"EHPA_Square_Footage_Gained":0,"Retrofit_Capacity_Gained_Spaces":222,"Retrofit_Square_Footage_Gained":12993,"Risk_Capacity_Spaces":222,"Risk_Square_Footage":12993,"Planned_Usage_Spaces":254,"FundingSource_F_Federal_State_S":"S","Evacuation_Zone":"No","SURGE_ZONE":"No","FLOOD_ZONE":"No","EHPA":"No","General_Pop":" ","SPECIAL_NEEDS":"Yes","Pet_Friendly":" ","Does_not_meet_ARC_4496":" ","Survey_Needed":" "}},{"type":"Feature","id":55,"geometry":{"type":"Point","coordinates":[-81.220870008983937,29.505270010082405]},"properties":{"OBJECTID":55,"Name":"Rymfire ES","Address":"1425 Rymfire Dr","City":"Palm Coast","Zip":"32164","COUNTY":"FLAGLER","X":-81.220870009999999,"Y":29.50527001,"LONGLAT":"-81.22087001, 29.50527001","USNG":"17R MN 78592 63987","FACILITY_TYPE":"SHELTER","SHELTER_TYPE":"RISK","RPC_Region":"4","Year_Built":"2008","Building":"6 Classroom / Art","AS_IS_A_Retrofit_R":"A","Generator_Type":" ","PreMitigation_Capacity_Spaces":340,"PreMitigation_Square_Footage":20374,"EHPA_Capacity_Gained_Spaces":0,"EHPA_Square_Footage_Gained":0,"Retrofit_Capacity_Gained_Spaces":0,"Retrofit_Square_Footage_Gained":0,"Risk_Capacity_Spaces":340,"Risk_Square_Footage":20374,"Planned_Usage_Spaces":0,"FundingSource_F_Federal_State_S":" ","Evacuation_Zone":"No","SURGE_ZONE":"No","FLOOD_ZONE":"No","EHPA":"No","General_Pop":" ","SPECIAL_NEEDS":"Yes","Pet_Friendly":" ","Does_not_meet_ARC_4496":" ","Survey_Needed":" "}},{"type":"Feature","id":56,"geometry":{"type":"Point","coordinates":[-81.222909996658501,29.530020010195138]},"properties":{"OBJECTID":56,"Name":"Buddy-Worth Campus","Address":"4500 Belle Terre Pkwy","City":"Palm Coast","Zip":"32164","COUNTY":"FLAGLER","X":-81.222909999999999,"Y":29.530020010000001,"LONGLAT":"-81.22291000, 29.53002001","USNG":"17R MN 78400 66730","FACILITY_TYPE":"SHELTER","SHELTER_TYPE":"RISK","RPC_Region":"4","Year_Built":"2007","Building":"Buddy Taylor MS 9 Classroom / Cafeteria","AS_IS_A_Retrofit_R":"A","Generator_Type":"Yes, unknown kW","PreMitigation_Capacity_Spaces":0,"PreMitigation_Square_Footage":0,"EHPA_Capacity_Gained_Spaces":0,"EHPA_Square_Footage_Gained":0,"Retrofit_Capacity_Gained_Spaces":0,"Retrofit_Square_Footage_Gained":0,"Risk_Capacity_Spaces":1615,"Risk_Square_Footage":32305,"Planned_Usage_Spaces":536,"FundingSource_F_Federal_State_S":" ","Evacuation_Zone":"No","SURGE_ZONE":"No","FLOOD_ZONE":"No","EHPA":"No","General_Pop":" ","SPECIAL_NEEDS":"Yes","Pet_Friendly":" ","Does_not_meet_ARC_4496":"Yes","Survey_Needed":" "}},{"type":"Feature","id":57,"geometry":{"type":"Point","coordinates":[-81.220870008983937,29.505270010082405]},"properties":{"OBJECTID":57,"Name":"Rymfire ES","Address":"1425 Rymfire Dr","City":"Palm Coast","Zip":"32164","COUNTY":"FLAGLER","X":-81.220870009999999,"Y":29.50527001,"LONGLAT":"-81.22087001, 29.50527001","USNG":"17R MN 78592 63987","FACILITY_TYPE":"SHELTER","SHELTER_TYPE":"RISK","RPC_Region":"4","Year_Built":"2008","Building":"7 Gym","AS_IS_A_Retrofit_R":"A","Generator_Type":"1000 kW","PreMitigation_Capacity_Spaces":268,"PreMitigation_Square_Footage":14323,"EHPA_Capacity_Gained_Spaces":0,"EHPA_Square_Footage_Gained":0,"Retrofit_Capacity_Gained_Spaces":0,"Retrofit_Square_Footage_Gained":0,"Risk_Capacity_Spaces":268,"Risk_Square_Footage":16052,"Planned_Usage_Spaces":267,"FundingSource_F_Federal_State_S":" ","Evacuation_Zone":"No","SURGE_ZONE":"No","FLOOD_ZONE":"No","EHPA":"No","General_Pop":" ","SPECIAL_NEEDS":"Yes","Pet_Friendly":" ","Does_not_meet_ARC_4496":" ","Survey_Needed":" "}},{"type":"Feature","id":58,"geometry":{"type":"Point","coordinates":[-81.220870008983937,29.505270010082405]},"properties":{"OBJECTID":58,"Name":"Rymfire ES","Address":"1425 Rymfire Dr","City":"Palm Coast","Zip":"32164","COUNTY":"FLAGLER","X":-81.220870009999999,"Y":29.50527001,"LONGLAT":"-81.22087001, 29.50527001","USNG":"17R MN 78592 63987","FACILITY_TYPE":"SHELTER","SHELTER_TYPE":"RISK","RPC_Region":"4","Year_Built":"2006","Building":"3 Cafeteria","AS_IS_A_Retrofit_R":"A","Generator_Type":"1000 kW","PreMitigation_Capacity_Spaces":0,"PreMitigation_Square_Footage":0,"EHPA_Capacity_Gained_Spaces":123,"EHPA_Square_Footage_Gained":7355,"Retrofit_Capacity_Gained_Spaces":0,"Retrofit_Square_Footage_Gained":0,"Risk_Capacity_Spaces":123,"Risk_Square_Footage":7355,"Planned_Usage_Spaces":122,"FundingSource_F_Federal_State_S":" ","Evacuation_Zone":"No","SURGE_ZONE":"No","FLOOD_ZONE":"No","EHPA":"Yes","General_Pop":" ","SPECIAL_NEEDS":"Yes","Pet_Friendly":" ","Does_not_meet_ARC_4496":" ","Survey_Needed":" "}},{"type":"Feature","id":59,"geometry":{"type":"Point","coordinates":[-82.859299984894932,29.751510000424105]},"properties":{"OBJECTID":59,"Name":"Bell HS","Address":"930 S Main St","City":"Bell","Zip":"32619","COUNTY":"GILCHRIST","X":-82.859299980000003,"Y":29.75151,"LONGLAT":"-82.85929998, 29.75151000","USNG":"17R LN 20213 92699","FACILITY_TYPE":"SHELTER","SHELTER_TYPE":"RISK","RPC_Region":"3","Year_Built":"1998","Building":"20 Health","AS_IS_A_Retrofit_R":"R","Generator_Type":"Yes, unknown kW","PreMitigation_Capacity_Spaces":0,"PreMitigation_Square_Footage":0,"EHPA_Capacity_Gained_Spaces":0,"EHPA_Square_Footage_Gained":0,"Retrofit_Capacity_Gained_Spaces":71,"Retrofit_Square_Footage_Gained":4276,"Risk_Capacity_Spaces":71,"Risk_Square_Footage":4276,"Planned_Usage_Spaces":71,"FundingSource_F_Federal_State_S":" ","Evacuation_Zone":"No","SURGE_ZONE":"No","FLOOD_ZONE":"No","EHPA":"No","General_Pop":" ","SPECIAL_NEEDS":"Yes","Pet_Friendly":" ","Does_not_meet_ARC_4496":" ","Survey_Needed":"Yes"}},{"type":"Feature","id":60,"geometry":{"type":"Point","coordinates":[-81.442930706884184,26.807019916356381]},"properties":{"OBJECTID":60,"Name":"West Glades ES","Address":"2586 Hwy 731","City":"LaBelle","Zip":"33935","COUNTY":"GLADES","X":-81.442930709999999,"Y":26.807019919999998,"LONGLAT":"-81.44293071, 26.80701992","USNG":"17R MK 55979 65137","FACILITY_TYPE":"SHELTER","SHELTER_TYPE":"RISK","RPC_Region":"8","Year_Built":"2004","Building":"3 Classroom","AS_IS_A_Retrofit_R":"A","Generator_Type":" ","PreMitigation_Capacity_Spaces":0,"PreMitigation_Square_Footage":0,"EHPA_Capacity_Gained_Spaces":124,"EHPA_Square_Footage_Gained":7455,"Retrofit_Capacity_Gained_Spaces":0,"Retrofit_Square_Footage_Gained":0,"Risk_Capacity_Spaces":124,"Risk_Square_Footage":7455,"Planned_Usage_Spaces":50,"FundingSource_F_Federal_State_S":" ","Evacuation_Zone":"No","SURGE_ZONE":"No","FLOOD_ZONE":"No","EHPA":"Yes","General_Pop":" ","SPECIAL_NEEDS":"Yes","Pet_Friendly":" ","Does_not_meet_ARC_4496":" ","Survey_Needed":" "}},{"type":"Feature","id":61,"geometry":{"type":"Point","coordinates":[-82.930109536140719,30.475477134067482]},"properties":{"OBJECTID":61,"Name":"Hamilton County HS","Address":"5683 US Highway 129 S","City":"Jasper","Zip":"32052","COUNTY":"HAMILTON","X":-82.930109540000004,"Y":30.475477130000002,"LONGLAT":"-82.93010954, 30.47547713","USNG":"17R LP 14722 73057","FACILITY_TYPE":"SHELTER","SHELTER_TYPE":"RISK","RPC_Region":"3","Year_Built":"2003","Building":"8 Cafeteria","AS_IS_A_Retrofit_R":"A","Generator_Type":"350 kW for campus","PreMitigation_Capacity_Spaces":0,"PreMitigation_Square_Footage":0,"EHPA_Capacity_Gained_Spaces":76,"EHPA_Square_Footage_Gained":4555,"Retrofit_Capacity_Gained_Spaces":0,"Retrofit_Square_Footage_Gained":0,"Risk_Capacity_Spaces":76,"Risk_Square_Footage":4555,"Planned_Usage_Spaces":0,"FundingSource_F_Federal_State_S":" ","Evacuation_Zone":"No","SURGE_ZONE":"No","FLOOD_ZONE":"No","EHPA":"Yes","General_Pop":" ","SPECIAL_NEEDS":"Yes","Pet_Friendly":" ","Does_not_meet_ARC_4496":" ","Survey_Needed":" "}},{"type":"Feature","id":62,"geometry":{"type":"Point","coordinates":[-81.821530015346923,27.604050020321157]},"properties":{"OBJECTID":62,"Name":"South Florida State College","Address":"2968 US 17 N","City":"Bowling Green","Zip":"33834","COUNTY":"HARDEE","X":-81.821530019999997,"Y":27.604050019999999,"LONGLAT":"-81.82153002, 27.60405002","USNG":"17R ML 18930 53611","FACILITY_TYPE":"SHELTER","SHELTER_TYPE":"RISK","RPC_Region":"6","Year_Built":"2003","Building":"100A Main","AS_IS_A_Retrofit_R":"A","Generator_Type":"400 kW for campus","PreMitigation_Capacity_Spaces":0,"PreMitigation_Square_Footage":0,"EHPA_Capacity_Gained_Spaces":117,"EHPA_Square_Footage_Gained":7041,"Retrofit_Capacity_Gained_Spaces":0,"Retrofit_Square_Footage_Gained":0,"Risk_Capacity_Spaces":117,"Risk_Square_Footage":7041,"Planned_Usage_Spaces":110,"FundingSource_F_Federal_State_S":" ","Evacuation_Zone":"No","SURGE_ZONE":"No","FLOOD_ZONE":"No","EHPA":"Yes","General_Pop":" ","SPECIAL_NEEDS":"Yes","Pet_Friendly":" ","Does_not_meet_ARC_4496":" ","Survey_Needed":" "}},{"type":"Feature","id":63,"geometry":{"type":"Point","coordinates":[-82.501822962811033,28.495812014529715]},"properties":{"OBJECTID":63,"Name":"Challenger K-8","Address":"13400 Elgin Blvd","City":"Spring Hill","Zip":"34609","COUNTY":"HERNANDO","X":-82.501822959999998,"Y":28.495812019999999,"LONGLAT":"-82.50182296, 28.49581202","USNG":"17R LM 53009 53047","FACILITY_TYPE":"SHELTER","SHELTER_TYPE":"RISK","RPC_Region":"7","Year_Built":"2004","Building":"1 (300s) Cafeteria","AS_IS_A_Retrofit_R":"A","Generator_Type":" ","PreMitigation_Capacity_Spaces":0,"PreMitigation_Square_Footage":0,"EHPA_Capacity_Gained_Spaces":216,"EHPA_Square_Footage_Gained":12936,"Retrofit_Capacity_Gained_Spaces":0,"Retrofit_Square_Footage_Gained":0,"Risk_Capacity_Spaces":216,"Risk_Square_Footage":12936,"Planned_Usage_Spaces":184,"FundingSource_F_Federal_State_S":"L","Evacuation_Zone":"No","SURGE_ZONE":"No","FLOOD_ZONE":"No","EHPA":"Yes","General_Pop":" ","SPECIAL_NEEDS":"Yes","Pet_Friendly":" ","Does_not_meet_ARC_4496":" ","Survey_Needed":"Yes"}},{"type":"Feature","id":64,"geometry":{"type":"Point","coordinates":[-82.322347974898165,28.510536000295414]},"properties":{"OBJECTID":64,"Name":"The Arc Nature Coast Education Center","Address":"5283 Neff Lake Rd","City":"Brooksville","Zip":"34601","COUNTY":"HERNANDO","X":-82.322347969999996,"Y":28.510535999999998,"LONGLAT":"-82.32234797, 28.51053600","USNG":"17R LM 70595 54472","FACILITY_TYPE":"SHELTER","SHELTER_TYPE":"RISK","RPC_Region":"7","Year_Built":"0","Building":"Main","AS_IS_A_Retrofit_R":"A","Generator_Type":"Yes, unknown kW","PreMitigation_Capacity_Spaces":0,"PreMitigation_Square_Footage":0,"EHPA_Capacity_Gained_Spaces":0,"EHPA_Square_Footage_Gained":0,"Retrofit_Capacity_Gained_Spaces":0,"Retrofit_Square_Footage_Gained":0,"Risk_Capacity_Spaces":66,"Risk_Square_Footage":3960,"Planned_Usage_Spaces":66,"FundingSource_F_Federal_State_S":" ","Evacuation_Zone":"No","SURGE_ZONE":"No","FLOOD_ZONE":"No","EHPA":"No","General_Pop":" ","SPECIAL_NEEDS":"Yes","Pet_Friendly":" ","Does_not_meet_ARC_4496":" ","Survey_Needed":"Yes"}},{"type":"Feature","id":65,"geometry":{"type":"Point","coordinates":[-82.400385002809728,28.549994982988494]},"properties":{"OBJECTID":65,"Name":"Enrichment Center","Address":"800 John Gary Grubbs Blvd","City":"Brooksville","Zip":"34601","COUNTY":"HERNANDO","X":-82.400385,"Y":28.549994980000001,"LONGLAT":"-82.40038500, 28.54999498","USNG":"17R LM 63008 58930","FACILITY_TYPE":"SHELTER","SHELTER_TYPE":"RISK","RPC_Region":"7","Year_Built":"0","Building":"Main","AS_IS_A_Retrofit_R":"R","Generator_Type":"Yes, unknown kW","PreMitigation_Capacity_Spaces":0,"PreMitigation_Square_Footage":0,"EHPA_Capacity_Gained_Spaces":0,"EHPA_Square_Footage_Gained":0,"Retrofit_Capacity_Gained_Spaces":80,"Retrofit_Square_Footage_Gained":4800,"Risk_Capacity_Spaces":80,"Risk_Square_Footage":4800,"Planned_Usage_Spaces":0,"FundingSource_F_Federal_State_S":"L,S","Evacuation_Zone":"No","SURGE_ZONE":"No","FLOOD_ZONE":"No","EHPA":"No","General_Pop":" ","SPECIAL_NEEDS":"Yes","Pet_Friendly":" ","Does_not_meet_ARC_4496":" ","Survey_Needed":"Yes"}},{"type":"Feature","id":66,"geometry":{"type":"Point","coordinates":[-82.31272798116288,27.851792004210964]},"properties":{"OBJECTID":66,"Name":"Riverview HS","Address":"11311 Boyette Rd","City":"Riverview","Zip":"33569","COUNTY":"HILLSBOROUGH","X":-82.312727980000005,"Y":27.851792,"LONGLAT":"-82.31272798, 27.85179200","USNG":"17R LL 70746 81476","FACILITY_TYPE":"SHELTER","SHELTER_TYPE":"RISK","RPC_Region":"7","Year_Built":"1999","Building":"11 Classroom","AS_IS_A_Retrofit_R":"A","Generator_Type":" ","PreMitigation_Capacity_Spaces":0,"PreMitigation_Square_Footage":0,"EHPA_Capacity_Gained_Spaces":193,"EHPA_Square_Footage_Gained":11590,"Retrofit_Capacity_Gained_Spaces":0,"Retrofit_Square_Footage_Gained":0,"Risk_Capacity_Spaces":193,"Risk_Square_Footage":11590,"Planned_Usage_Spaces":400,"FundingSource_F_Federal_State_S":"L, S","Evacuation_Zone":"No","SURGE_ZONE":"No","FLOOD_ZONE":"No","EHPA":"Yes","General_Pop":" ","SPECIAL_NEEDS":"Yes","Pet_Friendly":" ","Does_not_meet_ARC_4496":" ","Survey_Needed":"Yes"}},{"type":"Feature","id":67,"geometry":{"type":"Point","coordinates":[-82.404999539366742,28.055451103934253]},"properties":{"OBJECTID":67,"Name":"Yeungling Center","Address":"12499 USF Bull Run Drive","City":"Tampa","Zip":"33617","COUNTY":"HILLSBOROUGH","X":-82.404999540000006,"Y":28.055451099999999,"LONGLAT":"-82.40499954, 28.05545110","USNG":"17R LM 61919 04141","FACILITY_TYPE":"SHELTER","SHELTER_TYPE":"RISK","RPC_Region":"7","Year_Built":"0","Building":"1 Main","AS_IS_A_Retrofit_R":"R","Generator_Type":"Yes, unknown kW","PreMitigation_Capacity_Spaces":0,"PreMitigation_Square_Footage":0,"EHPA_Capacity_Gained_Spaces":0,"EHPA_Square_Footage_Gained":0,"Retrofit_Capacity_Gained_Spaces":1500,"Retrofit_Square_Footage_Gained":90000,"Risk_Capacity_Spaces":1500,"Risk_Square_Footage":90000,"Planned_Usage_Spaces":1000,"FundingSource_F_Federal_State_S":" ","Evacuation_Zone":"No","SURGE_ZONE":"No","FLOOD_ZONE":"No","EHPA":"No","General_Pop":" ","SPECIAL_NEEDS":"Yes","Pet_Friendly":" ","Does_not_meet_ARC_4496":" ","Survey_Needed":" "}},{"type":"Feature","id":68,"geometry":{"type":"Point","coordinates":[-82.435983029222285,27.997296981407636]},"properties":{"OBJECTID":68,"Name":"D.G. Erwin Technical College","Address":"2010 E. Hillsborough Ave","City":"Tampa","Zip":"33610","COUNTY":"HILLSBOROUGH","X":-82.435983030000003,"Y":27.997296980000002,"LONGLAT":"-82.43598303, 27.99729698","USNG":"17R LL 58798 97733","FACILITY_TYPE":"SHELTER","SHELTER_TYPE":"RISK","RPC_Region":"7","Year_Built":"1957","Building":"1 Main","AS_IS_A_Retrofit_R":"R","Generator_Type":" ","PreMitigation_Capacity_Spaces":0,"PreMitigation_Square_Footage":0,"EHPA_Capacity_Gained_Spaces":0,"EHPA_Square_Footage_Gained":0,"Retrofit_Capacity_Gained_Spaces":1000,"Retrofit_Square_Footage_Gained":60000,"Risk_Capacity_Spaces":1000,"Risk_Square_Footage":60000,"Planned_Usage_Spaces":400,"FundingSource_F_Federal_State_S":"S","Evacuation_Zone":"No","SURGE_ZONE":"No","FLOOD_ZONE":"No","EHPA":"No","General_Pop":" ","SPECIAL_NEEDS":"Yes","Pet_Friendly":" ","Does_not_meet_ARC_4496":" ","Survey_Needed":" "}},{"type":"Feature","id":69,"geometry":{"type":"Point","coordinates":[-82.289986034074232,27.942976004377222]},"properties":{"OBJECTID":69,"Name":"McLane MS","Address":"306 N Knights Ave","City":"Brandon","Zip":"33510","COUNTY":"HILLSBOROUGH","X":-82.289986029999994,"Y":27.942976009999999,"LONGLAT":"-82.28998603, 27.94297601","USNG":"17R LL 73092 91555","FACILITY_TYPE":"SHELTER","SHELTER_TYPE":"RISK","RPC_Region":"7","Year_Built":"2004","Building":"9 Gym","AS_IS_A_Retrofit_R":"R","Generator_Type":"Yes, unknown kW","PreMitigation_Capacity_Spaces":0,"PreMitigation_Square_Footage":0,"EHPA_Capacity_Gained_Spaces":0,"EHPA_Square_Footage_Gained":0,"Retrofit_Capacity_Gained_Spaces":400,"Retrofit_Square_Footage_Gained":8000,"Risk_Capacity_Spaces":400,"Risk_Square_Footage":8000,"Planned_Usage_Spaces":0,"FundingSource_F_Federal_State_S":"S-1508-2005","Evacuation_Zone":"No","SURGE_ZONE":"No","FLOOD_ZONE":"No","EHPA":"No","General_Pop":" ","SPECIAL_NEEDS":"Yes","Pet_Friendly":" ","Does_not_meet_ARC_4496":" ","Survey_Needed":"Yes"}},{"type":"Feature","id":70,"geometry":{"type":"Point","coordinates":[-82.31272798116288,27.851792004210964]},"properties":{"OBJECTID":70,"Name":"Riverview HS","Address":"11311 Boyette RD","City":"Riverview","Zip":"33569","COUNTY":"HILLSBOROUGH","X":-82.312727980000005,"Y":27.851792,"LONGLAT":"-82.31272798, 27.85179200","USNG":"17R LL 70746 81476","FACILITY_TYPE":"SHELTER","SHELTER_TYPE":"RISK","RPC_Region":"7","Year_Built":"1999","Building":"10 Classroom","AS_IS_A_Retrofit_R":"R","Generator_Type":" ","PreMitigation_Capacity_Spaces":0,"PreMitigation_Square_Footage":0,"EHPA_Capacity_Gained_Spaces":0,"EHPA_Square_Footage_Gained":0,"Retrofit_Capacity_Gained_Spaces":350,"Retrofit_Square_Footage_Gained":21000,"Risk_Capacity_Spaces":350,"Risk_Square_Footage":21000,"Planned_Usage_Spaces":400,"FundingSource_F_Federal_State_S":"L, S","Evacuation_Zone":"No","SURGE_ZONE":"No","FLOOD_ZONE":"No","EHPA":"No","General_Pop":" ","SPECIAL_NEEDS":"Yes","Pet_Friendly":" ","Does_not_meet_ARC_4496":" ","Survey_Needed":" "}},{"type":"Feature","id":71,"geometry":{"type":"Point","coordinates":[-82.236590041797172,28.022888985508501]},"properties":{"OBJECTID":71,"Name":"Strawberry Crest HS","Address":"4691 Gallagher Rd","City":"Dover","Zip":"33527","COUNTY":"HILLSBOROUGH","X":-82.236590039999996,"Y":28.022888989999998,"LONGLAT":"-82.23659004, 28.02288899","USNG":"17R LM 78435 00354","FACILITY_TYPE":"SHELTER","SHELTER_TYPE":"RISK","RPC_Region":"7","Year_Built":"2006","Building":"7 Gym","AS_IS_A_Retrofit_R":"A","Generator_Type":"Yes, unknown kW","PreMitigation_Capacity_Spaces":0,"PreMitigation_Square_Footage":0,"EHPA_Capacity_Gained_Spaces":373,"EHPA_Square_Footage_Gained":22383,"Retrofit_Capacity_Gained_Spaces":0,"Retrofit_Square_Footage_Gained":0,"Risk_Capacity_Spaces":373,"Risk_Square_Footage":22383,"Planned_Usage_Spaces":1500,"FundingSource_F_Federal_State_S":"L, S","Evacuation_Zone":"No","SURGE_ZONE":"No","FLOOD_ZONE":"No","EHPA":"Yes","General_Pop":" ","SPECIAL_NEEDS":"Yes","Pet_Friendly":" ","Does_not_meet_ARC_4496":" ","Survey_Needed":"Yes"}},{"type":"Feature","id":72,"geometry":{"type":"Point","coordinates":[-82.311115974262364,27.886853002253314]},"properties":{"OBJECTID":72,"Name":"Hillsborough Comm College at the Regent","Address":"6437 Watson Rd","City":"Riverview","Zip":"33578","COUNTY":"HILLSBOROUGH","X":-82.311115970000003,"Y":27.886852999999999,"LONGLAT":"-82.31111597, 27.88685300","USNG":"17R LL 70946 85359","FACILITY_TYPE":"SHELTER","SHELTER_TYPE":"RISK","RPC_Region":"7","Year_Built":"2009","Building":"1 Main","AS_IS_A_Retrofit_R":"A","Generator_Type":"230 kW","PreMitigation_Capacity_Spaces":0,"PreMitigation_Square_Footage":0,"EHPA_Capacity_Gained_Spaces":231,"EHPA_Square_Footage_Gained":13852,"Retrofit_Capacity_Gained_Spaces":0,"Retrofit_Square_Footage_Gained":0,"Risk_Capacity_Spaces":231,"Risk_Square_Footage":13852,"Planned_Usage_Spaces":0,"FundingSource_F_Federal_State_S":"L, S","Evacuation_Zone":"E","SURGE_ZONE":"No","FLOOD_ZONE":"No","EHPA":"No","General_Pop":" ","SPECIAL_NEEDS":"Yes","Pet_Friendly":" ","Does_not_meet_ARC_4496":" ","Survey_Needed":" "}},{"type":"Feature","id":73,"geometry":{"type":"Point","coordinates":[-85.679600000250133,30.793994999188477]},"properties":{"OBJECTID":73,"Name":"Bonifay K-8","Address":"140 Blue Devil Dr","City":"Bonifay","Zip":"32425","COUNTY":"HOLMES","X":-85.679599999999994,"Y":30.793994999999999,"LONGLAT":"-85.67960000, 30.79399500","USNG":"16R FV 26328 07517","FACILITY_TYPE":"SHELTER","SHELTER_TYPE":"RISK","RPC_Region":"1","Year_Built":"2015","Building":"1600 Cafeteria","AS_IS_A_Retrofit_R":"A","Generator_Type":" ","PreMitigation_Capacity_Spaces":0,"PreMitigation_Square_Footage":0,"EHPA_Capacity_Gained_Spaces":150,"EHPA_Square_Footage_Gained":8974,"Retrofit_Capacity_Gained_Spaces":0,"Retrofit_Square_Footage_Gained":0,"Risk_Capacity_Spaces":150,"Risk_Square_Footage":8974,"Planned_Usage_Spaces":6,"FundingSource_F_Federal_State_S":" ","Evacuation_Zone":"No","SURGE_ZONE":"No","FLOOD_ZONE":"No","EHPA":"Yes","General_Pop":" ","SPECIAL_NEEDS":"Yes","Pet_Friendly":" ","Does_not_meet_ARC_4496":" ","Survey_Needed":" "}},{"type":"Feature","id":74,"geometry":{"type":"Point","coordinates":[-85.679600000250133,30.793994999188477]},"properties":{"OBJECTID":74,"Name":"Bonifay K-8","Address":"140 Blue Devil Dr","City":"Bonifay","Zip":"32425","COUNTY":"HOLMES","X":-85.679599999999994,"Y":30.793994999999999,"LONGLAT":"-85.67960000, 30.79399500","USNG":"16R FV 26328 07517","FACILITY_TYPE":"SHELTER","SHELTER_TYPE":"RISK","RPC_Region":"1","Year_Built":"2015","Building":"1100 Admin","AS_IS_A_Retrofit_R":"A","Generator_Type":" ","PreMitigation_Capacity_Spaces":0,"PreMitigation_Square_Footage":0,"EHPA_Capacity_Gained_Spaces":148,"EHPA_Square_Footage_Gained":8870,"Retrofit_Capacity_Gained_Spaces":0,"Retrofit_Square_Footage_Gained":0,"Risk_Capacity_Spaces":148,"Risk_Square_Footage":8870,"Planned_Usage_Spaces":111,"FundingSource_F_Federal_State_S":" ","Evacuation_Zone":"No","SURGE_ZONE":"No","FLOOD_ZONE":"No","EHPA":"Yes","General_Pop":" ","SPECIAL_NEEDS":"Yes","Pet_Friendly":" ","Does_not_meet_ARC_4496":" ","Survey_Needed":" "}},{"type":"Feature","id":75,"geometry":{"type":"Point","coordinates":[-85.577643264201711,30.95407324988021]},"properties":{"OBJECTID":75,"Name":"Poplar Springs HS","Address":"3726 Atomic Dr","City":"Graceville","Zip":"32440","COUNTY":"HOLMES","X":-85.577643260000002,"Y":30.95407325,"LONGLAT":"-85.57764326, 30.95407325","USNG":"16R FV 35858 25379","FACILITY_TYPE":"SHELTER","SHELTER_TYPE":"RISK","RPC_Region":"1","Year_Built":"2003","Building":"3 Gym","AS_IS_A_Retrofit_R":"A","Generator_Type":"HW 300 KW","PreMitigation_Capacity_Spaces":0,"PreMitigation_Square_Footage":0,"EHPA_Capacity_Gained_Spaces":246,"EHPA_Square_Footage_Gained":14739,"Retrofit_Capacity_Gained_Spaces":0,"Retrofit_Square_Footage_Gained":0,"Risk_Capacity_Spaces":246,"Risk_Square_Footage":14739,"Planned_Usage_Spaces":38,"FundingSource_F_Federal_State_S":" ","Evacuation_Zone":"No","SURGE_ZONE":"No","FLOOD_ZONE":"No","EHPA":"Yes","General_Pop":" ","SPECIAL_NEEDS":"Yes","Pet_Friendly":" ","Does_not_meet_ARC_4496":" ","Survey_Needed":"Yes"}},{"type":"Feature","id":76,"geometry":{"type":"Point","coordinates":[-80.476977024325777,27.825451999453204]},"properties":{"OBJECTID":76,"Name":"Sebastian Adult Daycare Center","Address":"815 Davis St","City":"Sebastian","Zip":"32958","COUNTY":"INDIAN RIVER","X":-80.476977020000007,"Y":27.825451999999999,"LONGLAT":"-80.47697702, 27.82545200","USNG":"17R NL 51507 77976","FACILITY_TYPE":"SHELTER","SHELTER_TYPE":"RISK","RPC_Region":"9","Year_Built":"0","Building":"Main","AS_IS_A_Retrofit_R":"A","Generator_Type":" ","PreMitigation_Capacity_Spaces":0,"PreMitigation_Square_Footage":0,"EHPA_Capacity_Gained_Spaces":0,"EHPA_Square_Footage_Gained":0,"Retrofit_Capacity_Gained_Spaces":47,"Retrofit_Square_Footage_Gained":2800,"Risk_Capacity_Spaces":47,"Risk_Square_Footage":2800,"Planned_Usage_Spaces":47,"FundingSource_F_Federal_State_S":"L","Evacuation_Zone":"D","SURGE_ZONE":"No","FLOOD_ZONE":"No","EHPA":"No","General_Pop":" ","SPECIAL_NEEDS":"Yes","Pet_Friendly":" ","Does_not_meet_ARC_4496":" ","Survey_Needed":"Yes"}},{"type":"Feature","id":77,"geometry":{"type":"Point","coordinates":[-85.198709082936432,30.812376204340509]},"properties":{"OBJECTID":77,"Name":"Marianna HS","Address":"3546 Caverns Rd","City":"Marianna","Zip":"32446","COUNTY":"JACKSON","X":-85.19870908,"Y":30.81237621,"LONGLAT":"-85.19870908, 30.81237621","USNG":"16R FV 72311 10196","FACILITY_TYPE":"SHELTER","SHELTER_TYPE":"RISK","RPC_Region":"2","Year_Built":"2003","Building":"1B (part) Auditorium / Gym","AS_IS_A_Retrofit_R":"A","Generator_Type":"600KW","PreMitigation_Capacity_Spaces":0,"PreMitigation_Square_Footage":0,"EHPA_Capacity_Gained_Spaces":33,"EHPA_Square_Footage_Gained":1980,"Retrofit_Capacity_Gained_Spaces":0,"Retrofit_Square_Footage_Gained":0,"Risk_Capacity_Spaces":33,"Risk_Square_Footage":1980,"Planned_Usage_Spaces":33,"FundingSource_F_Federal_State_S":" ","Evacuation_Zone":"No","SURGE_ZONE":"No","FLOOD_ZONE":"No","EHPA":"Yes","General_Pop":" ","SPECIAL_NEEDS":"Yes","Pet_Friendly":" ","Does_not_meet_ARC_4496":" ","Survey_Needed":"Yes"}},{"type":"Feature","id":78,"geometry":{"type":"Point","coordinates":[-83.182959968151295,30.051950015298086]},"properties":{"OBJECTID":78,"Name":"Oakridge Assisted Living","Address":"297 SW CR 300","City":"Mayo","Zip":"32066","COUNTY":"LAFAYETTE","X":-83.182959969999999,"Y":30.05195002,"LONGLAT":"-83.18295997, 30.05195002","USNG":"17R KP 89542 26550","FACILITY_TYPE":"SHELTER","SHELTER_TYPE":"RISK","RPC_Region":"3","Year_Built":"0","Building":"Main","AS_IS_A_Retrofit_R":"R","Generator_Type":" ","PreMitigation_Capacity_Spaces":0,"PreMitigation_Square_Footage":0,"EHPA_Capacity_Gained_Spaces":0,"EHPA_Square_Footage_Gained":0,"Retrofit_Capacity_Gained_Spaces":60,"Retrofit_Square_Footage_Gained":3600,"Risk_Capacity_Spaces":60,"Risk_Square_Footage":3600,"Planned_Usage_Spaces":9,"FundingSource_F_Federal_State_S":"L","Evacuation_Zone":"No","SURGE_ZONE":"No","FLOOD_ZONE":"No","EHPA":"No","General_Pop":" ","SPECIAL_NEEDS":"Yes","Pet_Friendly":" ","Does_not_meet_ARC_4496":" ","Survey_Needed":" "}},{"type":"Feature","id":79,"geometry":{"type":"Point","coordinates":[-83.168360033998439,30.053870016143996]},"properties":{"OBJECTID":79,"Name":"Lafayette HS","Address":"160 NE Hornet Dr","City":"Mayo","Zip":"32066","COUNTY":"LAFAYETTE","X":-83.168360030000002,"Y":30.053870020000002,"LONGLAT":"-83.16836003, 30.05387002","USNG":"17R KP 90954 26736","FACILITY_TYPE":"SHELTER","SHELTER_TYPE":"RISK","RPC_Region":"3","Year_Built":"1991","Building":"2 Cafeteria","AS_IS_A_Retrofit_R":"R","Generator_Type":"30 kW","PreMitigation_Capacity_Spaces":0,"PreMitigation_Square_Footage":0,"EHPA_Capacity_Gained_Spaces":0,"EHPA_Square_Footage_Gained":0,"Retrofit_Capacity_Gained_Spaces":178,"Retrofit_Square_Footage_Gained":10860,"Risk_Capacity_Spaces":178,"Risk_Square_Footage":10860,"Planned_Usage_Spaces":278,"FundingSource_F_Federal_State_S":"F","Evacuation_Zone":"No","SURGE_ZONE":"No","FLOOD_ZONE":"No","EHPA":"No","General_Pop":" ","SPECIAL_NEEDS":"Yes","Pet_Friendly":" ","Does_not_meet_ARC_4496":" ","Survey_Needed":" "}},{"type":"Feature","id":80,"geometry":{"type":"Point","coordinates":[-83.168360033998439,30.053870016143996]},"properties":{"OBJECTID":80,"Name":"Lafayette HS","Address":"160 NE Hornet Dr","City":"Mayo","Zip":"32066","COUNTY":"LAFAYETTE","X":-83.168360030000002,"Y":30.053870020000002,"LONGLAT":"-83.16836003, 30.05387002","USNG":"17R KP 90954 26736","FACILITY_TYPE":"SHELTER","SHELTER_TYPE":"RISK","RPC_Region":"3","Year_Built":"1996","Building":"32 Gym","AS_IS_A_Retrofit_R":"R","Generator_Type":"Yes, unknown kW","PreMitigation_Capacity_Spaces":0,"PreMitigation_Square_Footage":0,"EHPA_Capacity_Gained_Spaces":0,"EHPA_Square_Footage_Gained":0,"Retrofit_Capacity_Gained_Spaces":210,"Retrofit_Square_Footage_Gained":12600,"Risk_Capacity_Spaces":210,"Risk_Square_Footage":12600,"Planned_Usage_Spaces":0,"FundingSource_F_Federal_State_S":"S 1621X 09-SR-18-03-4-01-210","Evacuation_Zone":"No","SURGE_ZONE":"No","FLOOD_ZONE":"No","EHPA":"No","General_Pop":" ","SPECIAL_NEEDS":"Yes","Pet_Friendly":" ","Does_not_meet_ARC_4496":" ","Survey_Needed":" "}},{"type":"Feature","id":81,"geometry":{"type":"Point","coordinates":[-81.664299005880267,28.930577015191652]},"properties":{"OBJECTID":81,"Name":"Umatilla ES","Address":"320 N Trowell Ave","City":"Umatilla","Zip":"32784","COUNTY":"LAKE","X":-81.664299009999993,"Y":28.930577020000001,"LONGLAT":"-81.66429901, 28.93057702","USNG":"17R MN 35253 00475","FACILITY_TYPE":"SHELTER","SHELTER_TYPE":"RISK","RPC_Region":"5","Year_Built":"2000","Building":"3 Classroom","AS_IS_A_Retrofit_R":"A","Generator_Type":"Yes, unknown kW","PreMitigation_Capacity_Spaces":0,"PreMitigation_Square_Footage":0,"EHPA_Capacity_Gained_Spaces":91,"EHPA_Square_Footage_Gained":5466,"Retrofit_Capacity_Gained_Spaces":0,"Retrofit_Square_Footage_Gained":0,"Risk_Capacity_Spaces":91,"Risk_Square_Footage":5466,"Planned_Usage_Spaces":135,"FundingSource_F_Federal_State_S":"L","Evacuation_Zone":"No","SURGE_ZONE":"No","FLOOD_ZONE":"No","EHPA":"Yes","General_Pop":" ","SPECIAL_NEEDS":"Yes","Pet_Friendly":" ","Does_not_meet_ARC_4496":" ","Survey_Needed":" "}},{"type":"Feature","id":82,"geometry":{"type":"Point","coordinates":[-81.7257869719637,28.710834987919771]},"properties":{"OBJECTID":82,"Name":"Astatula ES","Address":"13925 Florida Ave","City":"Astatula","Zip":"34705","COUNTY":"LAKE","X":-81.725786970000001,"Y":28.710834989999999,"LONGLAT":"-81.72578697, 28.71083499","USNG":"17R MM 29111 76164","FACILITY_TYPE":"SHELTER","SHELTER_TYPE":"RISK","RPC_Region":"5","Year_Built":"1999","Building":"1 Admin / Media","AS_IS_A_Retrofit_R":"A","Generator_Type":"Yes, unknown kW","PreMitigation_Capacity_Spaces":0,"PreMitigation_Square_Footage":0,"EHPA_Capacity_Gained_Spaces":17,"EHPA_Square_Footage_Gained":1025,"Retrofit_Capacity_Gained_Spaces":0,"Retrofit_Square_Footage_Gained":0,"Risk_Capacity_Spaces":17,"Risk_Square_Footage":1025,"Planned_Usage_Spaces":25,"FundingSource_F_Federal_State_S":"S-1523","Evacuation_Zone":"No","SURGE_ZONE":"No","FLOOD_ZONE":"No","EHPA":"Yes","General_Pop":" ","SPECIAL_NEEDS":"Yes","Pet_Friendly":" ","Does_not_meet_ARC_4496":" ","Survey_Needed":"Yes"}},{"type":"Feature","id":83,"geometry":{"type":"Point","coordinates":[-81.721591385994856,28.525671448032742]},"properties":{"OBJECTID":83,"Name":"Lost Lake ES","Address":"1901 Johns Lake Rd","City":"Clemont","Zip":"34711","COUNTY":"LAKE","X":-81.72159139,"Y":28.525671450000001,"LONGLAT":"-81.72159139, 28.52567145","USNG":"17R MM 29397 55648","FACILITY_TYPE":"SHELTER","SHELTER_TYPE":"RISK","RPC_Region":"5","Year_Built":"1999","Building":"1 Admin / Media","AS_IS_A_Retrofit_R":"A","Generator_Type":"Yes, unknown kW","PreMitigation_Capacity_Spaces":0,"PreMitigation_Square_Footage":0,"EHPA_Capacity_Gained_Spaces":15,"EHPA_Square_Footage_Gained":922,"Retrofit_Capacity_Gained_Spaces":0,"Retrofit_Square_Footage_Gained":0,"Risk_Capacity_Spaces":15,"Risk_Square_Footage":922,"Planned_Usage_Spaces":51,"FundingSource_F_Federal_State_S":"L-School Broad","Evacuation_Zone":"No","SURGE_ZONE":"No","FLOOD_ZONE":"No","EHPA":"Yes","General_Pop":" ","SPECIAL_NEEDS":"Yes","Pet_Friendly":" ","Does_not_meet_ARC_4496":" ","Survey_Needed":"Yes"}},{"type":"Feature","id":84,"geometry":{"type":"Point","coordinates":[-81.935592965085945,28.930172000984928]},"properties":{"OBJECTID":84,"Name":"Villages ES","Address":"695 Rolling Acres Rd","City":"Lady Lake","Zip":"32159","COUNTY":"LAKE","X":-81.935592970000002,"Y":28.930171999999999,"LONGLAT":"-81.93559297, 28.93017200","USNG":"17R MN 08809 00609","FACILITY_TYPE":"SHELTER","SHELTER_TYPE":"RISK","RPC_Region":"5","Year_Built":"1999","Building":"1 Admin / Media","AS_IS_A_Retrofit_R":"A","Generator_Type":"250 kW for campus","PreMitigation_Capacity_Spaces":0,"PreMitigation_Square_Footage":0,"EHPA_Capacity_Gained_Spaces":14,"EHPA_Square_Footage_Gained":844,"Retrofit_Capacity_Gained_Spaces":0,"Retrofit_Square_Footage_Gained":0,"Risk_Capacity_Spaces":14,"Risk_Square_Footage":844,"Planned_Usage_Spaces":51,"FundingSource_F_Federal_State_S":" ","Evacuation_Zone":"No","SURGE_ZONE":"No","FLOOD_ZONE":"No","EHPA":"Yes","General_Pop":" ","SPECIAL_NEEDS":"Yes","Pet_Friendly":" ","Does_not_meet_ARC_4496":" ","Survey_Needed":"Yes"}},{"type":"Feature","id":85,"geometry":{"type":"Point","coordinates":[-81.601846033250425,26.557899990405264]},"properties":{"OBJECTID":85,"Name":"East Lee HS","Address":"715 Thomas Sherwin Ave","City":"Lehigh Acres","Zip":"33974","COUNTY":"LEE","X":-81.601846030000004,"Y":26.557899989999999,"LONGLAT":"-81.60184603, 26.55789999","USNG":"17R MK 40055 37610","FACILITY_TYPE":"SHELTER","SHELTER_TYPE":"RISK","RPC_Region":"8","Year_Built":"2005","Building":"1 Main","AS_IS_A_Retrofit_R":"A","Generator_Type":"Yes, unknown kW","PreMitigation_Capacity_Spaces":0,"PreMitigation_Square_Footage":0,"EHPA_Capacity_Gained_Spaces":0,"EHPA_Square_Footage_Gained":0,"Retrofit_Capacity_Gained_Spaces":0,"Retrofit_Square_Footage_Gained":0,"Risk_Capacity_Spaces":1305,"Risk_Square_Footage":118297,"Planned_Usage_Spaces":150,"FundingSource_F_Federal_State_S":" ","Evacuation_Zone":"No","SURGE_ZONE":"No","FLOOD_ZONE":"No","EHPA":"No","General_Pop":" ","SPECIAL_NEEDS":"Yes","Pet_Friendly":" ","Does_not_meet_ARC_4496":" ","Survey_Needed":" "}},{"type":"Feature","id":86,"geometry":{"type":"Point","coordinates":[-84.223951018764836,30.384069978492242]},"properties":{"OBJECTID":86,"Name":"FSU K-12 School","Address":"3000 School House Rd","City":"Tallahassee","Zip":"32311","COUNTY":"LEON","X":-84.223951020000001,"Y":30.38406998,"LONGLAT":"-84.22395102, 30.38406998","USNG":"16R GU 66757 64614","FACILITY_TYPE":"SHELTER","SHELTER_TYPE":"RISK","RPC_Region":"2","Year_Built":"2000","Building":"8 Gym","AS_IS_A_Retrofit_R":"R","Generator_Type":"HW","PreMitigation_Capacity_Spaces":0,"PreMitigation_Square_Footage":0,"EHPA_Capacity_Gained_Spaces":0,"EHPA_Square_Footage_Gained":0,"Retrofit_Capacity_Gained_Spaces":214,"Retrofit_Square_Footage_Gained":12860,"Risk_Capacity_Spaces":214,"Risk_Square_Footage":12869,"Planned_Usage_Spaces":214,"FundingSource_F_Federal_State_S":" ","Evacuation_Zone":"No","SURGE_ZONE":"No","FLOOD_ZONE":"No","EHPA":"No","General_Pop":" ","SPECIAL_NEEDS":"Yes","Pet_Friendly":" ","Does_not_meet_ARC_4496":" ","Survey_Needed":" "}},{"type":"Feature","id":87,"geometry":{"type":"Point","coordinates":[-84.223951018764836,30.384069978492242]},"properties":{"OBJECTID":87,"Name":"FSU K-12 School","Address":"3000 School House Rd","City":"Tallahassee","Zip":"32311","COUNTY":"LEON","X":-84.223951020000001,"Y":30.38406998,"LONGLAT":"-84.22395102, 30.38406998","USNG":"16R GU 66757 64614","FACILITY_TYPE":"SHELTER","SHELTER_TYPE":"RISK","RPC_Region":"2","Year_Built":"2000","Building":"3 Classroom","AS_IS_A_Retrofit_R":"R","Generator_Type":"HW","PreMitigation_Capacity_Spaces":0,"PreMitigation_Square_Footage":0,"EHPA_Capacity_Gained_Spaces":0,"EHPA_Square_Footage_Gained":0,"Retrofit_Capacity_Gained_Spaces":248,"Retrofit_Square_Footage_Gained":14869,"Risk_Capacity_Spaces":248,"Risk_Square_Footage":14869,"Planned_Usage_Spaces":247,"FundingSource_F_Federal_State_S":"HMGP","Evacuation_Zone":"No","SURGE_ZONE":"No","FLOOD_ZONE":"No","EHPA":"No","General_Pop":" ","SPECIAL_NEEDS":"Yes","Pet_Friendly":" ","Does_not_meet_ARC_4496":" ","Survey_Needed":" "}},{"type":"Feature","id":88,"geometry":{"type":"Point","coordinates":[-84.223951018764836,30.384069978492242]},"properties":{"OBJECTID":88,"Name":"FSU K-12 School","Address":"3000 School House Rd","City":"Tallahassee","Zip":"32311","COUNTY":"LEON","X":-84.223951020000001,"Y":30.38406998,"LONGLAT":"-84.22395102, 30.38406998","USNG":"16R GU 66757 64614","FACILITY_TYPE":"SHELTER","SHELTER_TYPE":"RISK","RPC_Region":"2","Year_Built":"2000","Building":"4 Classroom","AS_IS_A_Retrofit_R":"R","Generator_Type":"HW","PreMitigation_Capacity_Spaces":0,"PreMitigation_Square_Footage":0,"EHPA_Capacity_Gained_Spaces":0,"EHPA_Square_Footage_Gained":0,"Retrofit_Capacity_Gained_Spaces":245,"Retrofit_Square_Footage_Gained":14679,"Risk_Capacity_Spaces":245,"Risk_Square_Footage":14679,"Planned_Usage_Spaces":244,"FundingSource_F_Federal_State_S":" ","Evacuation_Zone":"No","SURGE_ZONE":"No","FLOOD_ZONE":"No","EHPA":"No","General_Pop":" ","SPECIAL_NEEDS":"Yes","Pet_Friendly":" ","Does_not_meet_ARC_4496":" ","Survey_Needed":" "}},{"type":"Feature","id":89,"geometry":{"type":"Point","coordinates":[-82.629039968688218,29.461689981113665]},"properties":{"OBJECTID":89,"Name":"Bronson ES","Address":"400 Ishie Ave","City":"Bronson","Zip":"32621","COUNTY":"LEVY","X":-82.629039969999994,"Y":29.461689979999999,"LONGLAT":"-82.62903997, 29.46168998","USNG":"17R LN 42030 60243","FACILITY_TYPE":"SHELTER","SHELTER_TYPE":"RISK","RPC_Region":"3","Year_Built":"1999","Building":"6 Admin / Library","AS_IS_A_Retrofit_R":"R","Generator_Type":"Yes, unknown kW","PreMitigation_Capacity_Spaces":0,"PreMitigation_Square_Footage":0,"EHPA_Capacity_Gained_Spaces":0,"EHPA_Square_Footage_Gained":0,"Retrofit_Capacity_Gained_Spaces":27,"Retrofit_Square_Footage_Gained":1608,"Risk_Capacity_Spaces":25,"Risk_Square_Footage":1510,"Planned_Usage_Spaces":25,"FundingSource_F_Federal_State_S":"S-1435A-2003","Evacuation_Zone":"No","SURGE_ZONE":"No","FLOOD_ZONE":"No","EHPA":"No","General_Pop":" ","SPECIAL_NEEDS":"Yes","Pet_Friendly":" ","Does_not_meet_ARC_4496":" ","Survey_Needed":" "}},{"type":"Feature","id":90,"geometry":{"type":"Point","coordinates":[-82.629039968688218,29.461689981113665]},"properties":{"OBJECTID":90,"Name":"Bronson ES","Address":"400 Ishie Ave","City":"Bronson","Zip":"32621","COUNTY":"LEVY","X":-82.629039969999994,"Y":29.461689979999999,"LONGLAT":"-82.62903997, 29.46168998","USNG":"17R LN 42030 60243","FACILITY_TYPE":"SHELTER","SHELTER_TYPE":"RISK","RPC_Region":"3","Year_Built":"1999","Building":"7 Classroom","AS_IS_A_Retrofit_R":"R","Generator_Type":" ","PreMitigation_Capacity_Spaces":0,"PreMitigation_Square_Footage":0,"EHPA_Capacity_Gained_Spaces":0,"EHPA_Square_Footage_Gained":0,"Retrofit_Capacity_Gained_Spaces":101,"Retrofit_Square_Footage_Gained":6084,"Risk_Capacity_Spaces":101,"Risk_Square_Footage":6084,"Planned_Usage_Spaces":101,"FundingSource_F_Federal_State_S":"S-1435A-2003","Evacuation_Zone":"No","SURGE_ZONE":"No","FLOOD_ZONE":"No","EHPA":"No","General_Pop":" ","SPECIAL_NEEDS":"Yes","Pet_Friendly":" ","Does_not_meet_ARC_4496":" ","Survey_Needed":" "}},{"type":"Feature","id":91,"geometry":{"type":"Point","coordinates":[-84.973957224819998,30.38797793033056]},"properties":{"OBJECTID":91,"Name":"Liberty County Senior Center","Address":"15643 CR-12","City":"Bristol","Zip":"32321","COUNTY":"LIBERTY","X":-84.973957220000003,"Y":30.387977930000002,"LONGLAT":"-84.97395722, 30.38797793","USNG":"16R FU 94662 63519","FACILITY_TYPE":"SHELTER","SHELTER_TYPE":"RISK","RPC_Region":"2","Year_Built":"2010","Building":"Main","AS_IS_A_Retrofit_R":"A","Generator_Type":" ","PreMitigation_Capacity_Spaces":0,"PreMitigation_Square_Footage":0,"EHPA_Capacity_Gained_Spaces":0,"EHPA_Square_Footage_Gained":0,"Retrofit_Capacity_Gained_Spaces":17,"Retrofit_Square_Footage_Gained":1020,"Risk_Capacity_Spaces":17,"Risk_Square_Footage":1020,"Planned_Usage_Spaces":0,"FundingSource_F_Federal_State_S":"L","Evacuation_Zone":"No","SURGE_ZONE":"No","FLOOD_ZONE":"No","EHPA":"No","General_Pop":" ","SPECIAL_NEEDS":"Yes","Pet_Friendly":" ","Does_not_meet_ARC_4496":" ","Survey_Needed":" "}},{"type":"Feature","id":92,"geometry":{"type":"Point","coordinates":[-84.798359847627012,30.38888220410109]},"properties":{"OBJECTID":92,"Name":"Hosford ES & Jr HS","Address":"16864 NE SR 65","City":"Hosford","Zip":"32334","COUNTY":"LIBERTY","X":-84.798359849999997,"Y":30.388882200000001,"LONGLAT":"-84.79835985, 30.38888220","USNG":"16R GU 11535 63934","FACILITY_TYPE":"SHELTER","SHELTER_TYPE":"RISK","RPC_Region":"2","Year_Built":"2008","Building":"14 Cafeteria","AS_IS_A_Retrofit_R":"A","Generator_Type":"400 kW","PreMitigation_Capacity_Spaces":0,"PreMitigation_Square_Footage":0,"EHPA_Capacity_Gained_Spaces":72,"EHPA_Square_Footage_Gained":4306,"Retrofit_Capacity_Gained_Spaces":72,"Retrofit_Square_Footage_Gained":4306,"Risk_Capacity_Spaces":72,"Risk_Square_Footage":4306,"Planned_Usage_Spaces":25,"FundingSource_F_Federal_State_S":" ","Evacuation_Zone":"No","SURGE_ZONE":"No","FLOOD_ZONE":"No","EHPA":"Yes","General_Pop":" ","SPECIAL_NEEDS":"Yes","Pet_Friendly":" ","Does_not_meet_ARC_4496":" ","Survey_Needed":" "}},{"type":"Feature","id":93,"geometry":{"type":"Point","coordinates":[-83.445549990705999,30.478530004387625]},"properties":{"OBJECTID":93,"Name":"Madison Central School","Address":"2093 US Hwy 90","City":"Madison","Zip":"32340","COUNTY":"MADISON","X":-83.445549990000004,"Y":30.47853001,"LONGLAT":"-83.44554999, 30.47853001","USNG":"17R KP 65237 74354","FACILITY_TYPE":"SHELTER","SHELTER_TYPE":"RISK","RPC_Region":"3","Year_Built":"2000","Building":" ","AS_IS_A_Retrofit_R":"R","Generator_Type":" ","PreMitigation_Capacity_Spaces":0,"PreMitigation_Square_Footage":0,"EHPA_Capacity_Gained_Spaces":0,"EHPA_Square_Footage_Gained":0,"Retrofit_Capacity_Gained_Spaces":28,"Retrofit_Square_Footage_Gained":1680,"Risk_Capacity_Spaces":28,"Risk_Square_Footage":1680,"Planned_Usage_Spaces":28,"FundingSource_F_Federal_State_S":"S-1435A-2003","Evacuation_Zone":"No","SURGE_ZONE":"No","FLOOD_ZONE":"No","EHPA":"No","General_Pop":" ","SPECIAL_NEEDS":"Yes","Pet_Friendly":" ","Does_not_meet_ARC_4496":" ","Survey_Needed":" "}},{"type":"Feature","id":94,"geometry":{"type":"Point","coordinates":[-82.433089010351054,27.444197990347405]},"properties":{"OBJECTID":94,"Name":"Manatee Tech College East","Address":"5520 Lakewood Ranch Blvd","City":"Bradenton","Zip":"34211","COUNTY":"MANATEE","X":-82.433089010000003,"Y":27.444197989999999,"LONGLAT":"-82.43308901, 27.44419799","USNG":"17R LL 58370 36452","FACILITY_TYPE":"SHELTER","SHELTER_TYPE":"RISK","RPC_Region":"7","Year_Built":"2000","Building":"1 Voc Classroom","AS_IS_A_Retrofit_R":"A","Generator_Type":" ","PreMitigation_Capacity_Spaces":0,"PreMitigation_Square_Footage":0,"EHPA_Capacity_Gained_Spaces":196,"EHPA_Square_Footage_Gained":11788,"Retrofit_Capacity_Gained_Spaces":0,"Retrofit_Square_Footage_Gained":0,"Risk_Capacity_Spaces":196,"Risk_Square_Footage":11788,"Planned_Usage_Spaces":195,"FundingSource_F_Federal_State_S":" ","Evacuation_Zone":"No","SURGE_ZONE":"No","FLOOD_ZONE":"No","EHPA":"Yes","General_Pop":" ","SPECIAL_NEEDS":"Yes","Pet_Friendly":" ","Does_not_meet_ARC_4496":" ","Survey_Needed":"Yes"}},{"type":"Feature","id":95,"geometry":{"type":"Point","coordinates":[-82.395018992002392,27.424760985311227]},"properties":{"OBJECTID":95,"Name":"R. Dan Nolan MS","Address":"6615 Greenbrook Blvd","City":"Bradenton","Zip":"34202","COUNTY":"MANATEE","X":-82.395018989999997,"Y":27.424760989999999,"LONGLAT":"-82.39501899, 27.42476099","USNG":"17R LL 62108 34256","FACILITY_TYPE":"SHELTER","SHELTER_TYPE":"RISK","RPC_Region":"7","Year_Built":"2004","Building":"1 Main","AS_IS_A_Retrofit_R":"A","Generator_Type":" ","PreMitigation_Capacity_Spaces":0,"PreMitigation_Square_Footage":0,"EHPA_Capacity_Gained_Spaces":986,"EHPA_Square_Footage_Gained":59175,"Retrofit_Capacity_Gained_Spaces":0,"Retrofit_Square_Footage_Gained":0,"Risk_Capacity_Spaces":986,"Risk_Square_Footage":59175,"Planned_Usage_Spaces":570,"FundingSource_F_Federal_State_S":" ","Evacuation_Zone":"No","SURGE_ZONE":"No","FLOOD_ZONE":"No","EHPA":"Yes","General_Pop":" ","SPECIAL_NEEDS":"Yes","Pet_Friendly":" ","Does_not_meet_ARC_4496":" ","Survey_Needed":"Yes"}},{"type":"Feature","id":96,"geometry":{"type":"Point","coordinates":[-82.086687211128165,29.070247613135468]},"properties":{"OBJECTID":96,"Name":"Belleview HS","Address":"10400 SE 36th Ave","City":"Belleview","Zip":"34420","COUNTY":"MARION","X":-82.086687209999994,"Y":29.070247609999999,"LONGLAT":"-82.08668721, 29.07024761","USNG":"17R LN 94225 16255","FACILITY_TYPE":"SHELTER","SHELTER_TYPE":"RISK","RPC_Region":"5","Year_Built":"1995","Building":"10 Classroom","AS_IS_A_Retrofit_R":"R","Generator_Type":"250 kW for campus","PreMitigation_Capacity_Spaces":0,"PreMitigation_Square_Footage":0,"EHPA_Capacity_Gained_Spaces":0,"EHPA_Square_Footage_Gained":0,"Retrofit_Capacity_Gained_Spaces":0,"Retrofit_Square_Footage_Gained":5637,"Risk_Capacity_Spaces":94,"Risk_Square_Footage":5637,"Planned_Usage_Spaces":96,"FundingSource_F_Federal_State_S":" ","Evacuation_Zone":"No","SURGE_ZONE":"No","FLOOD_ZONE":"No","EHPA":"No","General_Pop":" ","SPECIAL_NEEDS":"Yes","Pet_Friendly":" ","Does_not_meet_ARC_4496":" ","Survey_Needed":" "}},{"type":"Feature","id":97,"geometry":{"type":"Point","coordinates":[-82.086687211128165,29.070247613135468]},"properties":{"OBJECTID":97,"Name":"Belleview HS","Address":"10400 SE 36th Ave","City":"Belleview","Zip":"34420","COUNTY":"MARION","X":-82.086687209999994,"Y":29.070247609999999,"LONGLAT":"-82.08668721, 29.07024761","USNG":"17R LN 94225 16255","FACILITY_TYPE":"SHELTER","SHELTER_TYPE":"RISK","RPC_Region":"5","Year_Built":"1994","Building":"5 Classroom","AS_IS_A_Retrofit_R":"R","Generator_Type":"250 kW for campus","PreMitigation_Capacity_Spaces":0,"PreMitigation_Square_Footage":0,"EHPA_Capacity_Gained_Spaces":0,"EHPA_Square_Footage_Gained":0,"Retrofit_Capacity_Gained_Spaces":0,"Retrofit_Square_Footage_Gained":2363,"Risk_Capacity_Spaces":39,"Risk_Square_Footage":2363,"Planned_Usage_Spaces":61,"FundingSource_F_Federal_State_S":" ","Evacuation_Zone":"No","SURGE_ZONE":"No","FLOOD_ZONE":"No","EHPA":"No","General_Pop":" ","SPECIAL_NEEDS":"Yes","Pet_Friendly":" ","Does_not_meet_ARC_4496":" ","Survey_Needed":" "}},{"type":"Feature","id":98,"geometry":{"type":"Point","coordinates":[-82.086687210960477,29.067577342308926]},"properties":{"OBJECTID":98,"Name":"Belleview MS","Address":"10500 SE 36th Ave","City":"Belleview","Zip":"34420","COUNTY":"MARION","X":-82.086687209999994,"Y":29.06757734,"LONGLAT":"-82.08668721, 29.06757734","USNG":"17R LN 94222 15960","FACILITY_TYPE":"SHELTER","SHELTER_TYPE":"RISK","RPC_Region":"5","Year_Built":"1993","Building":"4 Classroom","AS_IS_A_Retrofit_R":"R","Generator_Type":"75 kW for campus","PreMitigation_Capacity_Spaces":0,"PreMitigation_Square_Footage":0,"EHPA_Capacity_Gained_Spaces":0,"EHPA_Square_Footage_Gained":0,"Retrofit_Capacity_Gained_Spaces":382,"Retrofit_Square_Footage_Gained":7833,"Risk_Capacity_Spaces":131,"Risk_Square_Footage":7833,"Planned_Usage_Spaces":157,"FundingSource_F_Federal_State_S":" ","Evacuation_Zone":"No","SURGE_ZONE":"No","FLOOD_ZONE":"No","EHPA":"No","General_Pop":" ","SPECIAL_NEEDS":"Yes","Pet_Friendly":" ","Does_not_meet_ARC_4496":" ","Survey_Needed":" "}},{"type":"Feature","id":99,"geometry":{"type":"Point","coordinates":[-82.086687211128165,29.070247613135468]},"properties":{"OBJECTID":99,"Name":"Belleview HS","Address":"10400 SE 36th Ave","City":"Belleview","Zip":"34420","COUNTY":"MARION","X":-82.086687209999994,"Y":29.070247609999999,"LONGLAT":"-82.08668721, 29.07024761","USNG":"17R LN 94225 16255","FACILITY_TYPE":"SHELTER","SHELTER_TYPE":"RISK","RPC_Region":"5","Year_Built":"1994","Building":"4 Classroom","AS_IS_A_Retrofit_R":"R","Generator_Type":"250 kW for campus","PreMitigation_Capacity_Spaces":0,"PreMitigation_Square_Footage":0,"EHPA_Capacity_Gained_Spaces":0,"EHPA_Square_Footage_Gained":0,"Retrofit_Capacity_Gained_Spaces":0,"Retrofit_Square_Footage_Gained":5795,"Risk_Capacity_Spaces":97,"Risk_Square_Footage":5795,"Planned_Usage_Spaces":115,"FundingSource_F_Federal_State_S":" ","Evacuation_Zone":"No","SURGE_ZONE":"No","FLOOD_ZONE":"No","EHPA":"No","General_Pop":" ","SPECIAL_NEEDS":"Yes","Pet_Friendly":" ","Does_not_meet_ARC_4496":" ","Survey_Needed":" "}},{"type":"Feature","id":100,"geometry":{"type":"Point","coordinates":[-82.251810832200462,29.152854896245941]},"properties":{"OBJECTID":100,"Name":"West Port HS","Address":"3733 SW 80th Ave","City":"Ocala","Zip":"34482","COUNTY":"MARION","X":-82.251810829999997,"Y":29.152854900000001,"LONGLAT":"-82.25181083, 29.15285490","USNG":"17R LN 78248 25568","FACILITY_TYPE":"SHELTER","SHELTER_TYPE":"RISK","RPC_Region":"5","Year_Built":"1999","Building":"1 Gym","AS_IS_A_Retrofit_R":"A","Generator_Type":"1875 kW for campus","PreMitigation_Capacity_Spaces":0,"PreMitigation_Square_Footage":0,"EHPA_Capacity_Gained_Spaces":0,"EHPA_Square_Footage_Gained":7320,"Retrofit_Capacity_Gained_Spaces":0,"Retrofit_Square_Footage_Gained":0,"Risk_Capacity_Spaces":395,"Risk_Square_Footage":23672,"Planned_Usage_Spaces":122,"FundingSource_F_Federal_State_S":" ","Evacuation_Zone":"No","SURGE_ZONE":"No","FLOOD_ZONE":"No","EHPA":"Yes","General_Pop":" ","SPECIAL_NEEDS":"Yes","Pet_Friendly":" ","Does_not_meet_ARC_4496":" ","Survey_Needed":" "}},{"type":"Feature","id":101,"geometry":{"type":"Point","coordinates":[-82.086687211128165,29.070247613135468]},"properties":{"OBJECTID":101,"Name":"Belleview HS","Address":"10400 SE 36th Ave","City":"Belleview","Zip":"34420","COUNTY":"MARION","X":-82.086687209999994,"Y":29.070247609999999,"LONGLAT":"-82.08668721, 29.07024761","USNG":"17R LN 94225 16255","FACILITY_TYPE":"SHELTER","SHELTER_TYPE":"RISK","RPC_Region":"5","Year_Built":"1994","Building":"3 Classroom 1st Floor","AS_IS_A_Retrofit_R":"R","Generator_Type":"250 kW for campus","PreMitigation_Capacity_Spaces":0,"PreMitigation_Square_Footage":0,"EHPA_Capacity_Gained_Spaces":0,"EHPA_Square_Footage_Gained":0,"Retrofit_Capacity_Gained_Spaces":0,"Retrofit_Square_Footage_Gained":4060,"Risk_Capacity_Spaces":68,"Risk_Square_Footage":4060,"Planned_Usage_Spaces":19,"FundingSource_F_Federal_State_S":"S, L","Evacuation_Zone":"No","SURGE_ZONE":"No","FLOOD_ZONE":"No","EHPA":"No","General_Pop":" ","SPECIAL_NEEDS":"Yes","Pet_Friendly":" ","Does_not_meet_ARC_4496":" ","Survey_Needed":" "}},{"type":"Feature","id":102,"geometry":{"type":"Point","coordinates":[-80.241674036321328,27.118550993482447]},"properties":{"OBJECTID":102,"Name":"David L Anderson MS","Address":"7000 SE Atlantic Ridge Dr","City":"Stuart","Zip":"34997","COUNTY":"MARTIN","X":-80.241674040000007,"Y":27.118550989999999,"LONGLAT":"-80.24167404, 27.11855099","USNG":"17R NK 75159 99792","FACILITY_TYPE":"SHELTER","SHELTER_TYPE":"RISK","RPC_Region":"9","Year_Built":"2005","Building":"03 Classroom","AS_IS_A_Retrofit_R":"A","Generator_Type":"1280 kW for campus","PreMitigation_Capacity_Spaces":0,"PreMitigation_Square_Footage":0,"EHPA_Capacity_Gained_Spaces":613,"EHPA_Square_Footage_Gained":14258,"Retrofit_Capacity_Gained_Spaces":0,"Retrofit_Square_Footage_Gained":0,"Risk_Capacity_Spaces":613,"Risk_Square_Footage":14258,"Planned_Usage_Spaces":172,"FundingSource_F_Federal_State_S":" ","Evacuation_Zone":"No","SURGE_ZONE":"No","FLOOD_ZONE":"No","EHPA":"Yes","General_Pop":" ","SPECIAL_NEEDS":"Yes","Pet_Friendly":" ","Does_not_meet_ARC_4496":" ","Survey_Needed":" "}},{"type":"Feature","id":103,"geometry":{"type":"Point","coordinates":[-80.241674036321328,27.118550993482447]},"properties":{"OBJECTID":103,"Name":"David L Anderson MS","Address":"7000 SE Atlantic Ridge Dr","City":"Stuart","Zip":"34997","COUNTY":"MARTIN","X":-80.241674040000007,"Y":27.118550989999999,"LONGLAT":"-80.24167404, 27.11855099","USNG":"17R NK 75159 99792","FACILITY_TYPE":"SHELTER","SHELTER_TYPE":"RISK","RPC_Region":"9","Year_Built":"2005","Building":"01 Auditorium / Cafeteria","AS_IS_A_Retrofit_R":"A","Generator_Type":"1280 kW for campus","PreMitigation_Capacity_Spaces":0,"PreMitigation_Square_Footage":0,"EHPA_Capacity_Gained_Spaces":153,"EHPA_Square_Footage_Gained":9188,"Retrofit_Capacity_Gained_Spaces":0,"Retrofit_Square_Footage_Gained":0,"Risk_Capacity_Spaces":153,"Risk_Square_Footage":9188,"Planned_Usage_Spaces":102,"FundingSource_F_Federal_State_S":" ","Evacuation_Zone":"No","SURGE_ZONE":"No","FLOOD_ZONE":"No","EHPA":"Yes","General_Pop":" ","SPECIAL_NEEDS":"Yes","Pet_Friendly":" ","Does_not_meet_ARC_4496":" ","Survey_Needed":" "}},{"type":"Feature","id":104,"geometry":{"type":"Point","coordinates":[-80.241674036321328,27.118550993482447]},"properties":{"OBJECTID":104,"Name":"David L Anderson MS","Address":"7000 SE Atlantic Ridge Dr","City":"Stuart","Zip":"34997","COUNTY":"MARTIN","X":-80.241674040000007,"Y":27.118550989999999,"LONGLAT":"-80.24167404, 27.11855099","USNG":"17R NK 75159 99792","FACILITY_TYPE":"SHELTER","SHELTER_TYPE":"RISK","RPC_Region":"9","Year_Built":"2005","Building":"02 Classroom","AS_IS_A_Retrofit_R":"A","Generator_Type":"1280 kW for campus","PreMitigation_Capacity_Spaces":0,"PreMitigation_Square_Footage":0,"EHPA_Capacity_Gained_Spaces":598,"EHPA_Square_Footage_Gained":13376,"Retrofit_Capacity_Gained_Spaces":0,"Retrofit_Square_Footage_Gained":0,"Risk_Capacity_Spaces":598,"Risk_Square_Footage":13376,"Planned_Usage_Spaces":145,"FundingSource_F_Federal_State_S":" ","Evacuation_Zone":"No","SURGE_ZONE":"No","FLOOD_ZONE":"No","EHPA":"Yes","General_Pop":" ","SPECIAL_NEEDS":"Yes","Pet_Friendly":" ","Does_not_meet_ARC_4496":" ","Survey_Needed":" "}},{"type":"Feature","id":105,"geometry":{"type":"Point","coordinates":[-80.241674036321328,27.118550993482447]},"properties":{"OBJECTID":105,"Name":"David L Anderson MS","Address":"7000 Sw Atlantic Ridge Dr","City":"Stuart","Zip":"34997","COUNTY":"MARTIN","X":-80.241674040000007,"Y":27.118550989999999,"LONGLAT":"-80.24167404, 27.11855099","USNG":"17R NK 75159 99792","FACILITY_TYPE":"SHELTER","SHELTER_TYPE":"RISK","RPC_Region":"9","Year_Built":"2005","Building":"05 Gymn","AS_IS_A_Retrofit_R":"A","Generator_Type":"1280 kW for campus","PreMitigation_Capacity_Spaces":0,"PreMitigation_Square_Footage":0,"EHPA_Capacity_Gained_Spaces":285,"EHPA_Square_Footage_Gained":17089,"Retrofit_Capacity_Gained_Spaces":0,"Retrofit_Square_Footage_Gained":0,"Risk_Capacity_Spaces":285,"Risk_Square_Footage":17089,"Planned_Usage_Spaces":300,"FundingSource_F_Federal_State_S":" ","Evacuation_Zone":"No","SURGE_ZONE":"No","FLOOD_ZONE":"No","EHPA":"Yes","General_Pop":" ","SPECIAL_NEEDS":"Yes","Pet_Friendly":" ","Does_not_meet_ARC_4496":" ","Survey_Needed":" "}},{"type":"Feature","id":106,"geometry":{"type":"Point","coordinates":[-80.241674036321328,27.118550993482447]},"properties":{"OBJECTID":106,"Name":"David L Anderson MS","Address":"7000 SE Atlantic Ridge Dr","City":"Stuart","Zip":"34997","COUNTY":"MARTIN","X":-80.241674040000007,"Y":27.118550989999999,"LONGLAT":"-80.24167404, 27.11855099","USNG":"17R NK 75159 99792","FACILITY_TYPE":"SHELTER","SHELTER_TYPE":"RISK","RPC_Region":"9","Year_Built":"2005","Building":"04 Classroom","AS_IS_A_Retrofit_R":"A","Generator_Type":"1280 kW for campus","PreMitigation_Capacity_Spaces":0,"PreMitigation_Square_Footage":0,"EHPA_Capacity_Gained_Spaces":584,"EHPA_Square_Footage_Gained":12562,"Retrofit_Capacity_Gained_Spaces":0,"Retrofit_Square_Footage_Gained":0,"Risk_Capacity_Spaces":584,"Risk_Square_Footage":12562,"Planned_Usage_Spaces":169,"FundingSource_F_Federal_State_S":" ","Evacuation_Zone":"No","SURGE_ZONE":"No","FLOOD_ZONE":"No","EHPA":"Yes","General_Pop":" ","SPECIAL_NEEDS":"Yes","Pet_Friendly":" ","Does_not_meet_ARC_4496":" ","Survey_Needed":" "}},{"type":"Feature","id":107,"geometry":{"type":"Point","coordinates":[-80.330321965972971,25.874519988098598]},"properties":{"OBJECTID":107,"Name":"Jose Marti MAST Academy (6-12)","Address":"5701 W 24th Ave","City":"Hialeah","Zip":"33016","COUNTY":"MIAMI-DADE","X":-80.33032197,"Y":25.87451999,"LONGLAT":"-80.33032197, 25.87451999","USNG":"17R NJ 67091 61958","FACILITY_TYPE":"SHELTER","SHELTER_TYPE":"RISK","RPC_Region":"10","Year_Built":"1985","Building":"4 Cafeteria / Gym","AS_IS_A_Retrofit_R":"A","Generator_Type":"250 kW","PreMitigation_Capacity_Spaces":0,"PreMitigation_Square_Footage":0,"EHPA_Capacity_Gained_Spaces":0,"EHPA_Square_Footage_Gained":0,"Retrofit_Capacity_Gained_Spaces":0,"Retrofit_Square_Footage_Gained":0,"Risk_Capacity_Spaces":56,"Risk_Square_Footage":3381,"Planned_Usage_Spaces":169,"FundingSource_F_Federal_State_S":" ","Evacuation_Zone":"No","SURGE_ZONE":"No","FLOOD_ZONE":"No","EHPA":"No","General_Pop":" ","SPECIAL_NEEDS":"Yes","Pet_Friendly":" ","Does_not_meet_ARC_4496":" ","Survey_Needed":" "}},{"type":"Feature","id":108,"geometry":{"type":"Point","coordinates":[-80.330321965972971,25.874519988098598]},"properties":{"OBJECTID":108,"Name":"Jose Marti MAST Academy (6-12)","Address":"5701 W 24th Ave","City":"Hialeah","Zip":"33016","COUNTY":"MIAMI-DADE","X":-80.33032197,"Y":25.87451999,"LONGLAT":"-80.33032197, 25.87451999","USNG":"17R NJ 67091 61958","FACILITY_TYPE":"SHELTER","SHELTER_TYPE":"RISK","RPC_Region":"10","Year_Built":"1985","Building":"6 Tech Lab","AS_IS_A_Retrofit_R":"A","Generator_Type":"250 kW","PreMitigation_Capacity_Spaces":0,"PreMitigation_Square_Footage":0,"EHPA_Capacity_Gained_Spaces":0,"EHPA_Square_Footage_Gained":0,"Retrofit_Capacity_Gained_Spaces":0,"Retrofit_Square_Footage_Gained":0,"Risk_Capacity_Spaces":20,"Risk_Square_Footage":1173,"Planned_Usage_Spaces":59,"FundingSource_F_Federal_State_S":" ","Evacuation_Zone":"No","SURGE_ZONE":"No","FLOOD_ZONE":"No","EHPA":"No","General_Pop":" ","SPECIAL_NEEDS":"Yes","Pet_Friendly":" ","Does_not_meet_ARC_4496":" ","Survey_Needed":" "}},{"type":"Feature","id":109,"geometry":{"type":"Point","coordinates":[-80.354363024164016,25.771548013955499]},"properties":{"OBJECTID":109,"Name":"Ruben Dario MS","Address":"350 NW 97th Ave","City":"Miami","Zip":"33172","COUNTY":"MIAMI-DADE","X":-80.354363019999994,"Y":25.77154801,"LONGLAT":"-80.35436302, 25.77154801","USNG":"17R NJ 64739 50543","FACILITY_TYPE":"SHELTER","SHELTER_TYPE":"RISK","RPC_Region":"10","Year_Built":"1985","Building":"2 Cafeteria","AS_IS_A_Retrofit_R":"A","Generator_Type":"250 kW","PreMitigation_Capacity_Spaces":0,"PreMitigation_Square_Footage":0,"EHPA_Capacity_Gained_Spaces":0,"EHPA_Square_Footage_Gained":0,"Retrofit_Capacity_Gained_Spaces":0,"Retrofit_Square_Footage_Gained":0,"Risk_Capacity_Spaces":53,"Risk_Square_Footage":3209,"Planned_Usage_Spaces":250,"FundingSource_F_Federal_State_S":" ","Evacuation_Zone":"E","SURGE_ZONE":"No","FLOOD_ZONE":"No","EHPA":"No","General_Pop":" ","SPECIAL_NEEDS":"Yes","Pet_Friendly":" ","Does_not_meet_ARC_4496":" ","Survey_Needed":" "}},{"type":"Feature","id":110,"geometry":{"type":"Point","coordinates":[-80.204805982903707,25.78654701147499]},"properties":{"OBJECTID":110,"Name":"Booker T. Washington HS","Address":"1200 NW 6th Ave","City":"Miami","Zip":"33136","COUNTY":"MIAMI-DADE","X":-80.204805980000003,"Y":25.78654701,"LONGLAT":"-80.20480598, 25.78654701","USNG":"17R NJ 79726 52286","FACILITY_TYPE":"SHELTER","SHELTER_TYPE":"RISK","RPC_Region":"10","Year_Built":"2001","Building":"14 Classroom","AS_IS_A_Retrofit_R":"A","Generator_Type":"325 kW","PreMitigation_Capacity_Spaces":0,"PreMitigation_Square_Footage":0,"EHPA_Capacity_Gained_Spaces":514,"EHPA_Square_Footage_Gained":30838,"Retrofit_Capacity_Gained_Spaces":0,"Retrofit_Square_Footage_Gained":0,"Risk_Capacity_Spaces":514,"Risk_Square_Footage":30838,"Planned_Usage_Spaces":1028,"FundingSource_F_Federal_State_S":"L","Evacuation_Zone":"E","SURGE_ZONE":"5","FLOOD_ZONE":"No","EHPA":"Yes","General_Pop":" ","SPECIAL_NEEDS":"Yes","Pet_Friendly":" ","Does_not_meet_ARC_4496":" ","Survey_Needed":" "}},{"type":"Feature","id":111,"geometry":{"type":"Point","coordinates":[-80.204686038236062,25.831612020446855]},"properties":{"OBJECTID":111,"Name":"Miami Edison HS","Address":"6161 NW 5th Ct","City":"Miami","Zip":"33127","COUNTY":"MIAMI-DADE","X":-80.204686039999999,"Y":25.831612020000001,"LONGLAT":"-80.20468604, 25.83161202","USNG":"17R NJ 79707 57277","FACILITY_TYPE":"SHELTER","SHELTER_TYPE":"RISK","RPC_Region":"10","Year_Built":"1992","Building":"Multiple buildings","AS_IS_A_Retrofit_R":"R","Generator_Type":" ","PreMitigation_Capacity_Spaces":0,"PreMitigation_Square_Footage":0,"EHPA_Capacity_Gained_Spaces":0,"EHPA_Square_Footage_Gained":0,"Retrofit_Capacity_Gained_Spaces":247,"Retrofit_Square_Footage_Gained":14795,"Risk_Capacity_Spaces":247,"Risk_Square_Footage":14795,"Planned_Usage_Spaces":740,"FundingSource_F_Federal_State_S":" ","Evacuation_Zone":"No","SURGE_ZONE":"No","FLOOD_ZONE":"No","EHPA":"No","General_Pop":" ","SPECIAL_NEEDS":"Yes","Pet_Friendly":" ","Does_not_meet_ARC_4496":" ","Survey_Needed":" "}},{"type":"Feature","id":112,"geometry":{"type":"Point","coordinates":[-80.225016008883514,25.81070399094671]},"properties":{"OBJECTID":112,"Name":"Miami Jackson HS","Address":"1751 NW 36th St","City":"Miami","Zip":"33142","COUNTY":"MIAMI-DADE","X":-80.225016010000004,"Y":25.81070399,"LONGLAT":"-80.22501601, 25.81070399","USNG":"17R NJ 77683 54949","FACILITY_TYPE":"SHELTER","SHELTER_TYPE":"RISK","RPC_Region":"10","Year_Built":"2004","Building":"Multiple buildings","AS_IS_A_Retrofit_R":" ","Generator_Type":" ","PreMitigation_Capacity_Spaces":0,"PreMitigation_Square_Footage":0,"EHPA_Capacity_Gained_Spaces":0,"EHPA_Square_Footage_Gained":0,"Retrofit_Capacity_Gained_Spaces":0,"Retrofit_Square_Footage_Gained":0,"Risk_Capacity_Spaces":565,"Risk_Square_Footage":33900,"Planned_Usage_Spaces":0,"FundingSource_F_Federal_State_S":" ","Evacuation_Zone":"No","SURGE_ZONE":"No","FLOOD_ZONE":"AE","EHPA":"No","General_Pop":" ","SPECIAL_NEEDS":"Yes","Pet_Friendly":" ","Does_not_meet_ARC_4496":" ","Survey_Needed":" "}},{"type":"Feature","id":113,"geometry":{"type":"Point","coordinates":[-80.330321965972971,25.874519988098598]},"properties":{"OBJECTID":113,"Name":"Jose Marti MAST Academy (6-12)","Address":"5701 W 24th Ave","City":"Hialeah","Zip":"33016","COUNTY":"MIAMI-DADE","X":-80.33032197,"Y":25.87451999,"LONGLAT":"-80.33032197, 25.87451999","USNG":"17R NJ 67091 61958","FACILITY_TYPE":"SHELTER","SHELTER_TYPE":"RISK","RPC_Region":"10","Year_Built":"1985","Building":"1 Admin","AS_IS_A_Retrofit_R":"A","Generator_Type":"250 kW","PreMitigation_Capacity_Spaces":0,"PreMitigation_Square_Footage":0,"EHPA_Capacity_Gained_Spaces":0,"EHPA_Square_Footage_Gained":0,"Retrofit_Capacity_Gained_Spaces":0,"Retrofit_Square_Footage_Gained":0,"Risk_Capacity_Spaces":645,"Risk_Square_Footage":38725,"Planned_Usage_Spaces":1936,"FundingSource_F_Federal_State_S":" ","Evacuation_Zone":"No","SURGE_ZONE":"No","FLOOD_ZONE":"No","EHPA":"No","General_Pop":" ","SPECIAL_NEEDS":"Yes","Pet_Friendly":" ","Does_not_meet_ARC_4496":" ","Survey_Needed":" "}},{"type":"Feature","id":114,"geometry":{"type":"Point","coordinates":[-80.378083199781827,25.757596702066035]},"properties":{"OBJECTID":114,"Name":"Florida International University","Address":"11290 SW 12th St","City":"Miami","Zip":"33199","COUNTY":"MIAMI-DADE","X":-80.378083200000006,"Y":25.757596700000001,"LONGLAT":"-80.37808320, 25.75759670","USNG":"17R NJ 62367 48986","FACILITY_TYPE":"SHELTER","SHELTER_TYPE":"RISK","RPC_Region":"10","Year_Built":"2017","Building":"Rec Complex 2nd Floor","AS_IS_A_Retrofit_R":"A","Generator_Type":"600 kW","PreMitigation_Capacity_Spaces":0,"PreMitigation_Square_Footage":0,"EHPA_Capacity_Gained_Spaces":0,"EHPA_Square_Footage_Gained":0,"Retrofit_Capacity_Gained_Spaces":91,"Retrofit_Square_Footage_Gained":5443,"Risk_Capacity_Spaces":91,"Risk_Square_Footage":5443,"Planned_Usage_Spaces":91,"FundingSource_F_Federal_State_S":" ","Evacuation_Zone":"E","SURGE_ZONE":"5","FLOOD_ZONE":"AH","EHPA":"No","General_Pop":" ","SPECIAL_NEEDS":"Yes","Pet_Friendly":" ","Does_not_meet_ARC_4496":" ","Survey_Needed":" "}},{"type":"Feature","id":115,"geometry":{"type":"Point","coordinates":[-80.354363024164016,25.771548013955499]},"properties":{"OBJECTID":115,"Name":"Ruben Dario MS","Address":"350 NW 97th Ave","City":"Miami","Zip":"33172","COUNTY":"MIAMI-DADE","X":-80.354363019999994,"Y":25.77154801,"LONGLAT":"-80.35436302, 25.77154801","USNG":"17R NJ 64739 50543","FACILITY_TYPE":"SHELTER","SHELTER_TYPE":"RISK","RPC_Region":"10","Year_Built":"1985","Building":"1 Admin / Classroom","AS_IS_A_Retrofit_R":"A","Generator_Type":"250 kW","PreMitigation_Capacity_Spaces":0,"PreMitigation_Square_Footage":0,"EHPA_Capacity_Gained_Spaces":0,"EHPA_Square_Footage_Gained":0,"Retrofit_Capacity_Gained_Spaces":0,"Retrofit_Square_Footage_Gained":0,"Risk_Capacity_Spaces":742,"Risk_Square_Footage":44522,"Planned_Usage_Spaces":250,"FundingSource_F_Federal_State_S":" ","Evacuation_Zone":"E","SURGE_ZONE":"No","FLOOD_ZONE":"No","EHPA":"No","General_Pop":" ","SPECIAL_NEEDS":"Yes","Pet_Friendly":" ","Does_not_meet_ARC_4496":" ","Survey_Needed":" "}},{"type":"Feature","id":116,"geometry":{"type":"Point","coordinates":[-81.640632032277864,30.632627983165147]},"properties":{"OBJECTID":116,"Name":"Wildlight ES","Address":"550 Curiosity Ave","City":"Yulee","Zip":"32097","COUNTY":"NASSAU","X":-81.640632030000006,"Y":30.632627979999999,"LONGLAT":"-81.64063203, 30.63262798","USNG":"17R MP 38607 89063","FACILITY_TYPE":"SHELTER","SHELTER_TYPE":"RISK","RPC_Region":"4","Year_Built":"2017","Building":"1 Admin / Art","AS_IS_A_Retrofit_R":"A","Generator_Type":" ","PreMitigation_Capacity_Spaces":0,"PreMitigation_Square_Footage":0,"EHPA_Capacity_Gained_Spaces":52,"EHPA_Square_Footage_Gained":3143,"Retrofit_Capacity_Gained_Spaces":0,"Retrofit_Square_Footage_Gained":0,"Risk_Capacity_Spaces":52,"Risk_Square_Footage":3143,"Planned_Usage_Spaces":0,"FundingSource_F_Federal_State_S":" ","Evacuation_Zone":"No","SURGE_ZONE":"No","FLOOD_ZONE":"No","EHPA":"Yes","General_Pop":" ","SPECIAL_NEEDS":"Yes","Pet_Friendly":"Yes","Does_not_meet_ARC_4496":" ","Survey_Needed":"Yes"}},{"type":"Feature","id":117,"geometry":{"type":"Point","coordinates":[-81.640632032277864,30.632627983165147]},"properties":{"OBJECTID":117,"Name":"Wildlight ES","Address":"550 Curiosity Ave","City":"Yulee","Zip":"32097","COUNTY":"NASSAU","X":-81.640632030000006,"Y":30.632627979999999,"LONGLAT":"-81.64063203, 30.63262798","USNG":"17R MP 38607 89063","FACILITY_TYPE":"SHELTER","SHELTER_TYPE":"RISK","RPC_Region":"4","Year_Built":"2017","Building":"2 Cafeteria","AS_IS_A_Retrofit_R":"A","Generator_Type":" ","PreMitigation_Capacity_Spaces":0,"PreMitigation_Square_Footage":0,"EHPA_Capacity_Gained_Spaces":100,"EHPA_Square_Footage_Gained":6027,"Retrofit_Capacity_Gained_Spaces":0,"Retrofit_Square_Footage_Gained":0,"Risk_Capacity_Spaces":100,"Risk_Square_Footage":6027,"Planned_Usage_Spaces":0,"FundingSource_F_Federal_State_S":" ","Evacuation_Zone":"No","SURGE_ZONE":"No","FLOOD_ZONE":"No","EHPA":"Yes","General_Pop":" ","SPECIAL_NEEDS":"Yes","Pet_Friendly":"Yes","Does_not_meet_ARC_4496":" ","Survey_Needed":" "}},{"type":"Feature","id":118,"geometry":{"type":"Point","coordinates":[-86.562030020153742,30.794098013474915]},"properties":{"OBJECTID":118,"Name":"Davidson MS","Address":"6261 Old Bethel Rd","City":"Crestview","Zip":"32536","COUNTY":"OKALOOSA","X":-86.562030019999995,"Y":30.794098009999999,"LONGLAT":"-86.56203002, 30.79409801","USNG":"16R EV 41901 06865","FACILITY_TYPE":"SHELTER","SHELTER_TYPE":"RISK","RPC_Region":"1","Year_Built":"1997","Building":"1A Main","AS_IS_A_Retrofit_R":"R","Generator_Type":"Yes, unknown kW","PreMitigation_Capacity_Spaces":0,"PreMitigation_Square_Footage":0,"EHPA_Capacity_Gained_Spaces":0,"EHPA_Square_Footage_Gained":0,"Retrofit_Capacity_Gained_Spaces":82,"Retrofit_Square_Footage_Gained":4920,"Risk_Capacity_Spaces":82,"Risk_Square_Footage":4920,"Planned_Usage_Spaces":82,"FundingSource_F_Federal_State_S":"S","Evacuation_Zone":"No","SURGE_ZONE":"No","FLOOD_ZONE":"No","EHPA":"No","General_Pop":" ","SPECIAL_NEEDS":"Yes","Pet_Friendly":"Yes","Does_not_meet_ARC_4496":" ","Survey_Needed":" "}},{"type":"Feature","id":119,"geometry":{"type":"Point","coordinates":[-80.837532588834506,27.264346815142801]},"properties":{"OBJECTID":119,"Name":"Indian River State College Okeechobee","Address":"2229 NW 9th Ave","City":"Okeechobee","Zip":"34972","COUNTY":"OKEECHOBEE","X":-80.837532589999995,"Y":27.26434682,"LONGLAT":"-80.83753259, 27.26434682","USNG":"17R NL 16081 15725","FACILITY_TYPE":"SHELTER","SHELTER_TYPE":"RISK","RPC_Region":"6","Year_Built":"2008","Building":"Bldg C Conference","AS_IS_A_Retrofit_R":"A","Generator_Type":" ","PreMitigation_Capacity_Spaces":0,"PreMitigation_Square_Footage":0,"EHPA_Capacity_Gained_Spaces":107,"EHPA_Square_Footage_Gained":6429,"Retrofit_Capacity_Gained_Spaces":0,"Retrofit_Square_Footage_Gained":0,"Risk_Capacity_Spaces":107,"Risk_Square_Footage":6429,"Planned_Usage_Spaces":0,"FundingSource_F_Federal_State_S":" ","Evacuation_Zone":"No","SURGE_ZONE":"No","FLOOD_ZONE":"No","EHPA":"Yes","General_Pop":" ","SPECIAL_NEEDS":"Yes","Pet_Friendly":" ","Does_not_meet_ARC_4496":" ","Survey_Needed":" "}},{"type":"Feature","id":120,"geometry":{"type":"Point","coordinates":[-81.130004982299539,28.557126013152029]},"properties":{"OBJECTID":120,"Name":"East River HS","Address":"650 E River Falcons Way","City":"Orlando","Zip":"32835","COUNTY":"ORANGE","X":-81.130004979999995,"Y":28.557126010000001,"LONGLAT":"-81.13000498, 28.55712601","USNG":"17R MM 87283 58927","FACILITY_TYPE":"SHELTER","SHELTER_TYPE":"RISK","RPC_Region":"5","Year_Built":"2009","Building":"7 Cafeteria","AS_IS_A_Retrofit_R":"A","Generator_Type":"475 kW","PreMitigation_Capacity_Spaces":0,"PreMitigation_Square_Footage":0,"EHPA_Capacity_Gained_Spaces":141,"EHPA_Square_Footage_Gained":8443,"Retrofit_Capacity_Gained_Spaces":0,"Retrofit_Square_Footage_Gained":0,"Risk_Capacity_Spaces":141,"Risk_Square_Footage":8443,"Planned_Usage_Spaces":197,"FundingSource_F_Federal_State_S":" ","Evacuation_Zone":"No","SURGE_ZONE":"No","FLOOD_ZONE":"No","EHPA":"Yes","General_Pop":" ","SPECIAL_NEEDS":"Yes","Pet_Friendly":" ","Does_not_meet_ARC_4496":" ","Survey_Needed":" "}},{"type":"Feature","id":121,"geometry":{"type":"Point","coordinates":[-81.412137999342349,28.415274999937413]},"properties":{"OBJECTID":121,"Name":"Freedom HS (priority 3)","Address":"2500 W Taft Vineland Rd","City":"Orlando","Zip":"32837","COUNTY":"ORANGE","X":-81.412137999999999,"Y":28.415275000000001,"LONGLAT":"-81.41213800, 28.41527500","USNG":"17R MM 59633 43274","FACILITY_TYPE":"SHELTER","SHELTER_TYPE":"RISK","RPC_Region":"5","Year_Built":"2003","Building":"7 Cafeteria","AS_IS_A_Retrofit_R":"A","Generator_Type":"600 kW","PreMitigation_Capacity_Spaces":0,"PreMitigation_Square_Footage":0,"EHPA_Capacity_Gained_Spaces":128,"EHPA_Square_Footage_Gained":7679,"Retrofit_Capacity_Gained_Spaces":0,"Retrofit_Square_Footage_Gained":0,"Risk_Capacity_Spaces":128,"Risk_Square_Footage":7679,"Planned_Usage_Spaces":134,"FundingSource_F_Federal_State_S":" ","Evacuation_Zone":"No","SURGE_ZONE":"No","FLOOD_ZONE":"No","EHPA":"Yes","General_Pop":" ","SPECIAL_NEEDS":"Yes","Pet_Friendly":" ","Does_not_meet_ARC_4496":" ","Survey_Needed":" "}},{"type":"Feature","id":122,"geometry":{"type":"Point","coordinates":[-81.130004982299539,28.557126013152029]},"properties":{"OBJECTID":122,"Name":"East River HS","Address":"650 E River Falcons Way","City":"Orlando","Zip":"32833","COUNTY":"ORANGE","X":-81.130004979999995,"Y":28.557126010000001,"LONGLAT":"-81.13000498, 28.55712601","USNG":"17R MM 87283 58927","FACILITY_TYPE":"SHELTER","SHELTER_TYPE":"RISK","RPC_Region":"5","Year_Built":"2009","Building":"3 Gym","AS_IS_A_Retrofit_R":"A","Generator_Type":"475 kW","PreMitigation_Capacity_Spaces":0,"PreMitigation_Square_Footage":0,"EHPA_Capacity_Gained_Spaces":317,"EHPA_Square_Footage_Gained":18999,"Retrofit_Capacity_Gained_Spaces":0,"Retrofit_Square_Footage_Gained":0,"Risk_Capacity_Spaces":317,"Risk_Square_Footage":18999,"Planned_Usage_Spaces":759,"FundingSource_F_Federal_State_S":" ","Evacuation_Zone":"No","SURGE_ZONE":"No","FLOOD_ZONE":"No","EHPA":"Yes","General_Pop":" ","SPECIAL_NEEDS":"Yes","Pet_Friendly":" ","Does_not_meet_ARC_4496":" ","Survey_Needed":" "}},{"type":"Feature","id":123,"geometry":{"type":"Point","coordinates":[-81.412137999342349,28.415274999937413]},"properties":{"OBJECTID":123,"Name":"Freedom HS (priority 3)","Address":"2500 W Taft Vineland Rd","City":"Orlando","Zip":"32806","COUNTY":"ORANGE","X":-81.412137999999999,"Y":28.415275000000001,"LONGLAT":"-81.41213800, 28.41527500","USNG":"17R MM 59633 43274","FACILITY_TYPE":"SHELTER","SHELTER_TYPE":"RISK","RPC_Region":"5","Year_Built":"2003","Building":"2 Classroom","AS_IS_A_Retrofit_R":"A","Generator_Type":" ","PreMitigation_Capacity_Spaces":0,"PreMitigation_Square_Footage":0,"EHPA_Capacity_Gained_Spaces":202,"EHPA_Square_Footage_Gained":12110,"Retrofit_Capacity_Gained_Spaces":0,"Retrofit_Square_Footage_Gained":0,"Risk_Capacity_Spaces":202,"Risk_Square_Footage":12110,"Planned_Usage_Spaces":134,"FundingSource_F_Federal_State_S":" ","Evacuation_Zone":"No","SURGE_ZONE":"No","FLOOD_ZONE":"No","EHPA":"Yes","General_Pop":" ","SPECIAL_NEEDS":"Yes","Pet_Friendly":" ","Does_not_meet_ARC_4496":" ","Survey_Needed":"Yes"}},{"type":"Feature","id":124,"geometry":{"type":"Point","coordinates":[-81.50840011292027,28.49799597649524]},"properties":{"OBJECTID":124,"Name":"Olympia HS","Address":"4300 S Apopka Vineland Rd","City":"Orlando","Zip":"32837","COUNTY":"ORANGE","X":-81.508400109999997,"Y":28.497995979999999,"LONGLAT":"-81.50840011, 28.49799598","USNG":"17R MM 50244 52475","FACILITY_TYPE":"SHELTER","SHELTER_TYPE":"RISK","RPC_Region":"5","Year_Built":"1999","Building":"3 Gym","AS_IS_A_Retrofit_R":"A","Generator_Type":" ","PreMitigation_Capacity_Spaces":0,"PreMitigation_Square_Footage":0,"EHPA_Capacity_Gained_Spaces":293,"EHPA_Square_Footage_Gained":17562,"Retrofit_Capacity_Gained_Spaces":0,"Retrofit_Square_Footage_Gained":0,"Risk_Capacity_Spaces":293,"Risk_Square_Footage":17562,"Planned_Usage_Spaces":293,"FundingSource_F_Federal_State_S":" ","Evacuation_Zone":"No","SURGE_ZONE":"No","FLOOD_ZONE":"No","EHPA":"Yes","General_Pop":" ","SPECIAL_NEEDS":"Yes","Pet_Friendly":"Yes","Does_not_meet_ARC_4496":" ","Survey_Needed":" "}},{"type":"Feature","id":125,"geometry":{"type":"Point","coordinates":[-81.408968969259519,28.306874990434778]},"properties":{"OBJECTID":125,"Name":"Central Ave ES","Address":"500 W Columbia Ave","City":"Kissimmee","Zip":"34741","COUNTY":"OSCEOLA","X":-81.408968970000004,"Y":28.306874990000001,"LONGLAT":"-81.40896897, 28.30687499","USNG":"17R MM 59903 31265","FACILITY_TYPE":"SHELTER","SHELTER_TYPE":"RISK","RPC_Region":"5","Year_Built":"2000","Building":"1 Main Classroom / Cafeteria","AS_IS_A_Retrofit_R":"A","Generator_Type":"Unknown kW, located on NW side of Campus","PreMitigation_Capacity_Spaces":0,"PreMitigation_Square_Footage":0,"EHPA_Capacity_Gained_Spaces":560,"EHPA_Square_Footage_Gained":33602,"Retrofit_Capacity_Gained_Spaces":0,"Retrofit_Square_Footage_Gained":0,"Risk_Capacity_Spaces":560,"Risk_Square_Footage":33602,"Planned_Usage_Spaces":500,"FundingSource_F_Federal_State_S":" ","Evacuation_Zone":"No","SURGE_ZONE":"No","FLOOD_ZONE":"No","EHPA":"Yes","General_Pop":" ","SPECIAL_NEEDS":"Yes","Pet_Friendly":" ","Does_not_meet_ARC_4496":" ","Survey_Needed":" "}},{"type":"Feature","id":126,"geometry":{"type":"Point","coordinates":[-81.409335007128789,28.316429018476281]},"properties":{"OBJECTID":126,"Name":"Oak Leaf Landing Center","Address":"2350 N Central Ave","City":"Kissimmee","Zip":"34741","COUNTY":"OSCEOLA","X":-81.409335010000007,"Y":28.316429020000001,"LONGLAT":"-81.40933501, 28.31642902","USNG":"17R MM 59871 32323","FACILITY_TYPE":"SHELTER","SHELTER_TYPE":"RISK","RPC_Region":"5","Year_Built":"0","Building":"1 Main","AS_IS_A_Retrofit_R":"A","Generator_Type":" ","PreMitigation_Capacity_Spaces":0,"PreMitigation_Square_Footage":0,"EHPA_Capacity_Gained_Spaces":0,"EHPA_Square_Footage_Gained":0,"Retrofit_Capacity_Gained_Spaces":0,"Retrofit_Square_Footage_Gained":0,"Risk_Capacity_Spaces":101,"Risk_Square_Footage":6030,"Planned_Usage_Spaces":251,"FundingSource_F_Federal_State_S":" ","Evacuation_Zone":" ","SURGE_ZONE":" ","FLOOD_ZONE":" ","EHPA":"No","General_Pop":" ","SPECIAL_NEEDS":"Yes","Pet_Friendly":" ","Does_not_meet_ARC_4496":" ","Survey_Needed":" "}},{"type":"Feature","id":127,"geometry":{"type":"Point","coordinates":[-81.309061963689985,28.241676984121259]},"properties":{"OBJECTID":127,"Name":"St. Cloud Senior Center","Address":"3101 17th St","City":"St. Cloud","Zip":"34769","COUNTY":"OSCEOLA","X":-81.309061959999994,"Y":28.241676980000001,"LONGLAT":"-81.30906196, 28.24167698","USNG":"17R MM 69680 24013","FACILITY_TYPE":"SHELTER","SHELTER_TYPE":"RISK","RPC_Region":"5","Year_Built":"1991","Building":"Main","AS_IS_A_Retrofit_R":"R","Generator_Type":" ","PreMitigation_Capacity_Spaces":0,"PreMitigation_Square_Footage":0,"EHPA_Capacity_Gained_Spaces":0,"EHPA_Square_Footage_Gained":0,"Retrofit_Capacity_Gained_Spaces":129,"Retrofit_Square_Footage_Gained":7744,"Risk_Capacity_Spaces":129,"Risk_Square_Footage":7744,"Planned_Usage_Spaces":166,"FundingSource_F_Federal_State_S":"S-1543A","Evacuation_Zone":"No","SURGE_ZONE":"No","FLOOD_ZONE":"No","EHPA":"No","General_Pop":" ","SPECIAL_NEEDS":"Yes","Pet_Friendly":" ","Does_not_meet_ARC_4496":" ","Survey_Needed":"Yes"}},{"type":"Feature","id":128,"geometry":{"type":"Point","coordinates":[-81.359699974355848,28.285537011226971]},"properties":{"OBJECTID":128,"Name":"Barney E. Veal Center","Address":"700 Generations Pt","City":"Kissimmee","Zip":"34744","COUNTY":"OSCEOLA","X":-81.359699969999994,"Y":28.285537009999999,"LONGLAT":"-81.35969997, 28.28553701","USNG":"17R MM 64726 28885","FACILITY_TYPE":"SHELTER","SHELTER_TYPE":"RISK","RPC_Region":"5","Year_Built":"2008","Building":"Main","AS_IS_A_Retrofit_R":"A","Generator_Type":"Unknown kW, located in Health Care Center Garage","PreMitigation_Capacity_Spaces":0,"PreMitigation_Square_Footage":0,"EHPA_Capacity_Gained_Spaces":0,"EHPA_Square_Footage_Gained":0,"Retrofit_Capacity_Gained_Spaces":142,"Retrofit_Square_Footage_Gained":8545,"Risk_Capacity_Spaces":142,"Risk_Square_Footage":8545,"Planned_Usage_Spaces":385,"FundingSource_F_Federal_State_S":" ","Evacuation_Zone":"No","SURGE_ZONE":"No","FLOOD_ZONE":"AE","EHPA":"No","General_Pop":" ","SPECIAL_NEEDS":"Yes","Pet_Friendly":" ","Does_not_meet_ARC_4496":" ","Survey_Needed":" "}},{"type":"Feature","id":129,"geometry":{"type":"Point","coordinates":[-80.188545006916272,26.682494005309284]},"properties":{"OBJECTID":129,"Name":"South Florida Fair Expo","Address":"9067 Southern Blvd","City":"W Palm Beach","Zip":"33411","COUNTY":"PALM BEACH","X":-80.188545009999999,"Y":26.682494009999999,"LONGLAT":"-80.18854501, 26.68249401","USNG":"17R NK 80735 51526","FACILITY_TYPE":"SHELTER","SHELTER_TYPE":"RISK","RPC_Region":"9","Year_Built":"0","Building":"West Expo","AS_IS_A_Retrofit_R":"R","Generator_Type":" ","PreMitigation_Capacity_Spaces":0,"PreMitigation_Square_Footage":0,"EHPA_Capacity_Gained_Spaces":550,"EHPA_Square_Footage_Gained":33000,"Retrofit_Capacity_Gained_Spaces":0,"Retrofit_Square_Footage_Gained":0,"Risk_Capacity_Spaces":550,"Risk_Square_Footage":33000,"Planned_Usage_Spaces":550,"FundingSource_F_Federal_State_S":" ","Evacuation_Zone":"No","SURGE_ZONE":"No","FLOOD_ZONE":"No","EHPA":"Yes","General_Pop":" ","SPECIAL_NEEDS":"Yes","Pet_Friendly":" ","Does_not_meet_ARC_4496":" ","Survey_Needed":" "}},{"type":"Feature","id":130,"geometry":{"type":"Point","coordinates":[-80.17957829915008,26.652511183412972]},"properties":{"OBJECTID":130,"Name":"Palm Beach Central HS (Part)","Address":"8499 Forest Hill Blvd","City":"Wellington","Zip":"33414","COUNTY":"PALM BEACH","X":-80.179578300000003,"Y":26.652511180000001,"LONGLAT":"-80.17957830, 26.65251118","USNG":"17R NK 81648 48210","FACILITY_TYPE":"SHELTER","SHELTER_TYPE":"RISK","RPC_Region":"9","Year_Built":"2002","Building":"8 Gym","AS_IS_A_Retrofit_R":"A","Generator_Type":" ","PreMitigation_Capacity_Spaces":0,"PreMitigation_Square_Footage":0,"EHPA_Capacity_Gained_Spaces":308,"EHPA_Square_Footage_Gained":18455,"Retrofit_Capacity_Gained_Spaces":0,"Retrofit_Square_Footage_Gained":0,"Risk_Capacity_Spaces":308,"Risk_Square_Footage":18455,"Planned_Usage_Spaces":308,"FundingSource_F_Federal_State_S":" ","Evacuation_Zone":"No","SURGE_ZONE":"No","FLOOD_ZONE":"No","EHPA":"Yes","General_Pop":" ","SPECIAL_NEEDS":"Yes","Pet_Friendly":" ","Does_not_meet_ARC_4496":" ","Survey_Needed":" "}},{"type":"Feature","id":131,"geometry":{"type":"Point","coordinates":[-82.31210998396773,28.256035981224422]},"properties":{"OBJECTID":131,"Name":"Wesley Chapel HS","Address":"30651 Wells Rd","City":"Wesley Chapel","Zip":"33545","COUNTY":"PASCO","X":-82.312109980000002,"Y":28.25603598,"LONGLAT":"-82.31210998, 28.25603598","USNG":"17R LM 71289 26263","FACILITY_TYPE":"SHELTER","SHELTER_TYPE":"RISK","RPC_Region":"7","Year_Built":"1998","Building":"3 Classoom","AS_IS_A_Retrofit_R":"A","Generator_Type":"N/A160 kW, 1600 kW, and 1000 kW for campus","PreMitigation_Capacity_Spaces":0,"PreMitigation_Square_Footage":0,"EHPA_Capacity_Gained_Spaces":0,"EHPA_Square_Footage_Gained":0,"Retrofit_Capacity_Gained_Spaces":0,"Retrofit_Square_Footage_Gained":0,"Risk_Capacity_Spaces":347,"Risk_Square_Footage":20806,"Planned_Usage_Spaces":0,"FundingSource_F_Federal_State_S":"S-1467-2004","Evacuation_Zone":"No","SURGE_ZONE":"No","FLOOD_ZONE":"No","EHPA":"No","General_Pop":" ","SPECIAL_NEEDS":"Yes","Pet_Friendly":" ","Does_not_meet_ARC_4496":" ","Survey_Needed":" "}},{"type":"Feature","id":132,"geometry":{"type":"Point","coordinates":[-82.326745038231195,28.189513006471053]},"properties":{"OBJECTID":132,"Name":"Wiregrass Ranch Sr HS","Address":"2909 Mansfield Blvd","City":"Wesley Chapel","Zip":"33543","COUNTY":"PASCO","X":-82.326745040000006,"Y":28.189513009999999,"LONGLAT":"-82.32674504, 28.18951301","USNG":"17R LM 69773 18908","FACILITY_TYPE":"SHELTER","SHELTER_TYPE":"RISK","RPC_Region":"7","Year_Built":"2006","Building":"7 Cafeteria","AS_IS_A_Retrofit_R":"A","Generator_Type":"2500 kW","PreMitigation_Capacity_Spaces":0,"PreMitigation_Square_Footage":0,"EHPA_Capacity_Gained_Spaces":76,"EHPA_Square_Footage_Gained":4538,"Retrofit_Capacity_Gained_Spaces":0,"Retrofit_Square_Footage_Gained":0,"Risk_Capacity_Spaces":76,"Risk_Square_Footage":4538,"Planned_Usage_Spaces":104,"FundingSource_F_Federal_State_S":"L","Evacuation_Zone":"No","SURGE_ZONE":"No","FLOOD_ZONE":"No","EHPA":"Yes","General_Pop":" ","SPECIAL_NEEDS":"Yes","Pet_Friendly":" ","Does_not_meet_ARC_4496":" ","Survey_Needed":" "}},{"type":"Feature","id":133,"geometry":{"type":"Point","coordinates":[-82.326745038231195,28.189513006471053]},"properties":{"OBJECTID":133,"Name":"Wiregrass Ranch Sr HS","Address":"2909 Mansfield Blvd","City":"Wesley Chapel","Zip":"33543","COUNTY":"PASCO","X":-82.326745040000006,"Y":28.189513009999999,"LONGLAT":"-82.32674504, 28.18951301","USNG":"17R LM 69773 18908","FACILITY_TYPE":"SHELTER","SHELTER_TYPE":"RISK","RPC_Region":"7","Year_Built":"2006","Building":"6 Gym","AS_IS_A_Retrofit_R":"A","Generator_Type":"2500 kW","PreMitigation_Capacity_Spaces":0,"PreMitigation_Square_Footage":0,"EHPA_Capacity_Gained_Spaces":227,"EHPA_Square_Footage_Gained":13635,"Retrofit_Capacity_Gained_Spaces":0,"Retrofit_Square_Footage_Gained":0,"Risk_Capacity_Spaces":227,"Risk_Square_Footage":13635,"Planned_Usage_Spaces":106,"FundingSource_F_Federal_State_S":"L","Evacuation_Zone":"No","SURGE_ZONE":"No","FLOOD_ZONE":"No","EHPA":"Yes","General_Pop":" ","SPECIAL_NEEDS":"Yes","Pet_Friendly":" ","Does_not_meet_ARC_4496":" ","Survey_Needed":" "}},{"type":"Feature","id":134,"geometry":{"type":"Point","coordinates":[-82.326745038231195,28.189513006471053]},"properties":{"OBJECTID":134,"Name":"Wiregrass Ranch Sr HS","Address":"2909 Mansfield Blvd","City":"Wesley Chapel","Zip":"33543","COUNTY":"PASCO","X":-82.326745040000006,"Y":28.189513009999999,"LONGLAT":"-82.32674504, 28.18951301","USNG":"17R LM 69773 18908","FACILITY_TYPE":"SHELTER","SHELTER_TYPE":"RISK","RPC_Region":"7","Year_Built":"2006","Building":"3 Classroom","AS_IS_A_Retrofit_R":"A","Generator_Type":"2500 kW","PreMitigation_Capacity_Spaces":0,"PreMitigation_Square_Footage":0,"EHPA_Capacity_Gained_Spaces":376,"EHPA_Square_Footage_Gained":22569,"Retrofit_Capacity_Gained_Spaces":0,"Retrofit_Square_Footage_Gained":0,"Risk_Capacity_Spaces":376,"Risk_Square_Footage":22569,"Planned_Usage_Spaces":363,"FundingSource_F_Federal_State_S":"L/S","Evacuation_Zone":"No","SURGE_ZONE":"No","FLOOD_ZONE":"No","EHPA":"Yes","General_Pop":" ","SPECIAL_NEEDS":"Yes","Pet_Friendly":" ","Does_not_meet_ARC_4496":" ","Survey_Needed":" "}},{"type":"Feature","id":135,"geometry":{"type":"Point","coordinates":[-82.31210998396773,28.256035981224422]},"properties":{"OBJECTID":135,"Name":"Wesley Chapel HS","Address":"30651 Wells Rd","City":"Wesley Chapel","Zip":"33545","COUNTY":"PASCO","X":-82.312109980000002,"Y":28.25603598,"LONGLAT":"-82.31210998, 28.25603598","USNG":"17R LM 71289 26263","FACILITY_TYPE":"SHELTER","SHELTER_TYPE":"RISK","RPC_Region":"7","Year_Built":"1998","Building":"5 Cafeteria","AS_IS_A_Retrofit_R":"A","Generator_Type":"160 kW, 1600 kW, and 1000 kW for campus","PreMitigation_Capacity_Spaces":0,"PreMitigation_Square_Footage":0,"EHPA_Capacity_Gained_Spaces":0,"EHPA_Square_Footage_Gained":0,"Retrofit_Capacity_Gained_Spaces":0,"Retrofit_Square_Footage_Gained":0,"Risk_Capacity_Spaces":81,"Risk_Square_Footage":4850,"Planned_Usage_Spaces":0,"FundingSource_F_Federal_State_S":"S-1467-2004","Evacuation_Zone":"No","SURGE_ZONE":"No","FLOOD_ZONE":"No","EHPA":"No","General_Pop":" ","SPECIAL_NEEDS":"Yes","Pet_Friendly":" ","Does_not_meet_ARC_4496":" ","Survey_Needed":" "}},{"type":"Feature","id":136,"geometry":{"type":"Point","coordinates":[-82.31210998396773,28.256035981224422]},"properties":{"OBJECTID":136,"Name":"Wesley Chapel HS","Address":"30651 Wells Rd","City":"Wesley Chapel","Zip":"33545","COUNTY":"PASCO","X":-82.312109980000002,"Y":28.25603598,"LONGLAT":"-82.31210998, 28.25603598","USNG":"17R LM 71289 26263","FACILITY_TYPE":"SHELTER","SHELTER_TYPE":"RISK","RPC_Region":"7","Year_Built":"1998","Building":"2 Classroom / ESE","AS_IS_A_Retrofit_R":"A","Generator_Type":"160 kW, 1600 kW, and 1000 kW for campus","PreMitigation_Capacity_Spaces":0,"PreMitigation_Square_Footage":0,"EHPA_Capacity_Gained_Spaces":0,"EHPA_Square_Footage_Gained":0,"Retrofit_Capacity_Gained_Spaces":0,"Retrofit_Square_Footage_Gained":0,"Risk_Capacity_Spaces":321,"Risk_Square_Footage":19246,"Planned_Usage_Spaces":0,"FundingSource_F_Federal_State_S":"S-1467-2004","Evacuation_Zone":"No","SURGE_ZONE":"No","FLOOD_ZONE":"No","EHPA":"No","General_Pop":" ","SPECIAL_NEEDS":"Yes","Pet_Friendly":" ","Does_not_meet_ARC_4496":" ","Survey_Needed":" "}},{"type":"Feature","id":137,"geometry":{"type":"Point","coordinates":[-82.624518015948183,28.390552995891856]},"properties":{"OBJECTID":137,"Name":"Fasano Shelter","Address":"11611 Denton Ave","City":"Hudson","Zip":"34667","COUNTY":"PASCO","X":-82.624518019999996,"Y":28.390553000000001,"LONGLAT":"-82.62451802, 28.39055300","USNG":"17R LM 40841 41540","FACILITY_TYPE":"SHELTER","SHELTER_TYPE":"RISK","RPC_Region":"7","Year_Built":"2009","Building":"Main","AS_IS_A_Retrofit_R":"A","Generator_Type":"1000 kW","PreMitigation_Capacity_Spaces":0,"PreMitigation_Square_Footage":0,"EHPA_Capacity_Gained_Spaces":329,"EHPA_Square_Footage_Gained":19750,"Retrofit_Capacity_Gained_Spaces":0,"Retrofit_Square_Footage_Gained":0,"Risk_Capacity_Spaces":329,"Risk_Square_Footage":19750,"Planned_Usage_Spaces":280,"FundingSource_F_Federal_State_S":"S/F","Evacuation_Zone":"No","SURGE_ZONE":"No","FLOOD_ZONE":"No","EHPA":"Yes","General_Pop":" ","SPECIAL_NEEDS":"Yes","Pet_Friendly":" ","Does_not_meet_ARC_4496":" ","Survey_Needed":" "}},{"type":"Feature","id":138,"geometry":{"type":"Point","coordinates":[-82.326745038231195,28.189513006471053]},"properties":{"OBJECTID":138,"Name":"Wiregrass Ranch Sr HS","Address":"2909 Mansfield Blvd","City":"Wesley Chapel","Zip":"33543","COUNTY":"PASCO","X":-82.326745040000006,"Y":28.189513009999999,"LONGLAT":"-82.32674504, 28.18951301","USNG":"17R LM 69773 18908","FACILITY_TYPE":"SHELTER","SHELTER_TYPE":"RISK","RPC_Region":"7","Year_Built":"2006","Building":"4 Classroom / Art","AS_IS_A_Retrofit_R":"A","Generator_Type":"2500 kW","PreMitigation_Capacity_Spaces":0,"PreMitigation_Square_Footage":0,"EHPA_Capacity_Gained_Spaces":395,"EHPA_Square_Footage_Gained":23715,"Retrofit_Capacity_Gained_Spaces":0,"Retrofit_Square_Footage_Gained":0,"Risk_Capacity_Spaces":395,"Risk_Square_Footage":23715,"Planned_Usage_Spaces":367,"FundingSource_F_Federal_State_S":"L","Evacuation_Zone":"No","SURGE_ZONE":"No","FLOOD_ZONE":"No","EHPA":"Yes","General_Pop":" ","SPECIAL_NEEDS":"Yes","Pet_Friendly":" ","Does_not_meet_ARC_4496":" ","Survey_Needed":" "}},{"type":"Feature","id":139,"geometry":{"type":"Point","coordinates":[-82.747541974650758,27.946918012983627]},"properties":{"OBJECTID":139,"Name":"Oak Grove MS","Address":"1370 S Belcher Rd","City":"Clearwater","Zip":"33764","COUNTY":"PINELLAS","X":-82.74754197,"Y":27.946918010000001,"LONGLAT":"-82.74754197, 27.94691801","USNG":"17R LL 28078 92551","FACILITY_TYPE":"SHELTER","SHELTER_TYPE":"RISK","RPC_Region":"7","Year_Built":"2004","Building":"1 Admin / Multipurpose","AS_IS_A_Retrofit_R":"A","Generator_Type":" ","PreMitigation_Capacity_Spaces":0,"PreMitigation_Square_Footage":0,"EHPA_Capacity_Gained_Spaces":0,"EHPA_Square_Footage_Gained":0,"Retrofit_Capacity_Gained_Spaces":0,"Retrofit_Square_Footage_Gained":0,"Risk_Capacity_Spaces":100,"Risk_Square_Footage":6021,"Planned_Usage_Spaces":0,"FundingSource_F_Federal_State_S":" ","Evacuation_Zone":"D","SURGE_ZONE":"5","FLOOD_ZONE":"No","EHPA":"No","General_Pop":" ","SPECIAL_NEEDS":"Yes","Pet_Friendly":" ","Does_not_meet_ARC_4496":" ","Survey_Needed":" "}},{"type":"Feature","id":140,"geometry":{"type":"Point","coordinates":[-82.775948998915112,27.999705018046878]},"properties":{"OBJECTID":140,"Name":"Dunedin Highland MS","Address":"70 Patricia Ave","City":"Dunedin","Zip":"34698","COUNTY":"PINELLAS","X":-82.775948999999997,"Y":27.99970502,"LONGLAT":"-82.77594900, 27.99970502","USNG":"17R LL 25367 98440","FACILITY_TYPE":"SHELTER","SHELTER_TYPE":"RISK","RPC_Region":"7","Year_Built":"2002","Building":"2 Classroom","AS_IS_A_Retrofit_R":"A","Generator_Type":" ","PreMitigation_Capacity_Spaces":0,"PreMitigation_Square_Footage":0,"EHPA_Capacity_Gained_Spaces":380,"EHPA_Square_Footage_Gained":22777,"Retrofit_Capacity_Gained_Spaces":0,"Retrofit_Square_Footage_Gained":0,"Risk_Capacity_Spaces":380,"Risk_Square_Footage":22777,"Planned_Usage_Spaces":294,"FundingSource_F_Federal_State_S":" ","Evacuation_Zone":"D","SURGE_ZONE":"5","FLOOD_ZONE":"No","EHPA":"Yes","General_Pop":" ","SPECIAL_NEEDS":"Yes","Pet_Friendly":" ","Does_not_meet_ARC_4496":" ","Survey_Needed":" "}},{"type":"Feature","id":141,"geometry":{"type":"Point","coordinates":[-82.656637971858729,27.763249979193642]},"properties":{"OBJECTID":141,"Name":"John Hopkins MS","Address":"701 16th St S","City":"St. Petersburg","Zip":"33705","COUNTY":"PINELLAS","X":-82.656637970000006,"Y":27.763249980000001,"LONGLAT":"-82.65663797, 27.76324998","USNG":"17R LL 36747 72076","FACILITY_TYPE":"SHELTER","SHELTER_TYPE":"RISK","RPC_Region":"7","Year_Built":"1997","Building":"5 Classroom","AS_IS_A_Retrofit_R":"R","Generator_Type":" ","PreMitigation_Capacity_Spaces":0,"PreMitigation_Square_Footage":0,"EHPA_Capacity_Gained_Spaces":0,"EHPA_Square_Footage_Gained":0,"Retrofit_Capacity_Gained_Spaces":0,"Retrofit_Square_Footage_Gained":0,"Risk_Capacity_Spaces":256,"Risk_Square_Footage":15389,"Planned_Usage_Spaces":472,"FundingSource_F_Federal_State_S":"L","Evacuation_Zone":"No","SURGE_ZONE":"No","FLOOD_ZONE":"No","EHPA":"No","General_Pop":" ","SPECIAL_NEEDS":"Yes","Pet_Friendly":" ","Does_not_meet_ARC_4496":" ","Survey_Needed":" "}},{"type":"Feature","id":142,"geometry":{"type":"Point","coordinates":[-82.747541974650758,27.946918012983627]},"properties":{"OBJECTID":142,"Name":"Oak Grove MS","Address":"1370 S Belcher Rd","City":"Clearwater","Zip":"33764","COUNTY":"PINELLAS","X":-82.74754197,"Y":27.946918010000001,"LONGLAT":"-82.74754197, 27.94691801","USNG":"17R LL 28078 92551","FACILITY_TYPE":"SHELTER","SHELTER_TYPE":"RISK","RPC_Region":"7","Year_Built":"2004","Building":"6 Classroom","AS_IS_A_Retrofit_R":"A","Generator_Type":" ","PreMitigation_Capacity_Spaces":0,"PreMitigation_Square_Footage":0,"EHPA_Capacity_Gained_Spaces":0,"EHPA_Square_Footage_Gained":0,"Retrofit_Capacity_Gained_Spaces":0,"Retrofit_Square_Footage_Gained":0,"Risk_Capacity_Spaces":310,"Risk_Square_Footage":18583,"Planned_Usage_Spaces":0,"FundingSource_F_Federal_State_S":" ","Evacuation_Zone":"D","SURGE_ZONE":"5","FLOOD_ZONE":"No","EHPA":"No","General_Pop":" ","SPECIAL_NEEDS":"Yes","Pet_Friendly":" ","Does_not_meet_ARC_4496":" ","Survey_Needed":" "}},{"type":"Feature","id":143,"geometry":{"type":"Point","coordinates":[-82.656637971858729,27.763249979193642]},"properties":{"OBJECTID":143,"Name":"John Hopkins MS","Address":"701 16th St S","City":"St. Petersburg","Zip":"33705","COUNTY":"PINELLAS","X":-82.656637970000006,"Y":27.763249980000001,"LONGLAT":"-82.65663797, 27.76324998","USNG":"17R LL 36747 72076","FACILITY_TYPE":"SHELTER","SHELTER_TYPE":"RISK","RPC_Region":"7","Year_Built":"1997","Building":"6 Classroom","AS_IS_A_Retrofit_R":"R","Generator_Type":" ","PreMitigation_Capacity_Spaces":0,"PreMitigation_Square_Footage":0,"EHPA_Capacity_Gained_Spaces":0,"EHPA_Square_Footage_Gained":0,"Retrofit_Capacity_Gained_Spaces":288,"Retrofit_Square_Footage_Gained":17261,"Risk_Capacity_Spaces":288,"Risk_Square_Footage":17261,"Planned_Usage_Spaces":541,"FundingSource_F_Federal_State_S":"L","Evacuation_Zone":"No","SURGE_ZONE":"No","FLOOD_ZONE":"No","EHPA":"No","General_Pop":" ","SPECIAL_NEEDS":"Yes","Pet_Friendly":" ","Does_not_meet_ARC_4496":" ","Survey_Needed":" "}},{"type":"Feature","id":144,"geometry":{"type":"Point","coordinates":[-82.775948998915112,27.999705018046878]},"properties":{"OBJECTID":144,"Name":"Dunedin Highland MS","Address":"70 Patricia Ave","City":"Dunedin","Zip":"34698","COUNTY":"PINELLAS","X":-82.775948999999997,"Y":27.99970502,"LONGLAT":"-82.77594900, 27.99970502","USNG":"17R LL 25367 98440","FACILITY_TYPE":"SHELTER","SHELTER_TYPE":"RISK","RPC_Region":"7","Year_Built":"2002","Building":"3 Classroom","AS_IS_A_Retrofit_R":"A","Generator_Type":" ","PreMitigation_Capacity_Spaces":0,"PreMitigation_Square_Footage":0,"EHPA_Capacity_Gained_Spaces":411,"EHPA_Square_Footage_Gained":24648,"Retrofit_Capacity_Gained_Spaces":0,"Retrofit_Square_Footage_Gained":0,"Risk_Capacity_Spaces":411,"Risk_Square_Footage":24648,"Planned_Usage_Spaces":734,"FundingSource_F_Federal_State_S":" ","Evacuation_Zone":"D","SURGE_ZONE":"5","FLOOD_ZONE":"No","EHPA":"Yes","General_Pop":" ","SPECIAL_NEEDS":"Yes","Pet_Friendly":" ","Does_not_meet_ARC_4496":" ","Survey_Needed":" "}},{"type":"Feature","id":145,"geometry":{"type":"Point","coordinates":[-81.820749994709018,27.883460007169734]},"properties":{"OBJECTID":145,"Name":"Polk County Health Dept - Specialty Care Unit","Address":"1255 Brice Blvd","City":"Bartow","Zip":"33830","COUNTY":"POLK","X":-81.820749989999996,"Y":27.88346001,"LONGLAT":"-81.82074999, 27.88346001","USNG":"17R ML 19213 84563","FACILITY_TYPE":"SHELTER","SHELTER_TYPE":"RISK","RPC_Region":"6","Year_Built":"0","Building":" ","AS_IS_A_Retrofit_R":"R","Generator_Type":" ","PreMitigation_Capacity_Spaces":0,"PreMitigation_Square_Footage":0,"EHPA_Capacity_Gained_Spaces":0,"EHPA_Square_Footage_Gained":0,"Retrofit_Capacity_Gained_Spaces":410,"Retrofit_Square_Footage_Gained":24575,"Risk_Capacity_Spaces":410,"Risk_Square_Footage":24575,"Planned_Usage_Spaces":0,"FundingSource_F_Federal_State_S":" ","Evacuation_Zone":"No","SURGE_ZONE":"No","FLOOD_ZONE":"No","EHPA":"No","General_Pop":" ","SPECIAL_NEEDS":"Yes","Pet_Friendly":" ","Does_not_meet_ARC_4496":" ","Survey_Needed":" "}},{"type":"Feature","id":146,"geometry":{"type":"Point","coordinates":[-81.98422300668129,28.04988298789133]},"properties":{"OBJECTID":146,"Name":"McKeel Academy of Technology","Address":"1810 W Parker St","City":"Lakeland","Zip":"33815","COUNTY":"POLK","X":-81.984223009999994,"Y":28.04988299,"LONGLAT":"-81.98422301, 28.04988299","USNG":"17R MM 03270 03118","FACILITY_TYPE":"SHELTER","SHELTER_TYPE":"RISK","RPC_Region":"6","Year_Built":"2004","Building":"14 Gym","AS_IS_A_Retrofit_R":"A","Generator_Type":" ","PreMitigation_Capacity_Spaces":0,"PreMitigation_Square_Footage":0,"EHPA_Capacity_Gained_Spaces":199,"EHPA_Square_Footage_Gained":11952,"Retrofit_Capacity_Gained_Spaces":0,"Retrofit_Square_Footage_Gained":0,"Risk_Capacity_Spaces":199,"Risk_Square_Footage":11952,"Planned_Usage_Spaces":727,"FundingSource_F_Federal_State_S":"L","Evacuation_Zone":"No","SURGE_ZONE":"No","FLOOD_ZONE":"No","EHPA":"Yes","General_Pop":" ","SPECIAL_NEEDS":"Yes","Pet_Friendly":" ","Does_not_meet_ARC_4496":" ","Survey_Needed":" "}},{"type":"Feature","id":147,"geometry":{"type":"Point","coordinates":[-81.625704981762993,28.084572043152946]},"properties":{"OBJECTID":147,"Name":"Haines City Adult Day Care Center","Address":"751 Scenic Hwy","City":"Haines City","Zip":"33844","COUNTY":"POLK","X":-81.625704979999995,"Y":28.084572040000001,"LONGLAT":"-81.62570498, 28.08457204","USNG":"17R MM 38526 06728","FACILITY_TYPE":"SHELTER","SHELTER_TYPE":"RISK","RPC_Region":"6","Year_Built":"1995","Building":"Center","AS_IS_A_Retrofit_R":"A","Generator_Type":" ","PreMitigation_Capacity_Spaces":0,"PreMitigation_Square_Footage":0,"EHPA_Capacity_Gained_Spaces":0,"EHPA_Square_Footage_Gained":0,"Retrofit_Capacity_Gained_Spaces":0,"Retrofit_Square_Footage_Gained":0,"Risk_Capacity_Spaces":60,"Risk_Square_Footage":3618,"Planned_Usage_Spaces":0,"FundingSource_F_Federal_State_S":" ","Evacuation_Zone":"No","SURGE_ZONE":"No","FLOOD_ZONE":"No","EHPA":"No","General_Pop":" ","SPECIAL_NEEDS":"Yes","Pet_Friendly":" ","Does_not_meet_ARC_4496":" ","Survey_Needed":" "}},{"type":"Feature","id":148,"geometry":{"type":"Point","coordinates":[-81.631572317850726,28.150306990209589]},"properties":{"OBJECTID":148,"Name":"Ridge Community HS","Address":"500 Orchid Dr","City":"Davenport","Zip":"33837","COUNTY":"POLK","X":-81.631572320000004,"Y":28.150306990000001,"LONGLAT":"-81.63157232, 28.15030699","USNG":"17R MM 37987 14014","FACILITY_TYPE":"SHELTER","SHELTER_TYPE":"RISK","RPC_Region":"6","Year_Built":"2004","Building":"6 Gym","AS_IS_A_Retrofit_R":"A","Generator_Type":" ","PreMitigation_Capacity_Spaces":0,"PreMitigation_Square_Footage":0,"EHPA_Capacity_Gained_Spaces":275,"EHPA_Square_Footage_Gained":16475,"Retrofit_Capacity_Gained_Spaces":0,"Retrofit_Square_Footage_Gained":0,"Risk_Capacity_Spaces":270,"Risk_Square_Footage":16175,"Planned_Usage_Spaces":1235,"FundingSource_F_Federal_State_S":"L","Evacuation_Zone":"No","SURGE_ZONE":"No","FLOOD_ZONE":"No","EHPA":"Yes","General_Pop":" ","SPECIAL_NEEDS":"Yes","Pet_Friendly":" ","Does_not_meet_ARC_4496":" ","Survey_Needed":" "}},{"type":"Feature","id":149,"geometry":{"type":"Point","coordinates":[-81.707140003119704,29.633090011077268]},"properties":{"OBJECTID":149,"Name":"Kelley Smith ES","Address":"141 Kelly Smith School Rd","City":"Palatka","Zip":"32177","COUNTY":"PUTNAM","X":-81.707139999999995,"Y":29.63309001,"LONGLAT":"-81.70714000, 29.63309001","USNG":"17R MN 31547 78338","FACILITY_TYPE":"SHELTER","SHELTER_TYPE":"RISK","RPC_Region":"4","Year_Built":"2006","Building":"12 Classroom","AS_IS_A_Retrofit_R":"A","Generator_Type":"400 kW","PreMitigation_Capacity_Spaces":0,"PreMitigation_Square_Footage":0,"EHPA_Capacity_Gained_Spaces":80,"EHPA_Square_Footage_Gained":4809,"Retrofit_Capacity_Gained_Spaces":0,"Retrofit_Square_Footage_Gained":0,"Risk_Capacity_Spaces":80,"Risk_Square_Footage":4809,"Planned_Usage_Spaces":144,"FundingSource_F_Federal_State_S":" ","Evacuation_Zone":"No","SURGE_ZONE":"No","FLOOD_ZONE":"No","EHPA":"Yes","General_Pop":" ","SPECIAL_NEEDS":"Yes","Pet_Friendly":" ","Does_not_meet_ARC_4496":" ","Survey_Needed":"Yes"}},{"type":"Feature","id":150,"geometry":{"type":"Point","coordinates":[-81.658369983116046,29.645020015475627]},"properties":{"OBJECTID":150,"Name":"PCHD","Address":"2801 Kennedy St","City":"Palatka","Zip":"32177","COUNTY":"PUTNAM","X":-81.658369980000003,"Y":29.64502002,"LONGLAT":"-81.65836998, 29.64502002","USNG":"17R MN 36276 79632","FACILITY_TYPE":"SHELTER","SHELTER_TYPE":"RISK","RPC_Region":"4","Year_Built":"0","Building":"South Annex","AS_IS_A_Retrofit_R":"R","Generator_Type":" ","PreMitigation_Capacity_Spaces":0,"PreMitigation_Square_Footage":0,"EHPA_Capacity_Gained_Spaces":0,"EHPA_Square_Footage_Gained":0,"Retrofit_Capacity_Gained_Spaces":0,"Retrofit_Square_Footage_Gained":0,"Risk_Capacity_Spaces":31,"Risk_Square_Footage":1860,"Planned_Usage_Spaces":0,"FundingSource_F_Federal_State_S":" ","Evacuation_Zone":" ","SURGE_ZONE":" ","FLOOD_ZONE":" ","EHPA":"No","General_Pop":" ","SPECIAL_NEEDS":"Yes","Pet_Friendly":" ","Does_not_meet_ARC_4496":" ","Survey_Needed":" "}},{"type":"Feature","id":151,"geometry":{"type":"Point","coordinates":[-81.502504973050378,29.945140010379717]},"properties":{"OBJECTID":151,"Name":"Pacetti Bay MS","Address":"245 Meadowlark Ln","City":"St. Augustine","Zip":"32092","COUNTY":"ST. JOHNS","X":-81.502504970000004,"Y":29.945140009999999,"LONGLAT":"-81.50250497, 29.94514001","USNG":"17R MP 51507 12812","FACILITY_TYPE":"SHELTER","SHELTER_TYPE":"RISK","RPC_Region":"4","Year_Built":"2006","Building":"100 Admin","AS_IS_A_Retrofit_R":"R","Generator_Type":" ","PreMitigation_Capacity_Spaces":0,"PreMitigation_Square_Footage":0,"EHPA_Capacity_Gained_Spaces":0,"EHPA_Square_Footage_Gained":0,"Retrofit_Capacity_Gained_Spaces":52,"Retrofit_Square_Footage_Gained":3120,"Risk_Capacity_Spaces":52,"Risk_Square_Footage":3120,"Planned_Usage_Spaces":0,"FundingSource_F_Federal_State_S":" ","Evacuation_Zone":"No","SURGE_ZONE":"No","FLOOD_ZONE":"No","EHPA":"No","General_Pop":" ","SPECIAL_NEEDS":"Yes","Pet_Friendly":" ","Does_not_meet_ARC_4496":" ","Survey_Needed":" "}},{"type":"Feature","id":152,"geometry":{"type":"Point","coordinates":[-81.502504973050378,29.945140010379717]},"properties":{"OBJECTID":152,"Name":"Pacetti Bay MS","Address":"245 Meadowlark Ln","City":"St. Augustine","Zip":"32092","COUNTY":"ST. JOHNS","X":-81.502504970000004,"Y":29.945140009999999,"LONGLAT":"-81.50250497, 29.94514001","USNG":"17R MP 51507 12812","FACILITY_TYPE":"SHELTER","SHELTER_TYPE":"RISK","RPC_Region":"4","Year_Built":"2006","Building":"500B Cafeteria","AS_IS_A_Retrofit_R":"R","Generator_Type":"Yes, unknown kW","PreMitigation_Capacity_Spaces":0,"PreMitigation_Square_Footage":0,"EHPA_Capacity_Gained_Spaces":81,"EHPA_Square_Footage_Gained":4860,"Retrofit_Capacity_Gained_Spaces":81,"Retrofit_Square_Footage_Gained":4860,"Risk_Capacity_Spaces":81,"Risk_Square_Footage":4860,"Planned_Usage_Spaces":300,"FundingSource_F_Federal_State_S":" ","Evacuation_Zone":"No","SURGE_ZONE":"No","FLOOD_ZONE":"No","EHPA":"Yes","General_Pop":" ","SPECIAL_NEEDS":"Yes","Pet_Friendly":" ","Does_not_meet_ARC_4496":" ","Survey_Needed":" "}},{"type":"Feature","id":153,"geometry":{"type":"Point","coordinates":[-80.340675040955645,27.275145982933957]},"properties":{"OBJECTID":153,"Name":"Port St Lucie Community Center","Address":"2195 SE Airoso Blvd","City":"Port St Lucie","Zip":"34984","COUNTY":"ST. LUCIE","X":-80.340675039999994,"Y":27.275145980000001,"LONGLAT":"-80.34067504, 27.27514598","USNG":"17R NL 65255 17082","FACILITY_TYPE":"SHELTER","SHELTER_TYPE":"RISK","RPC_Region":"9","Year_Built":"2005","Building":"2 2005 Addition","AS_IS_A_Retrofit_R":"A","Generator_Type":"Yes, unknown kW","PreMitigation_Capacity_Spaces":0,"PreMitigation_Square_Footage":0,"EHPA_Capacity_Gained_Spaces":0,"EHPA_Square_Footage_Gained":0,"Retrofit_Capacity_Gained_Spaces":0,"Retrofit_Square_Footage_Gained":0,"Risk_Capacity_Spaces":75,"Risk_Square_Footage":4486,"Planned_Usage_Spaces":0,"FundingSource_F_Federal_State_S":" ","Evacuation_Zone":"No","SURGE_ZONE":"No","FLOOD_ZONE":"No","EHPA":"No","General_Pop":" ","SPECIAL_NEEDS":"Yes","Pet_Friendly":" ","Does_not_meet_ARC_4496":" ","Survey_Needed":" "}},{"type":"Feature","id":154,"geometry":{"type":"Point","coordinates":[-80.344629957641175,27.426411004496622]},"properties":{"OBJECTID":154,"Name":"Havert L Fenn Community Center","Address":"2000 Virginia Ave","City":"Ft Pierce","Zip":"34982","COUNTY":"ST. LUCIE","X":-80.344629960000006,"Y":27.426411009999999,"LONGLAT":"-80.34462996, 27.42641101","USNG":"17R NL 64776 33836","FACILITY_TYPE":"SHELTER","SHELTER_TYPE":"RISK","RPC_Region":"9","Year_Built":"2008","Building":"Main","AS_IS_A_Retrofit_R":"A","Generator_Type":" ","PreMitigation_Capacity_Spaces":0,"PreMitigation_Square_Footage":0,"EHPA_Capacity_Gained_Spaces":0,"EHPA_Square_Footage_Gained":0,"Retrofit_Capacity_Gained_Spaces":0,"Retrofit_Square_Footage_Gained":0,"Risk_Capacity_Spaces":535,"Risk_Square_Footage":32094,"Planned_Usage_Spaces":334,"FundingSource_F_Federal_State_S":" ","Evacuation_Zone":"No","SURGE_ZONE":"No","FLOOD_ZONE":"No","EHPA":"No","General_Pop":" ","SPECIAL_NEEDS":"Yes","Pet_Friendly":" ","Does_not_meet_ARC_4496":" ","Survey_Needed":"Yes"}},{"type":"Feature","id":155,"geometry":{"type":"Point","coordinates":[-80.340675040955645,27.275145982933957]},"properties":{"OBJECTID":155,"Name":"Port St Lucie Community Center","Address":"2195 SE Airoso Blvd","City":"Port St Lucie","Zip":"34984","COUNTY":"ST. LUCIE","X":-80.340675039999994,"Y":27.275145980000001,"LONGLAT":"-80.34067504, 27.27514598","USNG":"17R NL 65255 17082","FACILITY_TYPE":"SHELTER","SHELTER_TYPE":"RISK","RPC_Region":"9","Year_Built":"1998","Building":"1 Main","AS_IS_A_Retrofit_R":"A","Generator_Type":"Yes, unknown kW","PreMitigation_Capacity_Spaces":0,"PreMitigation_Square_Footage":0,"EHPA_Capacity_Gained_Spaces":0,"EHPA_Square_Footage_Gained":0,"Retrofit_Capacity_Gained_Spaces":0,"Retrofit_Square_Footage_Gained":0,"Risk_Capacity_Spaces":215,"Risk_Square_Footage":12900,"Planned_Usage_Spaces":166,"FundingSource_F_Federal_State_S":" ","Evacuation_Zone":"No","SURGE_ZONE":"No","FLOOD_ZONE":"No","EHPA":"No","General_Pop":" ","SPECIAL_NEEDS":"Yes","Pet_Friendly":" ","Does_not_meet_ARC_4496":" ","Survey_Needed":" "}},{"type":"Feature","id":156,"geometry":{"type":"Point","coordinates":[-87.095518549697559,30.573014867298664]},"properties":{"OBJECTID":156,"Name":"Bennet C. Russel ES","Address":"3740 Excalibur Way","City":"Milton","Zip":"32583","COUNTY":"SANTA ROSA","X":-87.095518549999994,"Y":30.573014870000002,"LONGLAT":"-87.09551855, 30.57301487","USNG":"16R DU 90840 82286","FACILITY_TYPE":"SHELTER","SHELTER_TYPE":"RISK","RPC_Region":"1","Year_Built":"2006","Building":"1 A/C Corridors / Cafeteria","AS_IS_A_Retrofit_R":"A","Generator_Type":"HW 600KW; GenSet","PreMitigation_Capacity_Spaces":0,"PreMitigation_Square_Footage":0,"EHPA_Capacity_Gained_Spaces":237,"EHPA_Square_Footage_Gained":14196,"Retrofit_Capacity_Gained_Spaces":0,"Retrofit_Square_Footage_Gained":0,"Risk_Capacity_Spaces":237,"Risk_Square_Footage":14196,"Planned_Usage_Spaces":0,"FundingSource_F_Federal_State_S":" ","Evacuation_Zone":"No","SURGE_ZONE":"No","FLOOD_ZONE":"No","EHPA":"No","General_Pop":" ","SPECIAL_NEEDS":"Yes","Pet_Friendly":" ","Does_not_meet_ARC_4496":" ","Survey_Needed":"Yes"}},{"type":"Feature","id":157,"geometry":{"type":"Point","coordinates":[-87.048563037705321,30.63950001188849]},"properties":{"OBJECTID":157,"Name":"Milton Community Center","Address":"5629 Byrom St","City":"Milton","Zip":"32570","COUNTY":"SANTA ROSA","X":-87.048563040000005,"Y":30.639500009999999,"LONGLAT":"-87.04856304, 30.63950001","USNG":"16R DU 95346 89651","FACILITY_TYPE":"SHELTER","SHELTER_TYPE":"RISK","RPC_Region":"1","Year_Built":"2002","Building":"Main","AS_IS_A_Retrofit_R":"R","Generator_Type":"280 kW","PreMitigation_Capacity_Spaces":0,"PreMitigation_Square_Footage":0,"EHPA_Capacity_Gained_Spaces":0,"EHPA_Square_Footage_Gained":0,"Retrofit_Capacity_Gained_Spaces":128,"Retrofit_Square_Footage_Gained":7667,"Risk_Capacity_Spaces":128,"Risk_Square_Footage":7667,"Planned_Usage_Spaces":24,"FundingSource_F_Federal_State_S":" ","Evacuation_Zone":"No","SURGE_ZONE":"No","FLOOD_ZONE":"No","EHPA":"No","General_Pop":" ","SPECIAL_NEEDS":"Yes","Pet_Friendly":" ","Does_not_meet_ARC_4496":"Yes","Survey_Needed":" "}},{"type":"Feature","id":158,"geometry":{"type":"Point","coordinates":[-87.167639959011453,30.635510980089933]},"properties":{"OBJECTID":158,"Name":"Thomas L. Sims MS","Address":"5500 Education Dr","City":"Pace","Zip":"32571","COUNTY":"SANTA ROSA","X":-87.167639960000002,"Y":30.635510979999999,"LONGLAT":"-87.16763996, 30.63551098","USNG":"16R DU 83935 89220","FACILITY_TYPE":"SHELTER","SHELTER_TYPE":"RISK","RPC_Region":"1","Year_Built":"1997","Building":"1","AS_IS_A_Retrofit_R":"R","Generator_Type":"600kW plus 80 kW","PreMitigation_Capacity_Spaces":0,"PreMitigation_Square_Footage":0,"EHPA_Capacity_Gained_Spaces":0,"EHPA_Square_Footage_Gained":0,"Retrofit_Capacity_Gained_Spaces":704,"Retrofit_Square_Footage_Gained":42262,"Risk_Capacity_Spaces":704,"Risk_Square_Footage":42262,"Planned_Usage_Spaces":351,"FundingSource_F_Federal_State_S":"HMGP","Evacuation_Zone":"No","SURGE_ZONE":"No","FLOOD_ZONE":"No","EHPA":"No","General_Pop":" ","SPECIAL_NEEDS":"Yes","Pet_Friendly":" ","Does_not_meet_ARC_4496":" ","Survey_Needed":" "}},{"type":"Feature","id":159,"geometry":{"type":"Point","coordinates":[-82.418445992327406,27.32533300525505]},"properties":{"OBJECTID":159,"Name":"Tatum Ridge ES","Address":"4100 Tatum Rd","City":"Sarasota","Zip":"34240","COUNTY":"SARASOTA","X":-82.418445989999995,"Y":27.325333010000001,"LONGLAT":"-82.41844599, 27.32533301","USNG":"17R LL 59667 23267","FACILITY_TYPE":"SHELTER","SHELTER_TYPE":"RISK","RPC_Region":"8","Year_Built":"2004","Building":"1 Main","AS_IS_A_Retrofit_R":"A","Generator_Type":" ","PreMitigation_Capacity_Spaces":0,"PreMitigation_Square_Footage":0,"EHPA_Capacity_Gained_Spaces":0,"EHPA_Square_Footage_Gained":0,"Retrofit_Capacity_Gained_Spaces":0,"Retrofit_Square_Footage_Gained":0,"Risk_Capacity_Spaces":799,"Risk_Square_Footage":47920,"Planned_Usage_Spaces":1600,"FundingSource_F_Federal_State_S":" ","Evacuation_Zone":"No","SURGE_ZONE":"No","FLOOD_ZONE":"No","EHPA":"No","General_Pop":" ","SPECIAL_NEEDS":"Yes","Pet_Friendly":" ","Does_not_meet_ARC_4496":" ","Survey_Needed":" "}},{"type":"Feature","id":160,"geometry":{"type":"Point","coordinates":[-81.330955997754856,28.794776018384351]},"properties":{"OBJECTID":160,"Name":"Bentley ES","Address":"2190 Oregon Ave","City":"Sanford","Zip":"32771","COUNTY":"SEMINOLE","X":-81.330956,"Y":28.79477602,"LONGLAT":"-81.33095600, 28.79477602","USNG":"17R MM 67701 85293","FACILITY_TYPE":"SHELTER","SHELTER_TYPE":"RISK","RPC_Region":"5","Year_Built":"2001","Building":"1 Main 1st Floor","AS_IS_A_Retrofit_R":"R","Generator_Type":"500 kW capacity","PreMitigation_Capacity_Spaces":0,"PreMitigation_Square_Footage":0,"EHPA_Capacity_Gained_Spaces":0,"EHPA_Square_Footage_Gained":0,"Retrofit_Capacity_Gained_Spaces":371,"Retrofit_Square_Footage_Gained":22270,"Risk_Capacity_Spaces":371,"Risk_Square_Footage":22270,"Planned_Usage_Spaces":100,"FundingSource_F_Federal_State_S":"S-1435A-2003","Evacuation_Zone":"No","SURGE_ZONE":"No","FLOOD_ZONE":"No","EHPA":"No","General_Pop":" ","SPECIAL_NEEDS":"Yes","Pet_Friendly":"Yes","Does_not_meet_ARC_4496":" ","Survey_Needed":" "}},{"type":"Feature","id":161,"geometry":{"type":"Point","coordinates":[-81.317674033753747,28.716534011142976]},"properties":{"OBJECTID":161,"Name":"Highlands ES","Address":"1600 Shepard Rd","City":"Winter Springs","Zip":"32708","COUNTY":"SEMINOLE","X":-81.317674030000006,"Y":28.71653401,"LONGLAT":"-81.31767403, 28.71653401","USNG":"17R MM 68974 76622","FACILITY_TYPE":"SHELTER","SHELTER_TYPE":"RISK","RPC_Region":"5","Year_Built":"1995","Building":"1 Main 1st Floor","AS_IS_A_Retrofit_R":"R","Generator_Type":"1000 kW for campus","PreMitigation_Capacity_Spaces":0,"PreMitigation_Square_Footage":0,"EHPA_Capacity_Gained_Spaces":0,"EHPA_Square_Footage_Gained":0,"Retrofit_Capacity_Gained_Spaces":373,"Retrofit_Square_Footage_Gained":22355,"Risk_Capacity_Spaces":373,"Risk_Square_Footage":22355,"Planned_Usage_Spaces":100,"FundingSource_F_Federal_State_S":"S-1118A","Evacuation_Zone":"No","SURGE_ZONE":"No","FLOOD_ZONE":"No","EHPA":"No","General_Pop":" ","SPECIAL_NEEDS":"Yes","Pet_Friendly":" ","Does_not_meet_ARC_4496":" ","Survey_Needed":" "}},{"type":"Feature","id":162,"geometry":{"type":"Point","coordinates":[-81.309514317177985,28.726947302086153]},"properties":{"OBJECTID":162,"Name":"Layer ES","Address":"SR 419","City":"Winter Springs","Zip":"32708","COUNTY":"SEMINOLE","X":-81.309514320000005,"Y":28.726947299999999,"LONGLAT":"-81.30951432, 28.72694730","USNG":"17R MM 69774 77773","FACILITY_TYPE":"SHELTER","SHELTER_TYPE":"RISK","RPC_Region":"5","Year_Built":"2003","Building":"1 Main / Cafeteria 1st Floor","AS_IS_A_Retrofit_R":"R","Generator_Type":"500 kW capacity","PreMitigation_Capacity_Spaces":0,"PreMitigation_Square_Footage":0,"EHPA_Capacity_Gained_Spaces":0,"EHPA_Square_Footage_Gained":0,"Retrofit_Capacity_Gained_Spaces":84,"Retrofit_Square_Footage_Gained":5020,"Risk_Capacity_Spaces":84,"Risk_Square_Footage":5020,"Planned_Usage_Spaces":100,"FundingSource_F_Federal_State_S":" ","Evacuation_Zone":"No","SURGE_ZONE":"No","FLOOD_ZONE":"No","EHPA":"No","General_Pop":" ","SPECIAL_NEEDS":"Yes","Pet_Friendly":" ","Does_not_meet_ARC_4496":" ","Survey_Needed":" "}},{"type":"Feature","id":163,"geometry":{"type":"Point","coordinates":[-82.995320000961499,30.283489990174409]},"properties":{"OBJECTID":163,"Name":"Suwannee Intermediate School","Address":"1419 Walker Ave SW","City":"Live Oak","Zip":"32064","COUNTY":"SUWANNEE","X":-82.995320000000007,"Y":30.28348999,"LONGLAT":"-82.99532000, 30.28348999","USNG":"17R LP 08086 51884","FACILITY_TYPE":"SHELTER","SHELTER_TYPE":"RISK","RPC_Region":"3","Year_Built":"2001","Building":"Cafeteria (2001 Add.)","AS_IS_A_Retrofit_R":"R","Generator_Type":"Yes, unknown kW","PreMitigation_Capacity_Spaces":0,"PreMitigation_Square_Footage":0,"EHPA_Capacity_Gained_Spaces":0,"EHPA_Square_Footage_Gained":0,"Retrofit_Capacity_Gained_Spaces":47,"Retrofit_Square_Footage_Gained":2847,"Risk_Capacity_Spaces":47,"Risk_Square_Footage":2847,"Planned_Usage_Spaces":50,"FundingSource_F_Federal_State_S":" ","Evacuation_Zone":"No","SURGE_ZONE":"No","FLOOD_ZONE":"No","EHPA":"No","General_Pop":" ","SPECIAL_NEEDS":"Yes","Pet_Friendly":" ","Does_not_meet_ARC_4496":" ","Survey_Needed":"Yes"}},{"type":"Feature","id":164,"geometry":{"type":"Point","coordinates":[-82.339334592665395,30.017990972011496]},"properties":{"OBJECTID":164,"Name":"Lake Butler MS","Address":"150 SW 6th St","City":"Lake Butler","Zip":"32054","COUNTY":"UNION","X":-82.339334590000007,"Y":30.01799097,"LONGLAT":"-82.33933459, 30.01799097","USNG":"17R LP 70841 21534","FACILITY_TYPE":"SHELTER","SHELTER_TYPE":"RISK","RPC_Region":"3","Year_Built":"2008","Building":"10 Classroom","AS_IS_A_Retrofit_R":"A","Generator_Type":" ","PreMitigation_Capacity_Spaces":0,"PreMitigation_Square_Footage":0,"EHPA_Capacity_Gained_Spaces":0,"EHPA_Square_Footage_Gained":0,"Retrofit_Capacity_Gained_Spaces":77,"Retrofit_Square_Footage_Gained":4620,"Risk_Capacity_Spaces":77,"Risk_Square_Footage":4620,"Planned_Usage_Spaces":0,"FundingSource_F_Federal_State_S":"SR","Evacuation_Zone":"No","SURGE_ZONE":"No","FLOOD_ZONE":"No","EHPA":"No","General_Pop":" ","SPECIAL_NEEDS":"Yes","Pet_Friendly":" ","Does_not_meet_ARC_4496":" ","Survey_Needed":" "}},{"type":"Feature","id":165,"geometry":{"type":"Point","coordinates":[-82.338113328249761,30.014724958364273]},"properties":{"OBJECTID":165,"Name":"Union County HS","Address":"1000 S Lake Ave","City":"Lake Butler","Zip":"32054","COUNTY":"UNION","X":-82.338113329999999,"Y":30.014724959999999,"LONGLAT":"-82.33811333, 30.01472496","USNG":"17R LP 70955 21170","FACILITY_TYPE":"SHELTER","SHELTER_TYPE":"RISK","RPC_Region":"3","Year_Built":"1997","Building":"24 Gym","AS_IS_A_Retrofit_R":"A","Generator_Type":"Yes, unknown kW","PreMitigation_Capacity_Spaces":0,"PreMitigation_Square_Footage":0,"EHPA_Capacity_Gained_Spaces":0,"EHPA_Square_Footage_Gained":0,"Retrofit_Capacity_Gained_Spaces":54,"Retrofit_Square_Footage_Gained":3261,"Risk_Capacity_Spaces":54,"Risk_Square_Footage":3261,"Planned_Usage_Spaces":54,"FundingSource_F_Federal_State_S":" ","Evacuation_Zone":"No","SURGE_ZONE":"No","FLOOD_ZONE":"No","EHPA":"No","General_Pop":" ","SPECIAL_NEEDS":"Yes","Pet_Friendly":" ","Does_not_meet_ARC_4496":" ","Survey_Needed":" "}},{"type":"Feature","id":166,"geometry":{"type":"Point","coordinates":[-81.231126022299634,28.929923017442793]},"properties":{"OBJECTID":166,"Name":"Galaxy MS","Address":"2400 Eustace Ave","City":"Deltona","Zip":"32725","COUNTY":"VOLUSIA","X":-81.231126020000005,"Y":28.92992302,"LONGLAT":"-81.23112602, 28.92992302","USNG":"17R MN 77473 00243","FACILITY_TYPE":"SHELTER","SHELTER_TYPE":"RISK","RPC_Region":"5","Year_Built":"1989","Building":"2 Dining","AS_IS_A_Retrofit_R":"A","Generator_Type":"Yes, unknown kW","PreMitigation_Capacity_Spaces":0,"PreMitigation_Square_Footage":0,"EHPA_Capacity_Gained_Spaces":110,"EHPA_Square_Footage_Gained":6608,"Retrofit_Capacity_Gained_Spaces":0,"Retrofit_Square_Footage_Gained":0,"Risk_Capacity_Spaces":110,"Risk_Square_Footage":6608,"Planned_Usage_Spaces":166,"FundingSource_F_Federal_State_S":"S-1118A","Evacuation_Zone":"No","SURGE_ZONE":"No","FLOOD_ZONE":"No","EHPA":"Yes","General_Pop":" ","SPECIAL_NEEDS":"Yes","Pet_Friendly":" ","Does_not_meet_ARC_4496":" ","Survey_Needed":" "}},{"type":"Feature","id":167,"geometry":{"type":"Point","coordinates":[-81.041727029064177,29.066166997338037]},"properties":{"OBJECTID":167,"Name":"Creekside MS","Address":"6801 Airport Rd","City":"Port Orange","Zip":"32128","COUNTY":"VOLUSIA","X":-81.041727030000004,"Y":29.066167,"LONGLAT":"-81.04172703, 29.06616700","USNG":"17R MN 95938 15317","FACILITY_TYPE":"SHELTER","SHELTER_TYPE":"RISK","RPC_Region":"5","Year_Built":"1999","Building":"2 Dining","AS_IS_A_Retrofit_R":"A","Generator_Type":"Yes, unknown kW","PreMitigation_Capacity_Spaces":0,"PreMitigation_Square_Footage":0,"EHPA_Capacity_Gained_Spaces":0,"EHPA_Square_Footage_Gained":0,"Retrofit_Capacity_Gained_Spaces":0,"Retrofit_Square_Footage_Gained":0,"Risk_Capacity_Spaces":100,"Risk_Square_Footage":6008,"Planned_Usage_Spaces":185,"FundingSource_F_Federal_State_S":" ","Evacuation_Zone":"E","SURGE_ZONE":"No","FLOOD_ZONE":"No","EHPA":"No","General_Pop":" ","SPECIAL_NEEDS":"Yes","Pet_Friendly":" ","Does_not_meet_ARC_4496":" ","Survey_Needed":" "}},{"type":"Feature","id":168,"geometry":{"type":"Point","coordinates":[-81.172262012180695,28.891925000097071]},"properties":{"OBJECTID":168,"Name":"Heritage MS","Address":"1001 Parnell Court","City":"Deltona","Zip":"32738","COUNTY":"VOLUSIA","X":-81.172262009999997,"Y":28.891925000000001,"LONGLAT":"-81.17226201, 28.89192500","USNG":"17R MM 83204 96024","FACILITY_TYPE":"SHELTER","SHELTER_TYPE":"RISK","RPC_Region":"5","Year_Built":"1997","Building":"2 Dining","AS_IS_A_Retrofit_R":"R","Generator_Type":"Yes, unknown kW","PreMitigation_Capacity_Spaces":0,"PreMitigation_Square_Footage":0,"EHPA_Capacity_Gained_Spaces":0,"EHPA_Square_Footage_Gained":0,"Retrofit_Capacity_Gained_Spaces":104,"Retrofit_Square_Footage_Gained":6264,"Risk_Capacity_Spaces":104,"Risk_Square_Footage":6264,"Planned_Usage_Spaces":176,"FundingSource_F_Federal_State_S":" ","Evacuation_Zone":"No","SURGE_ZONE":"No","FLOOD_ZONE":"No","EHPA":"No","General_Pop":" ","SPECIAL_NEEDS":"Yes","Pet_Friendly":" ","Does_not_meet_ARC_4496":" ","Survey_Needed":" "}},{"type":"Feature","id":169,"geometry":{"type":"Point","coordinates":[-81.074282005879851,29.198499982391013]},"properties":{"OBJECTID":169,"Name":"Palm Terrace ES","Address":"1825 Dunn Ave","City":"Daytona Beach","Zip":"32114","COUNTY":"VOLUSIA","X":-81.074282010000005,"Y":29.198499980000001,"LONGLAT":"-81.07428201, 29.19849998","USNG":"17R MN 92778 29980","FACILITY_TYPE":"SHELTER","SHELTER_TYPE":"RISK","RPC_Region":"5","Year_Built":"1991","Building":"6 Dining","AS_IS_A_Retrofit_R":"R","Generator_Type":"Yes, unknown kW","PreMitigation_Capacity_Spaces":0,"PreMitigation_Square_Footage":0,"EHPA_Capacity_Gained_Spaces":0,"EHPA_Square_Footage_Gained":0,"Retrofit_Capacity_Gained_Spaces":80,"Retrofit_Square_Footage_Gained":4799,"Risk_Capacity_Spaces":80,"Risk_Square_Footage":4799,"Planned_Usage_Spaces":0,"FundingSource_F_Federal_State_S":" ","Evacuation_Zone":"No","SURGE_ZONE":"No","FLOOD_ZONE":"No","EHPA":"No","General_Pop":" ","SPECIAL_NEEDS":"Yes","Pet_Friendly":" ","Does_not_meet_ARC_4496":" ","Survey_Needed":"Yes"}},{"type":"Feature","id":170,"geometry":{"type":"Point","coordinates":[-81.094125994285832,29.239961987943676]},"properties":{"OBJECTID":170,"Name":"Hinson MS","Address":"1860 N Clyde Morris Blvd","City":"Ormond Beach","Zip":"32117","COUNTY":"VOLUSIA","X":-81.094125989999995,"Y":29.239961990000001,"LONGLAT":"-81.09412599, 29.23996199","USNG":"17R MN 90853 34575","FACILITY_TYPE":"SHELTER","SHELTER_TYPE":"RISK","RPC_Region":"5","Year_Built":"2004","Building":"2 Dining","AS_IS_A_Retrofit_R":"R","Generator_Type":" ","PreMitigation_Capacity_Spaces":0,"PreMitigation_Square_Footage":0,"EHPA_Capacity_Gained_Spaces":120,"EHPA_Square_Footage_Gained":7185,"Retrofit_Capacity_Gained_Spaces":0,"Retrofit_Square_Footage_Gained":0,"Risk_Capacity_Spaces":120,"Risk_Square_Footage":7185,"Planned_Usage_Spaces":250,"FundingSource_F_Federal_State_S":"L","Evacuation_Zone":"No","SURGE_ZONE":"No","FLOOD_ZONE":"No","EHPA":"Yes","General_Pop":" ","SPECIAL_NEEDS":"Yes","Pet_Friendly":" ","Does_not_meet_ARC_4496":" ","Survey_Needed":" "}},{"type":"Feature","id":171,"geometry":{"type":"Point","coordinates":[-81.271695020102271,28.994548998949693]},"properties":{"OBJECTID":171,"Name":"Freedom ES","Address":"1395 South Blue Lake Ave","City":"DeLand","Zip":"32724","COUNTY":"VOLUSIA","X":-81.271695019999996,"Y":28.994548999999999,"LONGLAT":"-81.27169502, 28.99454900","USNG":"17R MN 73535 07412","FACILITY_TYPE":"SHELTER","SHELTER_TYPE":"RISK","RPC_Region":"5","Year_Built":"1999","Building":"2 Dining","AS_IS_A_Retrofit_R":"A","Generator_Type":"Yes, unknown kW","PreMitigation_Capacity_Spaces":0,"PreMitigation_Square_Footage":0,"EHPA_Capacity_Gained_Spaces":64,"EHPA_Square_Footage_Gained":3820,"Retrofit_Capacity_Gained_Spaces":0,"Retrofit_Square_Footage_Gained":0,"Risk_Capacity_Spaces":64,"Risk_Square_Footage":3820,"Planned_Usage_Spaces":84,"FundingSource_F_Federal_State_S":" ","Evacuation_Zone":"No","SURGE_ZONE":"No","FLOOD_ZONE":"No","EHPA":"Yes","General_Pop":" ","SPECIAL_NEEDS":"Yes","Pet_Friendly":" ","Does_not_meet_ARC_4496":" ","Survey_Needed":" "}},{"type":"Feature","id":172,"geometry":{"type":"Point","coordinates":[-86.112489557332907,30.712595599357314]},"properties":{"OBJECTID":172,"Name":"Walton MS","Address":"625 Park Ave","City":"DeFuniak Springs","Zip":"32435","COUNTY":"WALTON","X":-86.11248956,"Y":30.7125956,"LONGLAT":"-86.11248956, 30.71259560","USNG":"16R EU 84981 98087","FACILITY_TYPE":"SHELTER","SHELTER_TYPE":"RISK","RPC_Region":"1","Year_Built":"2002","Building":"9 Classroom","AS_IS_A_Retrofit_R":"R","Generator_Type":"Yes, unknown kW","PreMitigation_Capacity_Spaces":0,"PreMitigation_Square_Footage":0,"EHPA_Capacity_Gained_Spaces":0,"EHPA_Square_Footage_Gained":0,"Retrofit_Capacity_Gained_Spaces":160,"Retrofit_Square_Footage_Gained":9610,"Risk_Capacity_Spaces":160,"Risk_Square_Footage":9610,"Planned_Usage_Spaces":92,"FundingSource_F_Federal_State_S":"S-1508-2005","Evacuation_Zone":"No","SURGE_ZONE":"No","FLOOD_ZONE":"No","EHPA":"No","General_Pop":" ","SPECIAL_NEEDS":"Yes","Pet_Friendly":" ","Does_not_meet_ARC_4496":" ","Survey_Needed":" "}},{"type":"Feature","id":173,"geometry":{"type":"Point","coordinates":[-85.55634700403688,30.76465447428804]},"properties":{"OBJECTID":173,"Name":"Roulhac MS","Address":"1535 Brickyard Rd","City":"Chipley","Zip":"32428","COUNTY":"WASHINGTON","X":-85.556347000000002,"Y":30.764654480000001,"LONGLAT":"-85.55634700, 30.76465448","USNG":"16R FV 38164 04410","FACILITY_TYPE":"SHELTER","SHELTER_TYPE":"RISK","RPC_Region":"1","Year_Built":"1998","Building":"12 (5th Grade wng)","AS_IS_A_Retrofit_R":"A","Generator_Type":"Yes, unknown kW","PreMitigation_Capacity_Spaces":0,"PreMitigation_Square_Footage":0,"EHPA_Capacity_Gained_Spaces":146,"EHPA_Square_Footage_Gained":8752,"Retrofit_Capacity_Gained_Spaces":0,"Retrofit_Square_Footage_Gained":0,"Risk_Capacity_Spaces":146,"Risk_Square_Footage":8752,"Planned_Usage_Spaces":172,"FundingSource_F_Federal_State_S":"EHPA","Evacuation_Zone":"No","SURGE_ZONE":"No","FLOOD_ZONE":"No","EHPA":"Yes","General_Pop":" ","SPECIAL_NEEDS":"Yes","Pet_Friendly":" ","Does_not_meet_ARC_4496":" ","Survey_Needed":"Yes"}}]}