{"type":"FeatureCollection","features":[{"type":"Feature","id":1,"geometry":{"type":"Point","coordinates":[-81.278342215946466,29.074256114581626]},"properties":{"OBJECTID":1,"Name":"SPERLING SPORTS COMPLEX","Address":"1500 MATT FAIR BLVD","City":"DELAND","Zip":"32724","COUNTY":"VOLUSIA","X":-81.278342219999999,"Y":29.074256120000001,"LONGLAT":"-81.27834222,29.07425612","USNG":"17R MN 72908 16244","OWNERSHIP":"MUNICIPAL","PARCELID":"30162700001500","FACILITY_TYPE":"STADIUM"}},{"type":"Feature","id":2,"geometry":{"type":"Point","coordinates":[-80.308299977037223,26.12811001171346]},"properties":{"OBJECTID":2,"Name":"ROMBOR","Address":"12001 NW 6TH ST","City":"FORT LAUDERDALE","Zip":"33325","COUNTY":"BROWARD","X":-80.308299980000001,"Y":26.12811001,"LONGLAT":"-80.30829998,26.12811001","USNG":"17R NJ 69149 90055","OWNERSHIP":null,"PARCELID":"504001800000","FACILITY_TYPE":"STADIUM"}},{"type":"Feature","id":3,"geometry":{"type":"Point","coordinates":[-80.423540780792649,27.644205091676572]},"properties":{"OBJECTID":3,"Name":"HOLMAN STADIUM (HISTORIC DODGERTOWN)","Address":"3901 26TH ST","City":"VERO BEACH","Zip":"32960","COUNTY":"INDIAN RIVER","X":-80.423540779999996,"Y":27.64420509,"LONGLAT":"-80.42354078,27.64420509","USNG":"17R NL 56864 57922","OWNERSHIP":"COUNTY","PARCELID":"32392600011023000001.0","FACILITY_TYPE":"STADIUM"}},{"type":"Feature","id":4,"geometry":{"type":"Point","coordinates":[-82.570374050008255,27.485683611367911]},"properties":{"OBJECTID":4,"Name":"MCKECHNIE FIELD-BASEBALL","Address":"1611 9TH ST W","City":"BRADENTON","Zip":"34205","COUNTY":"MANATEE","X":-82.570374049999998,"Y":27.485683609999999,"LONGLAT":"-82.57037405,27.48568361","USNG":"17R LL 44858 41212","OWNERSHIP":"MUNICIPAL","PARCELID":"4342500609","FACILITY_TYPE":"STADIUM"}},{"type":"Feature","id":5,"geometry":{"type":"Point","coordinates":[-80.431335399046418,25.452105403099132]},"properties":{"OBJECTID":5,"Name":"HOMESTEAD SPORTS COMPLEX","Address":"1601 SE 28TH AVE","City":"HOMESTEAD","Zip":"33035","COUNTY":"MIAMI-DADE","X":-80.431335399999995,"Y":25.452105400000001,"LONGLAT":"-80.43133540,25.45210540","USNG":"17R NJ 57172 15132","OWNERSHIP":null,"PARCELID":null,"FACILITY_TYPE":"STADIUM"}},{"type":"Feature","id":6,"geometry":{"type":"Point","coordinates":[-82.509053093854646,27.335965624203173]},"properties":{"OBJECTID":6,"Name":"ROBERTS SPORTS ARENA","Address":"3000 RINGLING BLVD","City":"SARASOTA","Zip":"34237","COUNTY":"SARASOTA","X":-82.509053089999995,"Y":27.33596562,"LONGLAT":"-82.50905309,27.33596562","USNG":"17R LL 50716 24550","OWNERSHIP":null,"PARCELID":"2031-04-0006","FACILITY_TYPE":"STADIUM"}},{"type":"Feature","id":7,"geometry":{"type":"Point","coordinates":[-80.21961766193067,25.778043410379652]},"properties":{"OBJECTID":7,"Name":"MIAMI MARLINS BALLPARK","Address":"1501 NW 3RD ST","City":"MIAMI","Zip":"33125","COUNTY":"MIAMI-DADE","X":-80.219617659999997,"Y":25.778043409999999,"LONGLAT":"-80.21961766,25.77804341","USNG":"17R NJ 78246 51335","OWNERSHIP":null,"PARCELID":null,"FACILITY_TYPE":"STADIUM"}},{"type":"Feature","id":8,"geometry":{"type":"Point","coordinates":[-82.315223107407149,28.807608888328296]},"properties":{"OBJECTID":8,"Name":"CITRUS COUNTY SPEEDWAY","Address":"3739 S AIRPORT RD","City":"INVERNESS","Zip":"34450","COUNTY":"CITRUS","X":-82.315223110000005,"Y":28.807608890000001,"LONGLAT":"-82.31522311,28.80760889","USNG":"17R LM 71654 87380","OWNERSHIP":null,"PARCELID":null,"FACILITY_TYPE":"STADIUM"}},{"type":"Feature","id":9,"geometry":{"type":"Point","coordinates":[-81.933805208405118,30.391918533648088]},"properties":{"OBJECTID":9,"Name":"MELISSA LYNN SPORTS COMPLEX","Address":"7280 MOTES RD","City":"BRYCEVILLE","Zip":"32009","COUNTY":"NASSAU","X":-81.933805210000003,"Y":30.391918530000002,"LONGLAT":"-81.93380521,30.39191853","USNG":"17R MP 10290 62584","OWNERSHIP":null,"PARCELID":null,"FACILITY_TYPE":"STADIUM"}},{"type":"Feature","id":10,"geometry":{"type":"Point","coordinates":[-87.37355342314639,30.396515652145261]},"properties":{"OBJECTID":10,"Name":"PENSACOLA GREYHOUND PARK","Address":"1001 DOG TRACK RD","City":"PENSACOLA","Zip":"32506","COUNTY":"ESCAMBIA","X":-87.373553419999993,"Y":30.396515650000001,"LONGLAT":"-87.37355342,30.39651565","USNG":"16R DU 64115 62783","OWNERSHIP":null,"PARCELID":"252S311303000000","FACILITY_TYPE":"STADIUM"}},{"type":"Feature","id":11,"geometry":{"type":"Point","coordinates":[-80.08231234874728,26.723742282304435]},"properties":{"OBJECTID":11,"Name":"WEST PALM BEACH MUNICIPAL STADIUM","Address":"1610 PALM BEACH LAKES BLVD","City":"WEST PALM BEACH","Zip":"33401","COUNTY":"PALM BEACH","X":-80.082312349999995,"Y":26.72374228,"LONGLAT":"-80.08231235,26.72374228","USNG":"17R NK 91272 56166","OWNERSHIP":null,"PARCELID":null,"FACILITY_TYPE":"STADIUM"}},{"type":"Feature","id":12,"geometry":{"type":"Point","coordinates":[-81.544186421890117,30.324746460085159]},"properties":{"OBJECTID":12,"Name":"JACKSONVILLE GREYHOUND RACING","Address":"201 MONUMENT RD","City":"JACKSONVILLE","Zip":"32225","COUNTY":"DUVAL","X":-81.544186420000003,"Y":30.32474646,"LONGLAT":"-81.54418642,30.32474646","USNG":"17R MP 47685 54896","OWNERSHIP":null,"PARCELID":null,"FACILITY_TYPE":"STADIUM"}},{"type":"Feature","id":13,"geometry":{"type":"Point","coordinates":[-82.400941683177706,27.382062338393549]},"properties":{"OBJECTID":13,"Name":"SARASOTA POLO CLUB","Address":"8201 POLO CLUB LN","City":"SARASOTA","Zip":"34240","COUNTY":"SARASOTA","X":-82.400941680000003,"Y":27.382062340000001,"LONGLAT":"-82.40094168,27.38206234","USNG":"17R LL 61470 29532","OWNERSHIP":null,"PARCELID":"0185-01-0002","FACILITY_TYPE":"STADIUM"}},{"type":"Feature","id":14,"geometry":{"type":"Point","coordinates":[-82.633120412060663,27.768392132750723]},"properties":{"OBJECTID":14,"Name":"AL LANG STADIUM","Address":"180 2ND AVE SE","City":"SAINT PETERSBURG","Zip":"33701","COUNTY":"PINELLAS","X":-82.633120410000004,"Y":27.768392129999999,"LONGLAT":"-82.63312041,27.76839213","USNG":"17R LL 39073 72615","OWNERSHIP":"MUNICIPAL","PARCELID":"17 31 19 00225 001 0010","FACILITY_TYPE":"STADIUM"}},{"type":"Feature","id":15,"geometry":{"type":"Point","coordinates":[-82.467518290177622,27.947883432291761]},"properties":{"OBJECTID":15,"Name":"MARTINEZ SPORTS CENTER - UNIV OF TAMPA","Address":"400 N BOULEVARD","City":"TAMPA","Zip":"33606","COUNTY":"HILLSBOROUGH","X":-82.467518290000001,"Y":27.947883430000001,"LONGLAT":"-82.46751829,27.94788343","USNG":"17R LL 55631 92295","OWNERSHIP":null,"PARCELID":null,"FACILITY_TYPE":"STADIUM"}},{"type":"Feature","id":16,"geometry":{"type":"Point","coordinates":[-82.653453986634943,27.76816481196834]},"properties":{"OBJECTID":16,"Name":"TROPICANA FIELD","Address":"1 TROPICANA DR","City":"SAINT PETERSBURG","Zip":"33705","COUNTY":"PINELLAS","X":-82.653453990000003,"Y":27.768164809999998,"LONGLAT":"-82.65345399,27.76816481","USNG":"17R LL 37068 72616","OWNERSHIP":null,"PARCELID":null,"FACILITY_TYPE":"STADIUM"}},{"type":"Feature","id":17,"geometry":{"type":"Point","coordinates":[-81.645087200244973,30.325775415968113]},"properties":{"OBJECTID":17,"Name":"JACKSONVILLE VETERAN'S MEMORIAL ARENA","Address":"300 A PHILIP RANDOLPH BLVD","City":"JACKSONVILLE","Zip":"32202","COUNTY":"DUVAL","X":-81.645087200000006,"Y":30.325775419999999,"LONGLAT":"-81.64508720,30.32577542","USNG":"17R MP 37986 55061","OWNERSHIP":"COUNTY","PARCELID":"1308490000R","FACILITY_TYPE":"STADIUM"}},{"type":"Feature","id":18,"geometry":{"type":"Point","coordinates":[-82.790249892807537,27.97452995170282]},"properties":{"OBJECTID":18,"Name":"JACK RUSSELL STADIUM","Address":"800 PHILLIES DR","City":"CLEARWATER","Zip":"33755","COUNTY":"PINELLAS","X":-82.790249889999998,"Y":27.974529950000001,"LONGLAT":"-82.79024989,27.97452995","USNG":"17R LL 23920 95671","OWNERSHIP":"MUNICIPAL","PARCELID":"15 29 10 59796 005 0001","FACILITY_TYPE":"STADIUM"}},{"type":"Feature","id":19,"geometry":{"type":"Point","coordinates":[-80.234814823229016,26.069069179815816]},"properties":{"OBJECTID":19,"Name":"DAVIE ARENA","Address":"6591 SW 45TH ST","City":"FORT LAUDERDALE","Zip":"33314","COUNTY":"BROWARD","X":-80.234814819999997,"Y":26.06906918,"LONGLAT":"-80.23481482,26.06906918","USNG":"17R NJ 76534 83557","OWNERSHIP":"MUNICIPAL","PARCELID":"504127010013","FACILITY_TYPE":"STADIUM"}},{"type":"Feature","id":20,"geometry":{"type":"Point","coordinates":[-86.931035929870632,30.595344995429638]},"properties":{"OBJECTID":20,"Name":"SOUTHERN RACEWAY MILTON FLORIDA","Address":"9325 NICHOLS LAKE RD","City":"MILTON","Zip":"32583","COUNTY":"SANTA ROSA","X":-86.931035929999993,"Y":30.595344999999998,"LONGLAT":"-86.93103593,30.59534500","USNG":"16R EU 06611 84759","OWNERSHIP":null,"PARCELID":"15-1N-27-0000-00805-0000","FACILITY_TYPE":"STADIUM"}},{"type":"Feature","id":21,"geometry":{"type":"Point","coordinates":[-81.069868499258831,29.013666691766552]},"properties":{"OBJECTID":21,"Name":"NEW SMYRNA SPEEDWAY","Address":"3939 STATE ROAD 44","City":"NEW SMYRNA BEACH","Zip":"32168","COUNTY":"VOLUSIA","X":-81.069868499999998,"Y":29.013666690000001,"LONGLAT":"-81.06986850,29.01366669","USNG":"17R MN 93195 09501","OWNERSHIP":null,"PARCELID":null,"FACILITY_TYPE":"STADIUM"}},{"type":"Feature","id":22,"geometry":{"type":"Point","coordinates":[-81.192609473327963,28.608233969327713]},"properties":{"OBJECTID":22,"Name":"UCF - BRIGHT HOUSE NETWORKS STADIUM","Address":"4000 CENTRAL FLORIDA BLVD","City":"ORLANDO","Zip":"32826","COUNTY":"ORANGE","X":-81.192609469999994,"Y":28.608233970000001,"LONGLAT":"-81.19260947,28.60823397","USNG":"17R MM 81169 64597","OWNERSHIP":"STATE","PARCELID":"312203000000005","FACILITY_TYPE":"STADIUM"}},{"type":"Feature","id":23,"geometry":{"type":"Point","coordinates":[-82.27284960619842,29.75808075469023]},"properties":{"OBJECTID":23,"Name":"GAINESVILLE RACEWAY","Address":"12211 N COUNTY ROAD 225","City":"GAINESVILLE","Zip":"32609","COUNTY":"ALACHUA","X":-82.272849609999994,"Y":29.758080759999999,"LONGLAT":"-82.27284961,29.75808076","USNG":"17R LN 76934 92657","OWNERSHIP":null,"PARCELID":null,"FACILITY_TYPE":"STADIUM"}},{"type":"Feature","id":24,"geometry":{"type":"Point","coordinates":[-80.161050415951891,26.193133219135838]},"properties":{"OBJECTID":24,"Name":"LOCKHART STADIUM","Address":"5301 NW 12TH AVE","City":"FORT LAUDERDALE","Zip":"33309","COUNTY":"BROWARD","X":-80.161050419999995,"Y":26.19313322,"LONGLAT":"-80.16105042,26.19313322","USNG":"17R NJ 83824 97343","OWNERSHIP":"MUNICIPAL","PARCELID":"494209290010","FACILITY_TYPE":"STADIUM"}},{"type":"Feature","id":25,"geometry":{"type":"Point","coordinates":[-80.186860755916712,26.685410951285572]},"properties":{"OBJECTID":25,"Name":"SOUTH FLORIDA EXPO CENTER","Address":"9067 SOUTHERN BLVD","City":"WEST PALM BEACH","Zip":"33411","COUNTY":"PALM BEACH","X":-80.186860760000002,"Y":26.685410950000001,"LONGLAT":"-80.18686076,26.68541095","USNG":"17R NK 80900 51850","OWNERSHIP":null,"PARCELID":null,"FACILITY_TYPE":"STADIUM"}},{"type":"Feature","id":26,"geometry":{"type":"Point","coordinates":[-81.764693939252851,26.471084093421332]},"properties":{"OBJECTID":26,"Name":"ALICO ARENA (FLORIDA GULF COAST UNIVERSITY)","Address":"10501 FGCU BLVD S","City":"FORT MYERS","Zip":"33965","COUNTY":"LEE","X":-81.764693940000001,"Y":26.471084090000002,"LONGLAT":"-81.76469394,26.47108409","USNG":"17R MK 23777 28081","OWNERSHIP":null,"PARCELID":null,"FACILITY_TYPE":"STADIUM"}},{"type":"Feature","id":27,"geometry":{"type":"Point","coordinates":[-82.107686248193787,27.99769864890353]},"properties":{"OBJECTID":27,"Name":"PLANT CITY STADIUM","Address":"1900 S PARK RD","City":"PLANT CITY","Zip":"33563","COUNTY":"HILLSBOROUGH","X":-82.10768625,"Y":27.99769865,"LONGLAT":"-82.10768625,27.99769865","USNG":"17R LL 91083 97441","OWNERSHIP":null,"PARCELID":null,"FACILITY_TYPE":"STADIUM"}},{"type":"Feature","id":28,"geometry":{"type":"Point","coordinates":[-80.23637929445546,26.078342259298729]},"properties":{"OBJECTID":28,"Name":"BAILEY HALL","Address":"3501 SW DAVIE ROAD","City":"FORT LAUDERDALE","Zip":"33314","COUNTY":"BROWARD","X":-80.236379290000002,"Y":26.078342259999999,"LONGLAT":"-80.23637929,26.07834226","USNG":"17R NJ 76372 84583","OWNERSHIP":null,"PARCELID":"504137011622","FACILITY_TYPE":"STADIUM"}},{"type":"Feature","id":29,"geometry":{"type":"Point","coordinates":[-81.189120911999154,28.670732942239798]},"properties":{"OBJECTID":29,"Name":"OVIEDO SPORTS COMPLEX","Address":"1251 E BROADWAY ST","City":"OVIEDO","Zip":"32765","COUNTY":"SEMINOLE","X":-81.18912091,"Y":28.670732940000001,"LONGLAT":"-81.18912091,28.67073294","USNG":"17R MM 81521 71521","OWNERSHIP":null,"PARCELID":null,"FACILITY_TYPE":"STADIUM"}},{"type":"Feature","id":30,"geometry":{"type":"Point","coordinates":[-80.247121303810943,25.872272562826815]},"properties":{"OBJECTID":30,"Name":"Nathaniel Traz Powell Football Stadium","Address":"11380 NW 27 AVENUE","City":"Miami","Zip":"33167","COUNTY":"MIAMI-DADE","X":-80.247121300000003,"Y":25.872272559999999,"LONGLAT":"-80.24712130,25.87227256","USNG":"17R NJ 75428 61755","OWNERSHIP":null,"PARCELID":null,"FACILITY_TYPE":"STADIUM"}},{"type":"Feature","id":31,"geometry":{"type":"Point","coordinates":[-82.503095077738834,27.898289479139912]},"properties":{"OBJECTID":31,"Name":"HIMES SPORTS COMPLEX","Address":"4411 S HIMES AVE","City":"TAMPA","Zip":"33611","COUNTY":"HILLSBOROUGH","X":-82.503095079999994,"Y":27.898289479999999,"LONGLAT":"-82.50309508,27.89828948","USNG":"17R LL 52063 86843","OWNERSHIP":"MUNICIPAL","PARCELID":"183004ZZZ000005516900A","FACILITY_TYPE":"STADIUM"}},{"type":"Feature","id":32,"geometry":{"type":"Point","coordinates":[-82.150241143888124,29.188295435219842]},"properties":{"OBJECTID":32,"Name":"MARTIN LUTHER KING RECREATION COMPLEX","Address":"1510 NW 4TH ST","City":"OCALA","Zip":"34475","COUNTY":"MARION","X":-82.150241140000006,"Y":29.188295440000001,"LONGLAT":"-82.15024114,29.18829544","USNG":"17R LN 88166 29394","OWNERSHIP":"MUNICIPAL","PARCELID":"28418-000-00","FACILITY_TYPE":"STADIUM"}},{"type":"Feature","id":33,"geometry":{"type":"Point","coordinates":[-81.404316065358444,28.53907166434978]},"properties":{"OBJECTID":33,"Name":"TINKER FIELD","Address":"287 S TAMPA AVE","City":"ORLANDO","Zip":"32805","COUNTY":"ORANGE","X":-81.404316069999993,"Y":28.539071669999998,"LONGLAT":"-81.40431607,28.53907167","USNG":"17R MM 60446 56987","OWNERSHIP":null,"PARCELID":null,"FACILITY_TYPE":"STADIUM"}},{"type":"Feature","id":34,"geometry":{"type":"Point","coordinates":[-81.324028317056857,28.774896609194727]},"properties":{"OBJECTID":34,"Name":"LAKE MARY SPORTS COMPLEX","Address":"558 RANTOUL LN","City":"LAKE MARY","Zip":"32746","COUNTY":"SEMINOLE","X":-81.324028319999996,"Y":28.774896609999999,"LONGLAT":"-81.32402832,28.77489661","USNG":"17R MM 68371 83089","OWNERSHIP":null,"PARCELID":null,"FACILITY_TYPE":"STADIUM"}},{"type":"Feature","id":35,"geometry":{"type":"Point","coordinates":[-80.739440907734803,28.256885400586672]},"properties":{"OBJECTID":35,"Name":"SPACE COAST STADIUM","Address":"5800 STADIUM PKWY","City":"ROCKLEDGE","Zip":"32955","COUNTY":"BREVARD","X":-80.739440909999999,"Y":28.256885400000002,"LONGLAT":"-80.73944091,28.25688540","USNG":"17R NM 25557 25686","OWNERSHIP":null,"PARCELID":null,"FACILITY_TYPE":"STADIUM"}},{"type":"Feature","id":36,"geometry":{"type":"Point","coordinates":[-80.739807834914899,28.303286288936089]},"properties":{"OBJECTID":36,"Name":"SPACE COAST ICEPLEX","Address":"720 ROY WALL BLVD","City":"ROCKLEDGE","Zip":"32955","COUNTY":"BREVARD","X":-80.739807830000004,"Y":28.303286289999999,"LONGLAT":"-80.73980783,28.30328629","USNG":"17R NM 25510 30827","OWNERSHIP":null,"PARCELID":null,"FACILITY_TYPE":"STADIUM"}},{"type":"Feature","id":37,"geometry":{"type":"Point","coordinates":[-81.642480519511267,30.325212780668895]},"properties":{"OBJECTID":37,"Name":"SAM WOLFSON BASEBALL PARK","Address":"1201 E DUVAL ST","City":"JACKSONVILLE","Zip":"32202","COUNTY":"DUVAL","X":-81.642480520000007,"Y":30.325212780000001,"LONGLAT":"-81.64248052,30.32521278","USNG":"17R MP 38236 54997","OWNERSHIP":null,"PARCELID":null,"FACILITY_TYPE":"STADIUM"}},{"type":"Feature","id":38,"geometry":{"type":"Point","coordinates":[-81.372638994093847,29.964142274679759]},"properties":{"OBJECTID":38,"Name":"FLORIDA SPEED PARK","Address":"900 BIG OAK RD","City":"SAINT AUGUSTINE","Zip":"32095","COUNTY":"ST. JOHNS","X":-81.372638989999999,"Y":29.964142280000001,"LONGLAT":"-81.37263899,29.96414228","USNG":"17R MP 64046 14870","OWNERSHIP":null,"PARCELID":"0727500080","FACILITY_TYPE":"STADIUM"}},{"type":"Feature","id":39,"geometry":{"type":"Point","coordinates":[-81.302301761546403,29.020022674979742]},"properties":{"OBJECTID":39,"Name":"MELCHING FIELD AT CONRAD PARK","Address":"555 S WOODLAND BLVD","City":"DELAND","Zip":"32724","COUNTY":"VOLUSIA","X":-81.302301760000006,"Y":29.02002268,"LONGLAT":"-81.30230176,29.02002268","USNG":"17R MN 70561 10241","OWNERSHIP":null,"PARCELID":null,"FACILITY_TYPE":"STADIUM"}},{"type":"Feature","id":40,"geometry":{"type":"Point","coordinates":[-82.391340064453587,27.885130021233664]},"properties":{"OBJECTID":40,"Name":"EAST BAY RACEWAY-STOCK CAR","Address":"6311 BURTS RD","City":"TAMPA","Zip":"33619","COUNTY":"HILLSBOROUGH","X":-82.391340060000005,"Y":27.885130019999998,"LONGLAT":"-82.39134006,27.88513002","USNG":"17R LL 63047 85255","OWNERSHIP":null,"PARCELID":"193010ZZZ000001679300U","FACILITY_TYPE":"STADIUM"}},{"type":"Feature","id":41,"geometry":{"type":"Point","coordinates":[-81.39974910741536,28.635554507907564]},"properties":{"OBJECTID":41,"Name":"RDV SPORTSPLEX","Address":"8701 MAITLAND SUMMIT BLVD","City":"ORLANDO","Zip":"32810","COUNTY":"ORANGE","X":-81.399749110000002,"Y":28.635554509999999,"LONGLAT":"-81.39974911,28.63555451","USNG":"17R MM 60928 67674","OWNERSHIP":null,"PARCELID":null,"FACILITY_TYPE":"STADIUM"}},{"type":"Feature","id":42,"geometry":{"type":"Point","coordinates":[-81.360328719415193,27.450690840524818]},"properties":{"OBJECTID":42,"Name":"SEBRING INTERNATIONAL RACEWAY","Address":"113 MIDWAY DR","City":"SEBRING","Zip":"33870","COUNTY":"HIGHLANDS","X":-81.360328719999998,"Y":27.45069084,"LONGLAT":"-81.36032872,27.45069084","USNG":"17R ML 64393 36406","OWNERSHIP":null,"PARCELID":"C073530A0000100040","FACILITY_TYPE":"STADIUM"}},{"type":"Feature","id":43,"geometry":{"type":"Point","coordinates":[-80.24216733077472,25.969765795989773]},"properties":{"OBJECTID":43,"Name":"CALDER RACE COURSE","Address":"21001 NW 27TH AVE","City":"OPA LOCKA","Zip":"33056","COUNTY":"MIAMI-DADE","X":-80.242167330000001,"Y":25.969765800000001,"LONGLAT":"-80.24216733,25.96976580","USNG":"17R NJ 75862 72555","OWNERSHIP":null,"PARCELID":"3411340140010","FACILITY_TYPE":"STADIUM"}},{"type":"Feature","id":44,"geometry":{"type":"Point","coordinates":[-84.291799305430672,30.426078938147125]},"properties":{"OBJECTID":44,"Name":"BRAGG MEMORIAL STADIUM-FAMU","Address":"1640 WAHNISH WAY","City":"TALLAHASSEE","Zip":"32310","COUNTY":"LEON","X":-84.291799310000002,"Y":30.42607894,"LONGLAT":"-84.29179931,30.42607894","USNG":"16R GU 60124 69114","OWNERSHIP":null,"PARCELID":null,"FACILITY_TYPE":"STADIUM"}},{"type":"Feature","id":45,"geometry":{"type":"Point","coordinates":[-80.408559965366777,25.452159947913977]},"properties":{"OBJECTID":45,"Name":"HOMESTEAD-MIAMI SPEEDWAY","Address":"1 SPEEDWAY BOULEVARD","City":"HOMESTEAD","Zip":"33035","COUNTY":"MIAMI-DADE","X":-80.408559969999999,"Y":25.452159949999999,"LONGLAT":"-80.40855997,25.45215995","USNG":"17R NJ 59462 15148","OWNERSHIP":null,"PARCELID":"1079230010030","FACILITY_TYPE":"STADIUM"}},{"type":"Feature","id":46,"geometry":{"type":"Point","coordinates":[-81.889362460949684,28.151838334657931]},"properties":{"OBJECTID":46,"Name":"USA INTERNATIONLA SPEEDWAY","Address":"3401 OLD POLK CITY RD","City":"LAKELAND","Zip":"33809","COUNTY":"POLK","X":-81.889362460000001,"Y":28.151838340000001,"LONGLAT":"-81.88936246,28.15183834","USNG":"17R MM 12676 14342","OWNERSHIP":null,"PARCELID":"242710000000011040","FACILITY_TYPE":"STADIUM"}},{"type":"Feature","id":47,"geometry":{"type":"Point","coordinates":[-80.151582675701775,26.222784615776913]},"properties":{"OBJECTID":47,"Name":"POMPANO PARK HARNESS RACE TRACK","Address":"1800 SW 3RD ST","City":"POMPANO BEACH","Zip":"33069","COUNTY":"BROWARD","X":-80.151582680000004,"Y":26.222784619999999,"LONGLAT":"-80.15158268,26.22278462","USNG":"17R NK 84748 00633","OWNERSHIP":null,"PARCELID":"494203220023","FACILITY_TYPE":"STADIUM"}},{"type":"Feature","id":48,"geometry":{"type":"Point","coordinates":[-82.467344002785339,27.949420086499689]},"properties":{"OBJECTID":48,"Name":"ART & POLLY PEPIN STADIUM - UNIV OF TAMPA","Address":"401 N BOULEVARD","City":"TAMPA","Zip":"33606","COUNTY":"HILLSBOROUGH","X":-82.467343999999997,"Y":27.94942009,"LONGLAT":"-82.46734400,27.94942009","USNG":"17R LL 55650 92465","OWNERSHIP":null,"PARCELID":null,"FACILITY_TYPE":"STADIUM"}},{"type":"Feature","id":49,"geometry":{"type":"Point","coordinates":[-82.207964000439574,28.349486777184381]},"properties":{"OBJECTID":49,"Name":"DAN CANNON AUDITORIUM","Address":"36722 STATE ROAD 52","City":"DADE CITY","Zip":"33525","COUNTY":"PASCO","X":-82.207964000000004,"Y":28.349486779999999,"LONGLAT":"-82.20796400,28.34948678","USNG":"17R LM 81610 36510","OWNERSHIP":"COUNTY","PARCELID":"2124330000031000000","FACILITY_TYPE":"STADIUM"}},{"type":"Feature","id":50,"geometry":{"type":"Point","coordinates":[-81.303250070297551,28.676830016725884]},"properties":{"OBJECTID":50,"Name":"SEMINOLE GREYHOUND PARK","Address":"2000 SEMINOLA BLVD","City":"CASSELBERRY","Zip":"32707","COUNTY":"SEMINOLE","X":-81.303250070000004,"Y":28.676830020000001,"LONGLAT":"-81.30325007,28.67683002","USNG":"17R MM 70371 72219","OWNERSHIP":null,"PARCELID":"1021305140T000000","FACILITY_TYPE":"STADIUM"}},{"type":"Feature","id":51,"geometry":{"type":"Point","coordinates":[-81.707031242793192,30.341768946835597]},"properties":{"OBJECTID":51,"Name":"JACKSONVILLE KENNEL CLUB","Address":"1440 N MCDUFF AVE","City":"JACKSONVILLE","Zip":"32254","COUNTY":"DUVAL","X":-81.707031240000006,"Y":30.341768949999999,"LONGLAT":"-81.70703124,30.34176895","USNG":"17R MP 32042 56868","OWNERSHIP":null,"PARCELID":null,"FACILITY_TYPE":"STADIUM"}},{"type":"Feature","id":52,"geometry":{"type":"Point","coordinates":[-81.341227265095995,28.657843532470544]},"properties":{"OBJECTID":52,"Name":"ORLANDO JAI-ALAI","Address":"6405 S US HWY 17-92","City":"CASSELBERRY","Zip":"32730","COUNTY":"SEMINOLE","X":-81.341227270000005,"Y":28.657843530000001,"LONGLAT":"-81.34122727,28.65784353","USNG":"17R MM 66655 70126","OWNERSHIP":null,"PARCELID":null,"FACILITY_TYPE":"STADIUM"}},{"type":"Feature","id":53,"geometry":{"type":"Point","coordinates":[-86.47710383477542,30.537018576163241]},"properties":{"OBJECTID":53,"Name":"NORTHWEST FLORIDA STATE COLLEGE - ARENA","Address":"100 E COLLEGE BLVD","City":"NICEVILLE","Zip":" ","COUNTY":"OKALOOSA","X":-86.477103830000004,"Y":30.537018580000002,"LONGLAT":"-86.47710383,30.53701858","USNG":"16R EU 50158 78410","OWNERSHIP":null,"PARCELID":null,"FACILITY_TYPE":"STADIUM"}},{"type":"Feature","id":54,"geometry":{"type":"Point","coordinates":[-82.529128122039722,27.4835214965441]},"properties":{"OBJECTID":54,"Name":"PIRATES SPRING TRAINING","Address":"1701 27TH ST E","City":"BRADENTON","Zip":"34208","COUNTY":"MANATEE","X":-82.529128119999996,"Y":27.483521499999998,"LONGLAT":"-82.52912812,27.48352150","USNG":"17R LL 48931 40922","OWNERSHIP":"MUNICIPAL","PARCELID":"1400910103","FACILITY_TYPE":"STADIUM"}},{"type":"Feature","id":55,"geometry":{"type":"Point","coordinates":[-81.637349923704619,30.323919383234571]},"properties":{"OBJECTID":55,"Name":"ALLTEL STADIUM","Address":"1 STADIUM PL","City":"JACKSONVILLE","Zip":"32202","COUNTY":"DUVAL","X":-81.637349920000005,"Y":30.32391938,"LONGLAT":"-81.63734992,30.32391938","USNG":"17R MP 38729 54851","OWNERSHIP":"COUNTY","PARCELID":"1308490000R","FACILITY_TYPE":"STADIUM"}},{"type":"Feature","id":56,"geometry":{"type":"Point","coordinates":[-81.853282831806496,26.632034894016034]},"properties":{"OBJECTID":56,"Name":"STARS COMPLEX","Address":"2980 EDISON AVE","City":"FORT MYERS","Zip":"33916","COUNTY":"LEE","X":-81.853282829999998,"Y":26.63203489,"LONGLAT":"-81.85328283,26.63203489","USNG":"17R MK 15065 45964","OWNERSHIP":"MUNICIPAL","PARCELID":"194425P4004000010","FACILITY_TYPE":"STADIUM"}},{"type":"Feature","id":57,"geometry":{"type":"Point","coordinates":[-80.677837304894908,28.125531164369786]},"properties":{"OBJECTID":57,"Name":"MELBOURNE GREYHOUND PARK","Address":"1100 N WICKHAM RD","City":"MELBOURNE","Zip":"32934","COUNTY":"BREVARD","X":-80.677837299999993,"Y":28.125531169999999,"LONGLAT":"-80.67783730,28.12553117","USNG":"17R NM 31639 11150","OWNERSHIP":null,"PARCELID":null,"FACILITY_TYPE":"STADIUM"}},{"type":"Feature","id":58,"geometry":{"type":"Point","coordinates":[-80.257089796217542,25.807219166502705]},"properties":{"OBJECTID":58,"Name":"MIAMI JAI-ALAI","Address":"3500 NW 37TH AVE","City":"MIAMI","Zip":"33142","COUNTY":"MIAMI-DADE","X":-80.257089800000003,"Y":25.80721917,"LONGLAT":"-80.25708980,25.80721917","USNG":"17R NJ 74470 54545","OWNERSHIP":null,"PARCELID":null,"FACILITY_TYPE":"STADIUM"}},{"type":"Feature","id":59,"geometry":{"type":"Point","coordinates":[-81.368994228113877,28.299008010964634]},"properties":{"OBJECTID":59,"Name":"SILVER SPURS RODEO ARENA","Address":"1875 SILVER SPURS LN","City":"KISSIMMEE","Zip":"34744","COUNTY":"OSCEOLA","X":-81.368994229999998,"Y":28.299008010000001,"LONGLAT":"-81.36899423,28.29900801","USNG":"17R MM 63820 30380","OWNERSHIP":null,"PARCELID":null,"FACILITY_TYPE":"STADIUM"}},{"type":"Feature","id":60,"geometry":{"type":"Point","coordinates":[-82.64847000730731,28.045809937450187]},"properties":{"OBJECTID":60,"Name":"TAMPA BAY DOWNS RACE TRACK","Address":"11225 RACE TRACK RD N","City":"TAMPA","Zip":"33626","COUNTY":"HILLSBOROUGH","X":-82.648470009999997,"Y":28.045809940000002,"LONGLAT":"-82.64847001,28.04580994","USNG":"17R LM 37974 03373","OWNERSHIP":null,"PARCELID":"172818ZZZ000000336400U","FACILITY_TYPE":"STADIUM"}},{"type":"Feature","id":61,"geometry":{"type":"Point","coordinates":[-80.141910026033671,25.97642002893781]},"properties":{"OBJECTID":61,"Name":"GULFSTREAM RACE TRACK","Address":"901 S FEDERAL HWY","City":"HALLANDALE","Zip":"33009","COUNTY":"BROWARD","X":-80.141910030000005,"Y":25.97642003,"LONGLAT":"-80.14191003,25.97642003","USNG":"17R NJ 85894 73354","OWNERSHIP":null,"PARCELID":"514227010000","FACILITY_TYPE":"STADIUM"}},{"type":"Feature","id":62,"geometry":{"type":"Point","coordinates":[-82.451724900836638,27.942715489329981]},"properties":{"OBJECTID":62,"Name":"ST PETE TIMES FORUM","Address":"401 CHANNELSIDE DR","City":"TAMPA","Zip":"33602","COUNTY":"HILLSBOROUGH","X":-82.451724900000002,"Y":27.942715490000001,"LONGLAT":"-82.45172490,27.94271549","USNG":"17R LL 57178 91704","OWNERSHIP":null,"PARCELID":null,"FACILITY_TYPE":"STADIUM"}},{"type":"Feature","id":63,"geometry":{"type":"Point","coordinates":[-84.286545523544532,30.437804263528289]},"properties":{"OBJECTID":63,"Name":"TALLAHASSEE-LEON COUNTY CIVIC CENTER","Address":"505 W PENSACOLA ST","City":"TALLAHASSEE","Zip":"32301","COUNTY":"LEON","X":-84.286545520000004,"Y":30.43780426,"LONGLAT":"-84.28654552,30.43780426","USNG":"16R GU 60597 70426","OWNERSHIP":null,"PARCELID":null,"FACILITY_TYPE":"STADIUM"}},{"type":"Feature","id":64,"geometry":{"type":"Point","coordinates":[-81.778874769615442,26.440141966131176]},"properties":{"OBJECTID":64,"Name":"GERMAIN ARENA","Address":"11000 EVERBLADES PKWY","City":"ESTERO","Zip":"33928","COUNTY":"LEE","X":-81.778874770000002,"Y":26.440141969999999,"LONGLAT":"-81.77887477,26.44014197","USNG":"17R MK 22343 24663","OWNERSHIP":null,"PARCELID":"26462500000011030","FACILITY_TYPE":"STADIUM"}},{"type":"Feature","id":65,"geometry":{"type":"Point","coordinates":[-82.786561486166306,28.003575959611098]},"properties":{"OBJECTID":65,"Name":"DUNEDIN STADIUM","Address":"311 DOUGLAS AVE","City":"DUNEDIN","Zip":"34698","COUNTY":"PINELLAS","X":-82.786561489999997,"Y":28.003575959999999,"LONGLAT":"-82.78656149,28.00357596","USNG":"17R LL 24330 98884","OWNERSHIP":"MUNICIPAL","PARCELID":"15 28 34 00000 420 0200","FACILITY_TYPE":"STADIUM"}},{"type":"Feature","id":66,"geometry":{"type":"Point","coordinates":[-81.577772414694692,28.39661599181925]},"properties":{"OBJECTID":66,"Name":"WALT DISNEY WORLD SPEEDWAY","Address":"3450 N WORLD DR","City":"ORLANDO","Zip":"32830","COUNTY":"ORANGE","X":-81.577772409999994,"Y":28.396615990000001,"LONGLAT":"-81.57777241,28.39661599","USNG":"17R MM 43400 41274","OWNERSHIP":null,"PARCELID":"272413000000003","FACILITY_TYPE":"STADIUM"}},{"type":"Feature","id":67,"geometry":{"type":"Point","coordinates":[-81.50415579009794,28.626891531042187]},"properties":{"OBJECTID":67,"Name":"CLARCONA HORSEMANS PARK","Address":"3535 DAMON RD","City":"APOPKA","Zip":"32703","COUNTY":"ORANGE","X":-81.504155789999999,"Y":28.626891530000002,"LONGLAT":"-81.50415579,28.62689153","USNG":"17R MM 50719 66753","OWNERSHIP":null,"PARCELID":null,"FACILITY_TYPE":"STADIUM"}},{"type":"Feature","id":68,"geometry":{"type":"Point","coordinates":[-80.260135338476545,26.639646467687687]},"properties":{"OBJECTID":68,"Name":"PALM BEACH POLO STADIUM","Address":"13420 SOUTHSHORE BLVD","City":"WEST PALM BEACH","Zip":"33414","COUNTY":"PALM BEACH","X":-80.260135340000005,"Y":26.639646469999999,"LONGLAT":"-80.26013534,26.63964647","USNG":"17R NK 73639 46736","OWNERSHIP":null,"PARCELID":null,"FACILITY_TYPE":"STADIUM"}},{"type":"Feature","id":69,"geometry":{"type":"Point","coordinates":[-81.700313321968352,30.18472052974402]},"properties":{"OBJECTID":69,"Name":"ORANGE PARK KENNEL CLUB","Address":"455 PARK AVE","City":"ORANGE PARK","Zip":"32073","COUNTY":"CLAY","X":-81.700313320000006,"Y":30.18472053,"LONGLAT":"-81.70031332,30.18472053","USNG":"17R MP 32581 39461","OWNERSHIP":null,"PARCELID":null,"FACILITY_TYPE":"STADIUM"}},{"type":"Feature","id":70,"geometry":{"type":"Point","coordinates":[-80.077990096010453,26.754090008201242]},"properties":{"OBJECTID":70,"Name":"PALM BEACH JAI-ALAI","Address":"1415 45TH ST","City":"WEST PALM BEACH","Zip":"33407","COUNTY":"PALM BEACH","X":-80.077990099999994,"Y":26.754090009999999,"LONGLAT":"-80.07799010,26.75409001","USNG":"17R NK 91677 59531","OWNERSHIP":null,"PARCELID":"44434305000140010","FACILITY_TYPE":"STADIUM"}},{"type":"Feature","id":71,"geometry":{"type":"Point","coordinates":[-80.325553335784974,26.158436765930784]},"properties":{"OBJECTID":71,"Name":"OFFICE DEPOT CENTER","Address":"2555 PANTHER PKY","City":"FORT LAUDERDALE","Zip":"33323","COUNTY":"BROWARD","X":-80.325553339999999,"Y":26.158436770000002,"LONGLAT":"-80.32555334,26.15843677","USNG":"17R NJ 67407 93404","OWNERSHIP":null,"PARCELID":"494026070010","FACILITY_TYPE":"STADIUM"}},{"type":"Feature","id":72,"geometry":{"type":"Point","coordinates":[-81.016109887958763,29.209999359548231]},"properties":{"OBJECTID":72,"Name":"JACKIE ROBINSON BALLPARK","Address":"115 E ORANGE AVE","City":"DAYTONA BEACH","Zip":"32114","COUNTY":"VOLUSIA","X":-81.016109889999996,"Y":29.209999360000001,"LONGLAT":"-81.01610989,29.20999936","USNG":"17R MN 98434 31252","OWNERSHIP":null,"PARCELID":null,"FACILITY_TYPE":"STADIUM"}},{"type":"Feature","id":73,"geometry":{"type":"Point","coordinates":[-80.105407767041186,26.238107931766297]},"properties":{"OBJECTID":73,"Name":"POMPANO BEACH AMPHITHEATER","Address":"1801 NE 6TH ST","City":"POMPANO BEACH","Zip":"33060","COUNTY":"BROWARD","X":-80.105407769999999,"Y":26.238107930000002,"LONGLAT":"-80.10540777,26.23810793","USNG":"17R NK 89349 02361","OWNERSHIP":"MUNICIPAL","PARCELID":"484236230010","FACILITY_TYPE":"STADIUM"}},{"type":"Feature","id":74,"geometry":{"type":"Point","coordinates":[-81.38667224191137,28.548917051315485]},"properties":{"OBJECTID":74,"Name":"AMWAY ARENA","Address":"630 W AMELIA ST","City":"ORLANDO","Zip":"32801","COUNTY":"ORANGE","X":-81.386672239999996,"Y":28.54891705,"LONGLAT":"-81.38667224,28.54891705","USNG":"17R MM 62175 58072","OWNERSHIP":null,"PARCELID":null,"FACILITY_TYPE":"STADIUM"}},{"type":"Feature","id":75,"geometry":{"type":"Point","coordinates":[-80.16155181282457,26.195375589232672]},"properties":{"OBJECTID":75,"Name":"FORT LAUDERDALE BASEBALL STADIUM","Address":"1151 NW 55TH ST","City":"FORT LAUDERDALE","Zip":"33309","COUNTY":"BROWARD","X":-80.161551810000006,"Y":26.195375590000001,"LONGLAT":"-80.16155181,26.19537559","USNG":"17R NJ 83772 97591","OWNERSHIP":"MUNICIPAL","PARCELID":"494209290010","FACILITY_TYPE":"STADIUM"}},{"type":"Feature","id":76,"geometry":{"type":"Point","coordinates":[-82.406527152122223,28.059226619654229]},"properties":{"OBJECTID":76,"Name":"SUN DOME - UNIV OF SOUTH FLORIDA","Address":"4202 E FOWLER AVE","City":"TAMPA","Zip":"33620","COUNTY":"HILLSBOROUGH","X":-82.406527150000002,"Y":28.05922662,"LONGLAT":"-82.40652715,28.05922662","USNG":"17R LM 61774 04561","OWNERSHIP":"STATE OF FLORIDA TIITF","PARCELID":"1928081HK000000000010A","FACILITY_TYPE":"STADIUM"}},{"type":"Feature","id":77,"geometry":{"type":"Point","coordinates":[-82.34860001430701,29.649912163079147]},"properties":{"OBJECTID":77,"Name":"BEN HILL GRIFFIN STADIUM","Address":"NORTH SOUTH DR","City":"GAINESVILLE","Zip":"32611","COUNTY":"ALACHUA","X":-82.348600009999998,"Y":29.64991216,"LONGLAT":"-82.34860001,29.64991216","USNG":"17R LN 69470 80753","OWNERSHIP":"STATE","PARCELID":"15505 030 000","FACILITY_TYPE":"STADIUM"}},{"type":"Feature","id":78,"geometry":{"type":"Point","coordinates":[-80.279426865496205,25.715305959649225]},"properties":{"OBJECTID":78,"Name":"UNIVERSITY OF MAMI - BANK UNITED CENTER","Address":"1245 WALSH AVE","City":"MIAMI","Zip":"33146","COUNTY":"MIAMI-DADE","X":-80.279426869999995,"Y":25.715305959999998,"LONGLAT":"-80.27942687,25.71530596","USNG":"17R NJ 72287 44353","OWNERSHIP":null,"PARCELID":null,"FACILITY_TYPE":"STADIUM"}},{"type":"Feature","id":79,"geometry":{"type":"Point","coordinates":[-80.801648022192467,28.362608369560796]},"properties":{"OBJECTID":79,"Name":"COCOA EXPO SPORTS CENTER","Address":"500 FRIDAY RD","City":"COCOA","Zip":"32926","COUNTY":"BREVARD","X":-80.801648020000002,"Y":28.36260837,"LONGLAT":"-80.80164802,28.36260837","USNG":"17R NM 19436 37387","OWNERSHIP":null,"PARCELID":null,"FACILITY_TYPE":"STADIUM"}},{"type":"Feature","id":80,"geometry":{"type":"Point","coordinates":[-80.278067301225107,25.846105570840052]},"properties":{"OBJECTID":80,"Name":"HIALEAH RACE TRACK","Address":"2200 E 4TH AVE","City":"HIALEAH","Zip":"33013","COUNTY":"MIAMI-DADE","X":-80.278067300000004,"Y":25.846105569999999,"LONGLAT":"-80.27806730,25.84610557","USNG":"17R NJ 72344 58839","OWNERSHIP":null,"PARCELID":null,"FACILITY_TYPE":"STADIUM"}},{"type":"Feature","id":81,"geometry":{"type":"Point","coordinates":[-81.363823649487344,28.298499388831896]},"properties":{"OBJECTID":81,"Name":"OSCEOLA COUNTY STADIUM","Address":"1000 BILL BECK BLVD","City":"KISSIMMEE","Zip":"34744","COUNTY":"OSCEOLA","X":-81.36382365,"Y":28.29849939,"LONGLAT":"-81.36382365,28.29849939","USNG":"17R MM 64326 30323","OWNERSHIP":null,"PARCELID":null,"FACILITY_TYPE":"STADIUM"}},{"type":"Feature","id":82,"geometry":{"type":"Point","coordinates":[-80.148821068819274,25.916545360494812]},"properties":{"OBJECTID":82,"Name":"RONALD L BOOK ATHLETIC TRACK","Address":"2601 NE 151ST ST","City":"NORTH MIAMI BEACH","Zip":"33160","COUNTY":"MIAMI-DADE","X":-80.148821069999997,"Y":25.916545360000001,"LONGLAT":"-80.14882107,25.91654536","USNG":"17R NJ 85246 66718","OWNERSHIP":"MUNICIPAL","PARCELID":"0622160000060","FACILITY_TYPE":"STADIUM"}},{"type":"Feature","id":83,"geometry":{"type":"Point","coordinates":[-80.371755708366962,25.747844613773378]},"properties":{"OBJECTID":83,"Name":"DADE COUNTY COLISEUM","Address":"10901 CORAL WAY","City":"MIAMI","Zip":"33165","COUNTY":"MIAMI-DADE","X":-80.371755710000002,"Y":25.747844610000001,"LONGLAT":"-80.37175571,25.74784461","USNG":"17R NJ 63007 47909","OWNERSHIP":null,"PARCELID":null,"FACILITY_TYPE":"STADIUM"}},{"type":"Feature","id":84,"geometry":{"type":"Point","coordinates":[-81.483623643237962,30.101210513854472]},"properties":{"OBJECTID":84,"Name":"ST JOHNS GREYHOUND PARK","Address":"6322 RACE TRACK RD","City":"JACKSONVILLE","Zip":"32259","COUNTY":"ST. JOHNS","X":-81.483623640000005,"Y":30.101210510000001,"LONGLAT":"-81.48362364,30.10121051","USNG":"17R MP 53402 30099","OWNERSHIP":null,"PARCELID":"4444444444","FACILITY_TYPE":"STADIUM"}},{"type":"Feature","id":85,"geometry":{"type":"Point","coordinates":[-80.117049963880717,26.89009999860831]},"properties":{"OBJECTID":85,"Name":"ROGER DEAN STADIUM","Address":"4751 MAIN ST","City":"JUPITER","Zip":"33458","COUNTY":"PALM BEACH","X":-80.117049960000003,"Y":26.8901,"LONGLAT":"-80.11704996,26.89010000","USNG":"17R NK 87689 74568","OWNERSHIP":null,"PARCELID":"30424113100180380","FACILITY_TYPE":"STADIUM"}},{"type":"Feature","id":86,"geometry":{"type":"Point","coordinates":[-80.404788265418489,27.324495047138917]},"properties":{"OBJECTID":86,"Name":"THOMAS J WHITE STADIUM","Address":"525 NW STADIUM DR","City":"PORT SAINT LUCIE","Zip":"34986","COUNTY":"ST. LUCIE","X":-80.404788269999997,"Y":27.324495049999999,"LONGLAT":"-80.40478827,27.32449505","USNG":"17R NL 58884 22517","OWNERSHIP":"COUNTY","PARCELID":"3323-500-0011-000-6","FACILITY_TYPE":"STADIUM"}},{"type":"Feature","id":87,"geometry":{"type":"Point","coordinates":[-81.11752717182209,29.173435446717022]},"properties":{"OBJECTID":87,"Name":"DAYTONA BEACH MUNICIPAL STADIUM","Address":"3777 LPGA BLVD","City":"DAYTONA BEACH","Zip":"32124","COUNTY":"VOLUSIA","X":-81.117527170000002,"Y":29.173435449999999,"LONGLAT":"-81.11752717,29.17343545","USNG":"17R MN 88572 27206","OWNERSHIP":null,"PARCELID":null,"FACILITY_TYPE":"STADIUM"}},{"type":"Feature","id":88,"geometry":{"type":"Point","coordinates":[-81.867866898996851,26.634064596224182]},"properties":{"OBJECTID":88,"Name":"CITY OF PALMS STADIUM","Address":"2201 EDISON AVE","City":"FORT MYERS","Zip":"33901","COUNTY":"LEE","X":-81.867866899999996,"Y":26.634064599999999,"LONGLAT":"-81.86786690,26.63406460","USNG":"17R MK 13615 46198","OWNERSHIP":"COUNTY","PARCELID":"244424P1011100010","FACILITY_TYPE":"STADIUM"}},{"type":"Feature","id":89,"geometry":{"type":"Point","coordinates":[-82.32496795448013,27.465555497070547]},"properties":{"OBJECTID":89,"Name":"DESOTO SPEEDWAY","Address":"21000 E STATE ROAD 64","City":"BRADENTON","Zip":"34211","COUNTY":"MANATEE","X":-82.324967950000001,"Y":27.465555500000001,"LONGLAT":"-82.32496795,27.46555550","USNG":"17R LL 69081 38699","OWNERSHIP":null,"PARCELID":null,"FACILITY_TYPE":"STADIUM"}},{"type":"Feature","id":90,"geometry":{"type":"Point","coordinates":[-80.17233102580829,26.240859515915098]},"properties":{"OBJECTID":90,"Name":"OMNI AUDITORIUM","Address":"1000 COCONUT CRK BLV","City":"POMPANO BEACH","Zip":"33066","COUNTY":"BROWARD","X":-80.172331029999995,"Y":26.240859520000001,"LONGLAT":"-80.17233103,26.24085952","USNG":"17R NK 82663 02621","OWNERSHIP":"STATE","PARCELID":"484232000021","FACILITY_TYPE":"STADIUM"}},{"type":"Feature","id":91,"geometry":{"type":"Point","coordinates":[-82.452792221334093,28.02339181884884]},"properties":{"OBJECTID":91,"Name":"TAMPA GREYHOUND TRACK","Address":"8300 N NEBRASKA AVE","City":"TAMPA","Zip":"33604","COUNTY":"HILLSBOROUGH","X":-82.452792220000006,"Y":28.023391820000001,"LONGLAT":"-82.45279222,28.02339182","USNG":"17R LM 57180 00644","OWNERSHIP":null,"PARCELID":null,"FACILITY_TYPE":"STADIUM"}},{"type":"Feature","id":92,"geometry":{"type":"Point","coordinates":[-80.137172672641853,26.053315756256794]},"properties":{"OBJECTID":92,"Name":"DANIA JAI-ALAI","Address":"301 E DANIA BEACH BLVD","City":"DANIA","Zip":"33004","COUNTY":"BROWARD","X":-80.137172669999998,"Y":26.05331576,"LONGLAT":"-80.13717267,26.05331576","USNG":"17R NJ 86312 81873","OWNERSHIP":null,"PARCELID":"504234290020","FACILITY_TYPE":"STADIUM"}},{"type":"Feature","id":93,"geometry":{"type":"Point","coordinates":[-80.1880388638629,25.781367597376537]},"properties":{"OBJECTID":93,"Name":"AMERICAN AIRLINES ARENA","Address":"601 BISCAYNE BLVD","City":"MIAMI","Zip":"33132","COUNTY":"MIAMI-DADE","X":-80.188038860000006,"Y":25.781367599999999,"LONGLAT":"-80.18803886,25.78136760","USNG":"17R NJ 81410 51722","OWNERSHIP":null,"PARCELID":null,"FACILITY_TYPE":"STADIUM"}},{"type":"Feature","id":94,"geometry":{"type":"Point","coordinates":[-82.180651567875969,26.998846726309143]},"properties":{"OBJECTID":94,"Name":"CHARLOTTE SPORTS PARK","Address":"2300 EL JOBEAN RD","City":"PORT CHARLOTTE","Zip":"33948","COUNTY":"CHARLOTTE","X":-82.180651569999995,"Y":26.99884673,"LONGLAT":"-82.18065157,26.99884673","USNG":"17R LK 82855 86855","OWNERSHIP":"OTHER PUBLIC","PARCELID":"402114100007","FACILITY_TYPE":"STADIUM"}},{"type":"Feature","id":95,"geometry":{"type":"Point","coordinates":[-80.238844910350863,25.957950904526136]},"properties":{"OBJECTID":95,"Name":"PRO PLAYER STADIUM","Address":"2269 NW 199TH ST","City":"OPA LOCKA","Zip":"33056","COUNTY":"MIAMI-DADE","X":-80.238844909999997,"Y":25.957950910000001,"LONGLAT":"-80.23884491,25.95795091","USNG":"17R NJ 76203 71248","OWNERSHIP":null,"PARCELID":"3411340110010","FACILITY_TYPE":"STADIUM"}},{"type":"Feature","id":96,"geometry":{"type":"Point","coordinates":[-81.344207889039652,29.215732183320107]},"properties":{"OBJECTID":96,"Name":"VOLUSIA SPEEDWAY PARK","Address":"1500 E STATE ROAD 40","City":"PIERSON","Zip":"32180","COUNTY":"VOLUSIA","X":-81.344207890000007,"Y":29.21573218,"LONGLAT":"-81.34420789,29.21573218","USNG":"17R MN 66543 31936","OWNERSHIP":null,"PARCELID":null,"FACILITY_TYPE":"STADIUM"}},{"type":"Feature","id":97,"geometry":{"type":"Point","coordinates":[-81.842206177091654,26.537699565391595]},"properties":{"OBJECTID":97,"Name":"LEE COUNTY SPORTS COMPLEX","Address":"14100 SIX MILE CYPRESS PKY","City":"FORT MYERS","Zip":"33912","COUNTY":"LEE","X":-81.842206180000005,"Y":26.537699570000001,"LONGLAT":"-81.84220618,26.53769957","USNG":"17R MK 16099 35508","OWNERSHIP":"COUNTY","PARCELID":"30452500000040010","FACILITY_TYPE":"STADIUM"}},{"type":"Feature","id":98,"geometry":{"type":"Point","coordinates":[-80.611147404881066,28.083907335072581]},"properties":{"OBJECTID":98,"Name":"MELBOURNE AUDITORIUM","Address":"625 E HIBISCUS BLVD","City":"MELBOURNE","Zip":"32901","COUNTY":"BREVARD","X":-80.611147399999993,"Y":28.08390734,"LONGLAT":"-80.61114740,28.08390734","USNG":"17R NM 38203 06558","OWNERSHIP":null,"PARCELID":null,"FACILITY_TYPE":"STADIUM"}},{"type":"Feature","id":99,"geometry":{"type":"Point","coordinates":[-80.145260962137897,25.994761206057472]},"properties":{"OBJECTID":99,"Name":"HOLLYWOOD GREYHOUND TRACK","Address":"831 N FEDERAL HWY","City":"HALLANDALE","Zip":"33009","COUNTY":"BROWARD","X":-80.145260960000002,"Y":25.99476121,"LONGLAT":"-80.14526096,25.99476121","USNG":"17R NJ 85546 75383","OWNERSHIP":null,"PARCELID":"514222020010","FACILITY_TYPE":"STADIUM"}},{"type":"Feature","id":100,"geometry":{"type":"Point","coordinates":[-87.308279175184239,30.503682741191149]},"properties":{"OBJECTID":100,"Name":"FIVE FLAGS SPEEDWAY","Address":"7451 PINE FOREST RD","City":"PENSACOLA","Zip":"32526","COUNTY":"ESCAMBIA","X":-87.30827918,"Y":30.503682739999999,"LONGLAT":"-87.30827918,30.50368274","USNG":"16R DU 70418 74640","OWNERSHIP":null,"PARCELID":"241S312100000001","FACILITY_TYPE":"STADIUM"}},{"type":"Feature","id":101,"geometry":{"type":"Point","coordinates":[-80.149310170860659,26.119935627519393]},"properties":{"OBJECTID":101,"Name":"BROWARD CENTER PERF ARTS","Address":"201 SW 5TH AVE","City":"FORT LAUDERDALE","Zip":"33312","COUNTY":"BROWARD","X":-80.149310170000007,"Y":26.119935630000001,"LONGLAT":"-80.14931017,26.11993563","USNG":"17R NJ 85050 89244","OWNERSHIP":"SPECIAL TAXING DISTRICT","PARCELID":"504210880010","FACILITY_TYPE":"STADIUM"}},{"type":"Feature","id":102,"geometry":{"type":"Point","coordinates":[-81.402760421597932,28.539050009136666]},"properties":{"OBJECTID":102,"Name":"CITRUS BOWL STADIUM","Address":"1610 W CHURCH ST","City":"ORLANDO","Zip":"32805","COUNTY":"ORANGE","X":-81.402760420000007,"Y":28.53905001,"LONGLAT":"-81.40276042,28.53905001","USNG":"17R MM 60598 56984","OWNERSHIP":null,"PARCELID":null,"FACILITY_TYPE":"STADIUM"}},{"type":"Feature","id":103,"geometry":{"type":"Point","coordinates":[-81.729429452128002,27.999470469263063]},"properties":{"OBJECTID":103,"Name":"CHAIN OF LAKES PARK","Address":"500 CLETUS R ALLEN DR","City":"WINTER HAVEN","Zip":"33880","COUNTY":"POLK","X":-81.729429449999998,"Y":27.999470469999999,"LONGLAT":"-81.72942945,27.99947047","USNG":"17R ML 28279 97358","OWNERSHIP":"OTHER PUBLIC","PARCELID":"262832643500001104","FACILITY_TYPE":"STADIUM"}},{"type":"Feature","id":104,"geometry":{"type":"Point","coordinates":[-84.30440638603244,30.438124317386002]},"properties":{"OBJECTID":104,"Name":"DOAK CAMPBELL STADIUM - FSU","Address":"282 CHAMPIONS WAY","City":"TALLAHASSEE","Zip":"32306","COUNTY":"LEON","X":-84.304406389999997,"Y":30.43812432,"LONGLAT":"-84.30440639,30.43812432","USNG":"16R GU 58880 70421","OWNERSHIP":null,"PARCELID":null,"FACILITY_TYPE":"STADIUM"}},{"type":"Feature","id":105,"geometry":{"type":"Point","coordinates":[-81.776065350773422,26.32628961336362]},"properties":{"OBJECTID":105,"Name":"NAPLES-FORT MYERS GREYHOUND TRACK","Address":"10601 BONITA BEACH RD SE","City":"BONITA SPRINGS","Zip":"34135","COUNTY":"LEE","X":-81.776065349999996,"Y":26.32628961,"LONGLAT":"-81.77606535,26.32628961","USNG":"17R MK 22547 12051","OWNERSHIP":null,"PARCELID":"024825B2000090000","FACILITY_TYPE":"STADIUM"}},{"type":"Feature","id":106,"geometry":{"type":"Point","coordinates":[-80.292638185531445,26.260720690901135]},"properties":{"OBJECTID":106,"Name":"AQUATICS COMPLEX","Address":"12441 ROYAL PALM BLVD","City":"POMPANO BEACH","Zip":"33065","COUNTY":"BROWARD","X":-80.292638190000005,"Y":26.260720689999999,"LONGLAT":"-80.29263819,26.26072069","USNG":"17R NK 70635 04750","OWNERSHIP":"MUNICIPAL","PARCELID":"484119080010","FACILITY_TYPE":"STADIUM"}},{"type":"Feature","id":107,"geometry":{"type":"Point","coordinates":[-80.306151750511219,26.921395152330312]},"properties":{"OBJECTID":107,"Name":"MOROSO MOTORSPORTS PARK","Address":"17047 BEE LINE HWY","City":"LOXAHATCHEE","Zip":"33470","COUNTY":"PALM BEACH","X":-80.306151749999998,"Y":26.921395149999999,"LONGLAT":"-80.30615175,26.92139515","USNG":"17R NK 68889 77917","OWNERSHIP":null,"PARCELID":null,"FACILITY_TYPE":"STADIUM"}},{"type":"Feature","id":108,"geometry":{"type":"Point","coordinates":[-81.71609527748069,28.035622550523509]},"properties":{"OBJECTID":108,"Name":"DIAMOND PLEX BASEBALL COMPLEX","Address":"POLK COMM COLLEGE ACCESS RD","City":"WINTER HAVEN","Zip":"33881","COUNTY":"POLK","X":-81.716095280000005,"Y":28.035622549999999,"LONGLAT":"-81.71609528,28.03562255","USNG":"17R MM 29613 01355","OWNERSHIP":null,"PARCELID":"262821571000000108","FACILITY_TYPE":"STADIUM"}},{"type":"Feature","id":109,"geometry":{"type":"Point","coordinates":[-80.134016309950084,26.133555117429808]},"properties":{"OBJECTID":109,"Name":"WAR MEMORIAL AUDITORIUM","Address":"800 NE 8TH ST","City":"FORT LAUDERDALE","Zip":"33304","COUNTY":"BROWARD","X":-80.134016310000007,"Y":26.13355512,"LONGLAT":"-80.13401631,26.13355512","USNG":"17R NJ 86569 90762","OWNERSHIP":"MUNICIPAL","PARCELID":"504202280010","FACILITY_TYPE":"STADIUM"}},{"type":"Feature","id":110,"geometry":{"type":"Point","coordinates":[-80.145220076748288,26.414784495966902]},"properties":{"OBJECTID":110,"Name":"ROYAL PALM POLO SPORTS CLUB","Address":"18000 JOG RD","City":"BOCA RATON","Zip":"33496","COUNTY":"PALM BEACH","X":-80.145220080000001,"Y":26.4147845,"LONGLAT":"-80.14522008,26.41478450","USNG":"17R NK 85243 21902","OWNERSHIP":null,"PARCELID":null,"FACILITY_TYPE":"STADIUM"}},{"type":"Feature","id":111,"geometry":{"type":"Point","coordinates":[-80.406930086533009,27.328479914568724]},"properties":{"OBJECTID":111,"Name":"ST LUCIE COUNTY SPORTS COMPLEX","Address":"NW PEACOCK BLVD","City":"PORT SAINT LUCIE","Zip":"34986","COUNTY":"ST. LUCIE","X":-80.406930090000003,"Y":27.328479919999999,"LONGLAT":"-80.40693009,27.32847992","USNG":"17R NL 58670 22957","OWNERSHIP":null,"PARCELID":"3323-640-0001-000-4","FACILITY_TYPE":"STADIUM"}},{"type":"Feature","id":112,"geometry":{"type":"Point","coordinates":[-80.256642499109958,25.775768991146823]},"properties":{"OBJECTID":112,"Name":"FLAGLER GREYHOUND TRACK","Address":"450 NW 37TH AVE","City":"MIAMI","Zip":"33126","COUNTY":"MIAMI-DADE","X":-80.256642499999998,"Y":25.77576899,"LONGLAT":"-80.25664250,25.77576899","USNG":"17R NJ 74535 51062","OWNERSHIP":null,"PARCELID":null,"FACILITY_TYPE":"STADIUM"}},{"type":"Feature","id":113,"geometry":{"type":"Point","coordinates":[-82.503392004541794,27.97597111740594]},"properties":{"OBJECTID":113,"Name":"RAYMOND JAMES STADIUM","Address":"4201 N DALE MABRY HWY","City":"TAMPA","Zip":"33607","COUNTY":"HILLSBOROUGH","X":-82.503392000000005,"Y":27.975971120000001,"LONGLAT":"-82.50339200,27.97597112","USNG":"17R LL 52140 95450","OWNERSHIP":null,"PARCELID":null,"FACILITY_TYPE":"STADIUM"}},{"type":"Feature","id":114,"geometry":{"type":"Point","coordinates":[-82.506502621100111,27.980256459163904]},"properties":{"OBJECTID":114,"Name":"GEORGE M STEINBRENNER FIELD","Address":"1 STEINBRENNER DR","City":"TAMPA","Zip":"33614","COUNTY":"HILLSBOROUGH","X":-82.506502620000006,"Y":27.98025646,"LONGLAT":"-82.50650262,27.98025646","USNG":"17R LL 51840 95929","OWNERSHIP":"COUNTY","PARCELID":"182909ZZZ000005461400A","FACILITY_TYPE":"STADIUM"}},{"type":"Feature","id":115,"geometry":{"type":"Point","coordinates":[-81.076319883442991,29.17990997715567]},"properties":{"OBJECTID":115,"Name":"DAYTONA ITN'L SPEEDWAY-WEST PARKING","Address":" ","City":"DAYTONA BEACH","Zip":"32114","COUNTY":"VOLUSIA","X":-81.07631988,"Y":29.179909980000001,"LONGLAT":"-81.07631988,29.17990998","USNG":"17R MN 92579 27920","OWNERSHIP":null,"PARCELID":"32153900000738","FACILITY_TYPE":"STADIUM"}},{"type":"Feature","id":116,"geometry":{"type":"Point","coordinates":[-81.551780050204087,28.338480026521552]},"properties":{"OBJECTID":116,"Name":"DISNEY'S WIDE WORLD OF SPORTS","Address":"710 VICTORY WAY","City":"KISSIMMEE","Zip":"34747","COUNTY":"OSCEOLA","X":-81.551780050000005,"Y":28.338480029999999,"LONGLAT":"-81.55178005,28.33848003","USNG":"17R MM 45917 34822","OWNERSHIP":null,"PARCELID":"06-25-28-0000-0046-0000","FACILITY_TYPE":"STADIUM"}},{"type":"Feature","id":117,"geometry":{"type":"Point","coordinates":[-82.206190939933109,28.347932076096587]},"properties":{"OBJECTID":117,"Name":"DADE CITY RACEWAY","Address":"36850 STATE ROAD 52","City":"DADE CITY","Zip":"33525","COUNTY":"PASCO","X":-82.206190939999999,"Y":28.34793208,"LONGLAT":"-82.20619094,28.34793208","USNG":"17R LM 81782 36336","OWNERSHIP":"COUNTY","PARCELID":" ","FACILITY_TYPE":"STADIUM"}},{"type":"Feature","id":118,"geometry":{"type":"Point","coordinates":[-82.517755054915824,27.348201072137158]},"properties":{"OBJECTID":118,"Name":"ED SMITH STADIUM","Address":"2700 12TH ST","City":"SARASOTA","Zip":"34237","COUNTY":"SARASOTA","X":-82.517755050000005,"Y":27.348201069999998,"LONGLAT":"-82.51775505,27.34820107","USNG":"17R LL 49872 25916","OWNERSHIP":"SPECIAL TAXING DISTRICT","PARCELID":"2023-09-0001","FACILITY_TYPE":"STADIUM"}},{"type":"Feature","id":119,"geometry":{"type":"Point","coordinates":[-81.06795318373446,29.185765828392121]},"properties":{"OBJECTID":119,"Name":"DAYTONA BEACH INTERNATIONAL SPEEDWAY","Address":"1801 W INTERNATIONAL SPEEDWAY BLVD","City":"DAYTONA BEACH","Zip":"32114","COUNTY":"VOLUSIA","X":-81.067953180000003,"Y":29.185765830000001,"LONGLAT":"-81.06795318,29.18576583","USNG":"17R MN 93393 28569","OWNERSHIP":null,"PARCELID":"32153900000740","FACILITY_TYPE":"STADIUM"}}]}